[{"id": "bin:6f5e75c64ffbcbb4", "type": "bin", "name": "도로변(구로중앙로 135-6)(2)", "lat": 37.499951, "lng": 126.882869}, {"id": "bin:23d46c4017d1316f", "type": "bin", "name": "도로변(구로동로 141)", "lat": 37.49132, "lng": 126.883399}, {"id": "bin:1145baafcf76621d", "type": "bin", "name": "구로구청(1)", "lat": 37.495511, "lng": 126.888289}, {"id": "bin:46932083f3386212", "type": "bin", "name": "구로구청(2)", "lat": 37.495511, "lng": 126.888289}, {"id": "bin:cf5e532335b62299", "type": "bin", "name": "도로변(가마산로 235)", "lat": 37.494532, "lng": 126.887015}, {"id": "bin:de7f291e65e6aa68", "type": "bin", "name": "도로변(가마산로 250)", "lat": 37.494814, "lng": 126.888677}, {"id": "bin:83a76c1d0485e7b7", "type": "bin", "name": "도로변(구로동로 135)", "lat": 37.490641, "lng": 126.88371}, {"id": "bin:e94ab106c30a5232", "type": "bin", "name": "도로변(가마산로 206)", "lat": 37.492955, "lng": 126.884044}, {"id": "bin:0cfcaae7acd56a0c", "type": "bin", "name": "도로변(구로동로 159)", "lat": 37.492736, "lng": 126.883204}, {"id": "bin:de7c39edc3a21238", "type": "bin", "name": "도로변(경인로 565)", "lat": 37.50364, "lng": 126.879714}, {"id": "bin:83d5018d649d2b3f", "type": "bin", "name": "도로변(경인로 557)", "lat": 37.503109, "lng": 126.879009}, {"id": "bin:cc40839ce89b62e6", "type": "bin", "name": "도로변(경인로 518)", "lat": 37.500239, "lng": 126.87691}, {"id": "bin:773e4adab8cd0fdc", "type": "bin", "name": "도로변(구로동로 179)", "lat": 37.494453, "lng": 126.882542}, {"id": "bin:0c94b5a932375612", "type": "bin", "name": "도로변(구로동 481-7)", "lat": 37.496719, "lng": 126.88227}, {"id": "bin:5a040c50be103af7", "type": "bin", "name": "버스정류소(17142)", "lat": 37.498129, "lng": 126.883412}, {"id": "bin:27b1ef44ee4f9f00", "type": "bin", "name": "도로변(구로동로 174)", "lat": 37.494049, "lng": 126.883365}, {"id": "bin:670c36dc0cca2270", "type": "bin", "name": "도로변(가마산로 180-2)", "lat": 37.491682, "lng": 126.882275}, {"id": "bin:05500aea064cd452", "type": "bin", "name": "도로변(가마산로 222)", "lat": 37.493496, "lng": 126.885788}, {"id": "bin:dbf6dc645d513536", "type": "bin", "name": "도로변(가마산로9길 4-4)", "lat": 37.49154, "lng": 126.881638}, {"id": "bin:4b7feaaeeceedc75", "type": "bin", "name": "도로변(벚꽃로 484)", "lat": 37.497332, "lng": 126.880135}, {"id": "bin:2fb1d51d4a4c9e88", "type": "bin", "name": "도로변(구로동로 125-1)", "lat": 37.489823, "lng": 126.884047}, {"id": "bin:f9e13dcbf033f4c2", "type": "bin", "name": "도로변(구로동로 107)", "lat": 37.488136, "lng": 126.88452}, {"id": "bin:ce13025dcd5ee38d", "type": "bin", "name": "도로변(가마산로 203)", "lat": 37.493403, "lng": 126.883747}, {"id": "bin:6891d9c4a6af36cb", "type": "bin", "name": "버스전용차로-17005(1)", "lat": 37.499858, "lng": 126.874931}, {"id": "bin:5a71407015e879dc", "type": "bin", "name": "버스전용차로-17005(2)", "lat": 37.499858, "lng": 126.874931}, {"id": "bin:102d0473075dde4e", "type": "bin", "name": "버스전용차로-17006(1)", "lat": 37.499858, "lng": 126.874931}, {"id": "bin:392653d16fa92dcd", "type": "bin", "name": "버스전용차로-17006(2)", "lat": 37.499858, "lng": 126.874931}, {"id": "bin:707d0c05469b19c9", "type": "bin", "name": "라크라센타(1)", "lat": 37.494362, "lng": 126.887671}, {"id": "bin:d68182c4b132c6bd", "type": "bin", "name": "상계주공7단지(714동 앞) 버스정류장", "lat": 37.660677, "lng": 127.061496}, {"id": "bin:311fc8e9f6297998", "type": "bin", "name": "구로고대병원 이음관", "lat": 37.493216, "lng": 126.885141}, {"id": "bin:591b6285dfe63d91", "type": "bin", "name": "라크라센타(2)", "lat": 37.494362, "lng": 126.887671}, {"id": "bin:2769065d2626360c", "type": "bin", "name": "온누리십자당약국", "lat": 37.493924, "lng": 126.882903}, {"id": "bin:5e62fb2f93580e61", "type": "bin", "name": "광양교회", "lat": 37.497848, "lng": 126.882701}, {"id": "bin:87965a4a7fcda390", "type": "bin", "name": "구로구청(3)", "lat": 37.495511, "lng": 126.888289}, {"id": "bin:035a43a1a1ee00b0", "type": "bin", "name": "도로변(구로동로 153)", "lat": 37.492356, "lng": 126.883433}, {"id": "bin:c287da8095a7e5bd", "type": "bin", "name": "도로변(구로동로 219)", "lat": 37.498134, "lng": 126.882207}, {"id": "bin:5fec6a7d02fc6e1d", "type": "bin", "name": "도로변(가마산로 205)", "lat": 37.493461, "lng": 126.884108}, {"id": "bin:e3b044452021e726", "type": "bin", "name": "도로변(구로동로 170)", "lat": 37.493761, "lng": 126.883394}, {"id": "bin:2292798ebcad6820", "type": "bin", "name": "도로변(구로동로 210)", "lat": 37.497214, "lng": 126.882659}, {"id": "bin:a0e0e187baf99e23", "type": "bin", "name": "도로변(구로동로 203)", "lat": 37.496719, "lng": 126.88227}, {"id": "bin:96dcafc531ee552b", "type": "bin", "name": "도로변(도림로 6)(1)", "lat": 37.485161, "lng": 126.886737}, {"id": "bin:b7148627bcb51b9c", "type": "bin", "name": "도로변(도림로 6)(2)", "lat": 37.485161, "lng": 126.886737}, {"id": "bin:82ee7b1cc2d295d2", "type": "bin", "name": "도로변(디지털로 273)", "lat": 37.483954, "lng": 126.894103}, {"id": "bin:5923b3412e235b97", "type": "bin", "name": "도로변(디지털로 292)", "lat": 37.484694, "lng": 126.895892}, {"id": "bin:a1cdf7b53822b903", "type": "bin", "name": "구로현대아파트", "lat": 37.490038, "lng": 126.895433}, {"id": "bin:33a50cd1c9896b96", "type": "bin", "name": "에이스하이엔드타워1차", "lat": 37.481611, "lng": 126.893479}, {"id": "bin:6d39e28d6a5c8d87", "type": "bin", "name": "도로변(디지털로31길 120)", "lat": 37.48847, "lng": 126.890773}, {"id": "bin:84853ea3e3ff0700", "type": "bin", "name": "도로변(디지털로32길 55)", "lat": 37.483987, "lng": 126.898339}, {"id": "bin:56f7439d7b351ead", "type": "bin", "name": "도로변(디지털로32길 79)(1)", "lat": 37.483533, "lng": 126.899752}, {"id": "bin:4796a2b17006f670", "type": "bin", "name": "도로변(디지털로32길 79)(2)", "lat": 37.483533, "lng": 126.899752}, {"id": "bin:621378ce3770f985", "type": "bin", "name": "도로변(디지털로32길 38)", "lat": 37.484545, "lng": 126.901199}, {"id": "bin:2f25fe1540552f93", "type": "bin", "name": "도로변(디지털로32나길 51)", "lat": 37.484901, "lng": 126.900382}, {"id": "bin:c35a70a79c889fc8", "type": "bin", "name": "도로변(시흥대로 563)(1)", "lat": 37.483392, "lng": 126.901424}, {"id": "bin:e7413a2e8da993da", "type": "bin", "name": "도로변(시흥대로 563)(2)", "lat": 37.483392, "lng": 126.901424}, {"id": "bin:94722580407c1d39", "type": "bin", "name": "버스정류장(17229)(1)", "lat": 37.483392, "lng": 126.901424}, {"id": "bin:bfa5738faea2790c", "type": "bin", "name": "버스정류장(17229)(2)", "lat": 37.483392, "lng": 126.901424}, {"id": "bin:c25d8f7a1e48aeb1", "type": "bin", "name": "도로변(디지털로27가길 17)", "lat": 37.484388, "lng": 126.892335}, {"id": "bin:ec75e207bbe68ce2", "type": "bin", "name": "상계주공7단지(704동 앞) 버스정류장", "lat": 37.660677, "lng": 127.061496}, {"id": "bin:e972901ba98d9658", "type": "bin", "name": "도로변(디지털로31길 61)", "lat": 37.485911, "lng": 126.891542}, {"id": "bin:2a0d0acadf257175", "type": "bin", "name": "도로변(디지털로33길 11)", "lat": 37.485706, "lng": 126.895513}, {"id": "bin:2f04ecb43875373d", "type": "bin", "name": "도로변(디지털로31길 109)", "lat": 37.487347, "lng": 126.89033}, {"id": "bin:a911ae1cdf153f60", "type": "bin", "name": "보민한의원", "lat": 37.48892, "lng": 126.89015}, {"id": "bin:772fa4e15c26dc3e", "type": "bin", "name": "황금부동산 앞", "lat": 37.485151, "lng": 126.886185}, {"id": "bin:bb32f9bb46c1e62f", "type": "bin", "name": "도로변(도림로 5)", "lat": 37.485229, "lng": 126.8863}, {"id": "bin:35c5d721c7b3d13d", "type": "bin", "name": "도로변(구로동로 84)", "lat": 37.486284, "lng": 126.885635}, {"id": "bin:6ab5ef84ae2ddf74", "type": "bin", "name": "도로변(구로동로 96-1)", "lat": 37.487313, "lng": 126.88518}, {"id": "bin:eb4003c144fb60c6", "type": "bin", "name": "도로변(구로동로 108)", "lat": 37.488253, "lng": 126.884851}, {"id": "bin:131587d7058615a2", "type": "bin", "name": "농협구로지점", "lat": 37.489632, "lng": 126.884536}, {"id": "bin:38a05dc9a9d81cfa", "type": "bin", "name": "기업은행 남구로", "lat": 37.489931, "lng": 126.88457}, {"id": "bin:12962059ba97cbff", "type": "bin", "name": "도로변(구로중앙로28길 66)(1)", "lat": 37.500103, "lng": 126.889338}, {"id": "bin:9a5acda68a9d4c5e", "type": "bin", "name": "도로변(구로중앙로28길 66)(2)", "lat": 37.500103, "lng": 126.889338}, {"id": "bin:3fbe97aa92c8a6cc", "type": "bin", "name": "아름제일병원", "lat": 37.50547, "lng": 126.890498}, {"id": "bin:fde8be1b08504a5a", "type": "bin", "name": "버스정류소(17293)(1)", "lat": 37.49586, "lng": 126.888807}, {"id": "bin:db79137328dc1710", "type": "bin", "name": "버스정류소(17293)(2)", "lat": 37.49586, "lng": 126.888807}, {"id": "bin:b55a6a389d632b34", "type": "bin", "name": "NC백화점 신구로점(1)", "lat": 37.50116, "lng": 126.882773}, {"id": "bin:aee9df1567672be9", "type": "bin", "name": "NC백화점 신구로점(2)", "lat": 37.50116, "lng": 126.882773}, {"id": "bin:9196d5adde934869", "type": "bin", "name": "성호메이플아파트(1)", "lat": 37.496905, "lng": 126.891385}, {"id": "bin:4dbe3f72c2aac7c4", "type": "bin", "name": "성호메이플아파트(2)", "lat": 37.496905, "lng": 126.891385}, {"id": "bin:1877a2972b76c8b9", "type": "bin", "name": "남원가마솥추어탕", "lat": 37.505143, "lng": 126.888908}, {"id": "bin:11033794b8ac803a", "type": "bin", "name": "구로고등학교", "lat": 37.49884, "lng": 126.890309}, {"id": "bin:be576ee4bf8fff44", "type": "bin", "name": "대성스카이렉스아파트(1)", "lat": 37.499397, "lng": 126.891009}, {"id": "bin:6f3384fce19f2748", "type": "bin", "name": "상신운수", "lat": 37.50132, "lng": 126.8894}, {"id": "bin:d5c5605100034735", "type": "bin", "name": "삼각어린이공원", "lat": 37.501358, "lng": 126.892013}, {"id": "bin:bc5529476f08ce7e", "type": "bin", "name": "한국SGI", "lat": 37.502592, "lng": 126.890181}, {"id": "bin:9fb1b3cd981234b2", "type": "bin", "name": "신도림역2번(택시)", "lat": 37.507864, "lng": 126.892218}, {"id": "bin:37f177688c28b332", "type": "bin", "name": "신도림역", "lat": 37.507442, "lng": 126.892269}, {"id": "bin:bf6bde9920e5c33a", "type": "bin", "name": "화랑대역 2번출구 버스정류장", "lat": 37.620956, "lng": 127.084896}, {"id": "bin:f2d2ff339ab6df60", "type": "bin", "name": "신도림역2번(신호등)", "lat": 37.507864, "lng": 126.892218}, {"id": "bin:7533d8e0c9d50179", "type": "bin", "name": "신도림역2번(자전거)", "lat": 37.507864, "lng": 126.892218}, {"id": "bin:df3986b174484f40", "type": "bin", "name": "구로미래도서관", "lat": 37.507864, "lng": 126.892218}, {"id": "bin:8af34a9e2ed8e02b", "type": "bin", "name": "도로변(경인로 572)", "lat": 37.503306, "lng": 126.881084}, {"id": "bin:bf14896bf2aa5e37", "type": "bin", "name": "버스정류장(17863)", "lat": 37.50047, "lng": 126.888932}, {"id": "bin:ef88716484e72bdd", "type": "bin", "name": "구로보건소", "lat": 37.500164, "lng": 126.889338}, {"id": "bin:72d6c584b790c3e3", "type": "bin", "name": "장성빌딩", "lat": 37.498506, "lng": 126.886377}, {"id": "bin:e22a862b321eac80", "type": "bin", "name": "도로변(구로동 3-64)", "lat": 37.507264, "lng": 126.89282}, {"id": "bin:1ce8cb711e15525d", "type": "bin", "name": "대성스카이렉스아파트(2)", "lat": 37.499397, "lng": 126.891009}, {"id": "bin:1f5348435cc8925d", "type": "bin", "name": "수궁동주민센터(1)", "lat": 37.493891, "lng": 126.831477}, {"id": "bin:05f5bc2808f33a53", "type": "bin", "name": "수궁동주민센터(2)", "lat": 37.493891, "lng": 126.831477}, {"id": "bin:a5e3f2b4f5e812b6", "type": "bin", "name": "보현정사 앞", "lat": 37.498098, "lng": 126.828955}, {"id": "bin:77d474eda564633e", "type": "bin", "name": "DC마트 앞", "lat": 37.496882, "lng": 126.829207}, {"id": "bin:7e13a7c717b822cd", "type": "bin", "name": "현대카공업사 앞", "lat": 37.496278, "lng": 126.829996}, {"id": "bin:cd29c890ebdb60c8", "type": "bin", "name": "연세중앙교회 정문", "lat": 37.493509, "lng": 126.835896}, {"id": "bin:5fbe118e25879afa", "type": "bin", "name": "도로변(부일로15길 4)", "lat": 37.493516, "lng": 126.834427}, {"id": "bin:041a07e8bf7d0b55", "type": "bin", "name": "24시 뼈다귀감자탕 건너편(1)", "lat": 37.4934, "lng": 126.833692}, {"id": "bin:8a71563bcaa61494", "type": "bin", "name": "24시 뼈다귀감자탕 건너편(2)", "lat": 37.4934, "lng": 126.833692}, {"id": "bin:07d05358df2f19ab", "type": "bin", "name": "우신중고교입구삼거리", "lat": 37.494902, "lng": 126.826354}, {"id": "bin:9946736b6d3c6297", "type": "bin", "name": "온수역 6번출구", "lat": 37.492545, "lng": 126.823543}, {"id": "bin:5ed63f4875dd4dd7", "type": "bin", "name": "기업은행 앞 횡단보도", "lat": 37.492943, "lng": 126.823634}, {"id": "bin:cd2dc6fa3359825b", "type": "bin", "name": "엘림공인중개사, 월드빌라 맞은편", "lat": 37.492654, "lng": 126.822945}, {"id": "bin:75215e43a8432ec7", "type": "bin", "name": "온수힐스테이트 버스 회차장", "lat": 37.496902, "lng": 126.822186}, {"id": "bin:cfe544fe1e7333f2", "type": "bin", "name": "온수역 남부광장 돌돌치킨 앞(1)", "lat": 37.491737, "lng": 126.823542}, {"id": "bin:13c833f35caf67ea", "type": "bin", "name": "온수역 남부광장 돌돌치킨 앞(2)", "lat": 37.491737, "lng": 126.823542}, {"id": "bin:eb2dbfa3a0d7949b", "type": "bin", "name": "대림12차아파트(1)", "lat": 37.505123, "lng": 126.882191}, {"id": "bin:c544384b8058f41e", "type": "bin", "name": "대림12차아파트(2)", "lat": 37.505123, "lng": 126.882191}, {"id": "bin:de76aee6eb20055a", "type": "bin", "name": "파리바게트 앞(1)", "lat": 37.505595, "lng": 126.877275}, {"id": "bin:6c2cb0e32b6f5dca", "type": "bin", "name": "예수사랑교회 앞 버스정류장", "lat": 37.624449, "lng": 127.086216}, {"id": "bin:63b9999b089c8aa4", "type": "bin", "name": "파리바게트 앞(2)", "lat": 37.505595, "lng": 126.877275}, {"id": "bin:68ada14082e3a010", "type": "bin", "name": "신도림중학교", "lat": 37.509389, "lng": 126.8847}, {"id": "bin:e8076ee14951e6e8", "type": "bin", "name": "버스정류장(17475)", "lat": 37.509924, "lng": 126.882026}, {"id": "bin:f7a88c3096e9c318", "type": "bin", "name": "신도림아이파크아파트", "lat": 37.511981, "lng": 126.888175}, {"id": "bin:d0b325588926b01e", "type": "bin", "name": "도로변(신도림로 40)", "lat": 37.50778, "lng": 126.880595}, {"id": "bin:4cf5bd101c0dfc79", "type": "bin", "name": "성관빌딩 파리바게트 앞", "lat": 37.511203, "lng": 126.88447}, {"id": "bin:7f574953a37edfd4", "type": "bin", "name": "대림3차아파트(1)", "lat": 37.507275, "lng": 126.878181}, {"id": "bin:e4d01bb11226f114", "type": "bin", "name": "대림3차아파트(2)", "lat": 37.507275, "lng": 126.878181}, {"id": "bin:d476eb42b35309a5", "type": "bin", "name": "디큐브시티아파트", "lat": 37.506238, "lng": 126.885392}, {"id": "bin:58d350f39ede9bac", "type": "bin", "name": "버스전용차로(1)", "lat": 37.508627, "lng": 126.887638}, {"id": "bin:64daff92acdfce18", "type": "bin", "name": "버스전용차로(2)", "lat": 37.508627, "lng": 126.887638}, {"id": "bin:597c19b87be05732", "type": "bin", "name": "버스전용차로(3)", "lat": 37.508627, "lng": 126.887638}, {"id": "bin:b83dbac4cc0defb1", "type": "bin", "name": "버스전용차로(4)", "lat": 37.508627, "lng": 126.887638}, {"id": "bin:c599af3e32d567a5", "type": "bin", "name": "버스전용차로(5)", "lat": 37.505643, "lng": 126.883498}, {"id": "bin:b6bdb7d941022c5d", "type": "bin", "name": "버스전용차로(6)", "lat": 37.505643, "lng": 126.883498}, {"id": "bin:a53d81dd0daf4c4e", "type": "bin", "name": "버스전용차로(7)", "lat": 37.505643, "lng": 126.883498}, {"id": "bin:f3bb5c4923eb425f", "type": "bin", "name": "푸르지오상가앞", "lat": 37.509049, "lng": 126.886987}, {"id": "bin:630a6241995d4356", "type": "bin", "name": "연길순희냉면", "lat": 37.481853, "lng": 126.887875}, {"id": "bin:de50291f1cbf364b", "type": "bin", "name": "뽑기대륙", "lat": 37.480903, "lng": 126.888878}, {"id": "bin:fcea8bddb06d6235", "type": "bin", "name": "연변냉면", "lat": 37.481247, "lng": 126.888586}, {"id": "bin:925e0ab7c2560079", "type": "bin", "name": "문화의거리", "lat": 37.482843, "lng": 126.887327}, {"id": "bin:3a30cf9ae55909e5", "type": "bin", "name": "초원양꼬치", "lat": 37.480903, "lng": 126.888878}, {"id": "bin:b32df61891eeb277", "type": "bin", "name": "도로변(오류1동 주민센터 앞)", "lat": 37.497071, "lng": 126.845091}, {"id": "bin:860b3176a5a19308", "type": "bin", "name": "도로변(하이축산 앞)", "lat": 37.496722, "lng": 126.844944}, {"id": "bin:b703f34118cd5c76", "type": "bin", "name": "한신플러스타운 아파트", "lat": 37.498568, "lng": 126.840471}, {"id": "bin:efe7a367b011216b", "type": "bin", "name": "버스정류장(17307)", "lat": 37.495422, "lng": 126.840901}, {"id": "bin:67c2fd606e704090", "type": "bin", "name": "버스정류소(오류지구대정류장)(1)", "lat": 37.494392, "lng": 126.839457}, {"id": "bin:674bc63c9a3196b1", "type": "bin", "name": "버스정류소(오류지구대정류장)(2)", "lat": 37.494392, "lng": 126.839457}, {"id": "bin:665ac5ae2f365b84", "type": "bin", "name": "버스정류소(씨티월드정류장)(1)", "lat": 37.494464, "lng": 126.840722}, {"id": "bin:cd94b34fbc2adb66", "type": "bin", "name": "버스정류소(씨티월드정류장)(2)", "lat": 37.494464, "lng": 126.840722}, {"id": "bin:516698cc72787aa2", "type": "bin", "name": "도로변(블루클럽 앞)(1)", "lat": 37.495382, "lng": 126.842931}, {"id": "bin:2e39b34f8f49b26a", "type": "bin", "name": "도로변(블루클럽 앞)(2)", "lat": 37.495382, "lng": 126.842931}, {"id": "bin:63446eb4a28ef101", "type": "bin", "name": "천왕이펜하우스", "lat": 37.485325, "lng": 126.837723}, {"id": "bin:9c9a2cb973b59565", "type": "bin", "name": "버스정류장(17399)", "lat": 37.483711, "lng": 126.841287}, {"id": "bin:90666390e072e961", "type": "bin", "name": "버스정류장(17397)", "lat": 37.483607, "lng": 126.841003}, {"id": "bin:bec74bbe3e947a51", "type": "bin", "name": "버스정류장(17205)", "lat": 37.490488, "lng": 126.840874}, {"id": "bin:81d997879f15a5f3", "type": "bin", "name": "오류소공원 내(1)", "lat": 37.492462, "lng": 126.840975}, {"id": "bin:ced7a067f6ab4c38", "type": "bin", "name": "오류소공원 내(2)", "lat": 37.492462, "lng": 126.840975}, {"id": "bin:0f74b990c58f663f", "type": "bin", "name": "오류동역2번출구 자전거보관소 옆", "lat": 37.493444, "lng": 126.842968}, {"id": "bin:c0887e86993b6114", "type": "bin", "name": "버스정류장(17203)", "lat": 37.488221, "lng": 126.839713}, {"id": "bin:4691077576c60624", "type": "bin", "name": "도로변(항동 115-2)", "lat": 37.480208, "lng": 126.822536}, {"id": "bin:f4b7bbae396475c0", "type": "bin", "name": "버스정류장(17362)", "lat": 37.479827, "lng": 126.822111}, {"id": "bin:c3c3f0c6482ce914", "type": "bin", "name": "도로변(항동 82-7)", "lat": 37.481774, "lng": 126.824619}, {"id": "bin:3ee32e5671c3aa74", "type": "bin", "name": "버스정류장(17363)", "lat": 37.481355, "lng": 126.824877}, {"id": "bin:7813d09152bedb86", "type": "bin", "name": "도로변(항동 204-2)", "lat": 37.476991, "lng": 126.8195}, {"id": "bin:7856b94c72b13bb5", "type": "bin", "name": "도로변(항동 169-1)", "lat": 37.478369, "lng": 126.823641}, {"id": "bin:3e5508be29d1fc18", "type": "bin", "name": "도로변(항동 100-14)", "lat": 37.481305, "lng": 126.821679}, {"id": "bin:578aea9f9caac47a", "type": "bin", "name": "하버라인2단지", "lat": 37.481968, "lng": 126.823669}, {"id": "bin:34f57da863aeba5f", "type": "bin", "name": "마이홈고시원", "lat": 37.50117, "lng": 126.865405}, {"id": "bin:79caac7aab92b74e", "type": "bin", "name": "양떼목장", "lat": 37.501374, "lng": 126.86557}, {"id": "bin:195b2184e4e79155", "type": "bin", "name": "경인로", "lat": 37.501125, "lng": 126.883602}, {"id": "bin:1461b8010d4e6f6c", "type": "bin", "name": "새말로김치찌개삼겹살", "lat": 37.501164, "lng": 126.88349}, {"id": "bin:e79a03909e6a9ee3", "type": "bin", "name": "2차동부아파트", "lat": 37.49756, "lng": 126.847879}, {"id": "bin:05077a9400bfe628", "type": "bin", "name": "황비홍", "lat": 37.494464, "lng": 126.840732}, {"id": "bin:c2de231d9f494d90", "type": "bin", "name": "해츠빌", "lat": 37.493948, "lng": 126.840547}, {"id": "bin:72673ce50a21e6f4", "type": "bin", "name": "레지던스", "lat": 37.496181, "lng": 126.846457}, {"id": "bin:ebd0825a21928a22", "type": "bin", "name": "오류중앙재활의학과의원", "lat": 37.494266, "lng": 126.839146}, {"id": "bin:d206b7ed8ae498d5", "type": "bin", "name": "천왕역(1)", "lat": 37.4864, "lng": 126.839547}, {"id": "bin:8c1945ba81ae7e27", "type": "bin", "name": "천왕역(2)", "lat": 37.486822, "lng": 126.838774}, {"id": "bin:b000d87838c3b074", "type": "bin", "name": "푸른수목원", "lat": 37.481968, "lng": 126.823669}, {"id": "bin:fbe1381f64b8dc87", "type": "bin", "name": "버스정류장(17229)", "lat": 37.483392, "lng": 126.901424}, {"id": "bin:c254c827b2c8476a", "type": "bin", "name": "공원", "lat": 37.509847, "lng": 126.889001}, {"id": "bin:9fe94b972457ee8e", "type": "bin", "name": "버스정류장(17775)", "lat": 37.508627, "lng": 126.887638}, {"id": "bin:1a30605f94e9968f", "type": "bin", "name": "구로디지털단지역", "lat": 37.484713, "lng": 126.900872}, {"id": "bin:77cae2597d738f68", "type": "bin", "name": "도로변(개봉동 199-4)", "lat": 37.493808, "lng": 126.859765}, {"id": "bin:2ed52c68e2324843", "type": "bin", "name": "오류동역", "lat": 37.492558, "lng": 126.841342}, {"id": "bin:5ed5aaaaa4a523cf", "type": "bin", "name": "태릉입구역 1번출구 버스정류장", "lat": 37.617522, "lng": 127.074331}, {"id": "bin:291a0135b508f488", "type": "bin", "name": "공릉역(공연초등학교방면)버스정류장", "lat": 37.625901, "lng": 127.074258}, {"id": "bin:50871af6332fb1f1", "type": "bin", "name": "태릉입구역 4번출구 버스정류장", "lat": 37.619196, "lng": 127.075488}, {"id": "bin:31d5755c99e77b3e", "type": "bin", "name": "태릉입구역 3번출구 버스정류장", "lat": 37.618614, "lng": 127.074631}, {"id": "bin:89ffff3f02ed6d4d", "type": "bin", "name": "동일로 1041(은성빌딩) 앞 버스정류장", "lat": 37.623103, "lng": 127.073503}, {"id": "bin:dcfec8f004d3f7fb", "type": "bin", "name": "공릉역 4번출구 버스정류장", "lat": 37.626377, "lng": 127.07227}, {"id": "bin:74b5af192827afb3", "type": "bin", "name": "상계주공3단지(301동) 앞 버스정류장", "lat": 37.651736, "lng": 127.061456}, {"id": "bin:113fad324fef6f57", "type": "bin", "name": "노원구청 앞 버스정류장", "lat": 37.654519, "lng": 127.056297}, {"id": "bin:04140c2a7d0ab953", "type": "bin", "name": "대한적십자사 앞 버스정류장", "lat": 37.647009, "lng": 127.063343}, {"id": "bin:6f1c1c5188555c4a", "type": "bin", "name": "수락중고등학교 버스정류장(11205)", "lat": 37.682462, "lng": 127.056771}, {"id": "bin:7ca389154833cf77", "type": "bin", "name": "수락중고등학교 버스정류장(11204)", "lat": 37.683145, "lng": 127.054808}, {"id": "bin:370c241c876d6e80", "type": "bin", "name": "상계주공2단지 상가 버스정류장(11463)", "lat": 37.650226, "lng": 127.056865}, {"id": "bin:c0204056217e9b0f", "type": "bin", "name": "상계주공2단지 버스정류장(11254)", "lat": 37.650421, "lng": 127.059069}, {"id": "bin:2cb6fdcaa69e3b5f", "type": "bin", "name": "상계주공9단지 버스정류장(11191)", "lat": 37.664617, "lng": 127.059817}, {"id": "bin:297775d54278bea2", "type": "bin", "name": "청원고등학교 버스정류장(11190)", "lat": 37.663853, "lng": 127.061985}, {"id": "bin:30c106b6279beb56", "type": "bin", "name": "KT플라자 노원점 버스정류장(11601)", "lat": 37.65445, "lng": 127.063692}, {"id": "bin:e59954aa90448e47", "type": "bin", "name": "순복음교회 버스정류장(11680)", "lat": 37.654704, "lng": 127.066191}, {"id": "bin:59f6e0a87e1558ba", "type": "bin", "name": "상계중앙하이츠2단지 버스정류장(11430)", "lat": 37.654528, "lng": 127.068353}, {"id": "bin:63e60c6b8c692881", "type": "bin", "name": "상계중학교정문 버스정류장(11261)", "lat": 37.650521, "lng": 127.06735}, {"id": "bin:32f5c685bd9017e4", "type": "bin", "name": "건영옴니백화점 버스정류장(11368)", "lat": 37.638286, "lng": 127.062712}, {"id": "bin:f87115d420246b11", "type": "bin", "name": "노원평생학습관 버스정류장(11387)", "lat": 37.639858, "lng": 127.068668}, {"id": "bin:28235be81676edf8", "type": "bin", "name": "하계한신청구아파트 버스정류장(11444)", "lat": 37.63816, "lng": 127.068031}, {"id": "bin:52369ab666e0d35d", "type": "bin", "name": "노원롯데캐슬시그니처아파트 버스정류장(11229)", "lat": 37.665074, "lng": 127.077582}, {"id": "bin:7f4493582548483d", "type": "bin", "name": "노원롯데캐슬시그니처아파트 버스정류장(11230)", "lat": 37.665074, "lng": 127.077582}, {"id": "bin:d28d686425d49a8e", "type": "bin", "name": "상계3,4동주민센터 버스정류장(11994)", "lat": 37.673503, "lng": 127.084388}, {"id": "bin:0aca4106668ec23f", "type": "bin", "name": "원광초등학교 버스정류장(11365)", "lat": 37.651013, "lng": 127.075048}, {"id": "bin:e9398fe91400415a", "type": "bin", "name": "청암중고등학교 버스정류장(11361)", "lat": 37.654311, "lng": 127.074914}, {"id": "bin:af8b6a5861cd938a", "type": "bin", "name": "상명초등학교 버스정류장(11377)", "lat": 37.648723, "lng": 127.066968}, {"id": "bin:32edc945c0d2e3d9", "type": "bin", "name": "중계3단지목련아파트 버스정류장(11378)", "lat": 37.646177, "lng": 127.06966}, {"id": "bin:0f403d6917067d95", "type": "bin", "name": "홈플러스중계점 버스정류장(11443)", "lat": 37.639731, "lng": 127.070034}, {"id": "bin:6659f958c5cd9cac", "type": "bin", "name": "청계초등학교 버스정류장(11389)", "lat": 37.645034, "lng": 127.066139}, {"id": "bin:4a3756d804504b3b", "type": "bin", "name": "중계주공5단지514동 버스정류장(11364)", "lat": 37.651013, "lng": 127.075048}, {"id": "bin:a43eef2cded6b9b3", "type": "bin", "name": "노원문화예술회관.불암초등학교 버스정류장(11403)", "lat": 37.650054, "lng": 127.080731}, {"id": "bin:826ce68bc42d6cb1", "type": "bin", "name": "중계구민체육센터 버스정류장(11356)", "lat": 37.646791, "lng": 127.070941}, {"id": "bin:2b041056ace0b221", "type": "bin", "name": "중계구민체육센터 버스정류장(11357)", "lat": 37.648158, "lng": 127.0707}, {"id": "bin:691d0fc9483f04b8", "type": "bin", "name": "중계본동주민센터 버스정류장(11406)", "lat": 37.646819, "lng": 127.08187}, {"id": "bin:09e774803a0d99dd", "type": "bin", "name": "노원우체국 버스정류장(11408)", "lat": 37.646335, "lng": 127.08179}, {"id": "bin:8b51c45722a8bb7d", "type": "bin", "name": "서울시립북서울미술관후문 버스정류장(11385)", "lat": 37.64066, "lng": 127.066866}, {"id": "bin:2615670129fb2b67", "type": "bin", "name": "용동초등학교 버스정류장(11383)", "lat": 37.641006, "lng": 127.069082}, {"id": "bin:8953504222f09125", "type": "bin", "name": "동천학교 버스정류장(11440)", "lat": 37.644512, "lng": 127.072926}, {"id": "bin:3768d6c88e587770", "type": "bin", "name": "동천학교 버스정류장(11439)", "lat": 37.643445, "lng": 127.073337}, {"id": "bin:d28f4f90228654ed", "type": "bin", "name": "한신동성아파트.시립과학관(11422)", "lat": 37.641338, "lng": 127.075647}, {"id": "bin:5ba44858124d4ffb", "type": "bin", "name": "대진고등학교.하계우방아파트 버스정류장(11424)", "lat": 37.637699, "lng": 127.076963}, {"id": "bin:55d5a7702858d7ce", "type": "bin", "name": "한성여객종점 버스정류장(11429)", "lat": 37.637474, "lng": 127.071637}, {"id": "bin:c06c09c6f0920115", "type": "bin", "name": "대진고등학교 버스정류장(11433)", "lat": 37.637535, "lng": 127.072775}, {"id": "bin:2db1d87d555dd183", "type": "bin", "name": "하계시영아파트 버스정류장(11453)", "lat": 37.633285, "lng": 127.065521}, {"id": "bin:210a139f20448dda", "type": "bin", "name": "인덕대학교 버스정류장(11309)", "lat": 37.629313, "lng": 127.056222}, {"id": "bin:f47a8503d0f5a118", "type": "bin", "name": "광운대학교 버스정류장(11335)", "lat": 37.619827, "lng": 127.05759}, {"id": "bin:15afe299d9ce00a1", "type": "bin", "name": "월계삼호4차아파트 버스정류장(11322)", "lat": 37.626786, "lng": 127.065271}, {"id": "bin:c235611f13e3d3c2", "type": "bin", "name": "월계삼호아파트 버스정류장(11320)", "lat": 37.623834, "lng": 127.064778}, {"id": "bin:7721564a8232aa3f", "type": "bin", "name": "서울온천 버스정류장(11435)", "lat": 37.639372, "lng": 127.074526}, {"id": "bin:7a92280181bbc51d", "type": "bin", "name": "청솔아파트 버스정류장(11138)", "lat": 37.62365, "lng": 127.085958}, {"id": "bin:42d2f7a3d6d6568e", "type": "bin", "name": "서울과학기술대앞 버스정류장(11418)", "lat": 37.633079, "lng": 127.076795}, {"id": "bin:8b02d67badbe0c1a", "type": "bin", "name": "두산힐스빌아파트 버스정류장(11131)", "lat": 37.621623, "lng": 127.079337}, {"id": "bin:49fa5770a357f3d8", "type": "bin", "name": "노원문화원 버스정류장(11166)", "lat": 37.627663, "lng": 127.069606}, {"id": "bin:1382a491d0899221", "type": "bin", "name": "노원문화원 버스정류장(11167)", "lat": 37.628799, "lng": 127.069801}, {"id": "bin:fe98244111126c6e", "type": "bin", "name": "공릉대동2차아파트 버스정류장(11165)", "lat": 37.626723, "lng": 127.070724}, {"id": "bin:71aaab2f4aad26bb", "type": "bin", "name": "공릉대아2차아파트 버스정류장(11111)", "lat": 37.623282, "lng": 127.071389}, {"id": "bin:c7df83cd273bd019", "type": "bin", "name": "공릉초등학교 버스정류장(11901)", "lat": 37.61843, "lng": 127.072347}, {"id": "bin:42993cda41000c46", "type": "bin", "name": "화랑대사거리 버스정류장(11141)", "lat": 37.623078, "lng": 127.089366}, {"id": "bin:2a934efc86c4ad4a", "type": "bin", "name": "화랑대사거리 버스정류장(11140)", "lat": 37.621288, "lng": 127.087753}, {"id": "bin:1f0105abc8fe54e0", "type": "bin", "name": "서울여대.육군사관학교행정안내소 버스정류장(11144)", "lat": 37.628783, "lng": 127.088992}, {"id": "bin:db61d26dbd4f7287", "type": "bin", "name": "서울여대.육군사관학교행정안내소 버스정류장(11145)", "lat": 37.628783, "lng": 127.088992}, {"id": "bin:c3e238b07aca9288", "type": "bin", "name": "태릉국제사격장 버스정류장(11147)", "lat": 37.629613, "lng": 127.095087}, {"id": "bin:b784b186d85de45a", "type": "bin", "name": "태릉국제사격장 버스정류장(11146)", "lat": 37.62973, "lng": 127.097959}, {"id": "bin:ffbadfbf5eab0ecc", "type": "bin", "name": "태릉 버스정류장(11148)", "lat": 37.62973, "lng": 127.097959}, {"id": "bin:75ef33b40c13c3e7", "type": "bin", "name": "태릉선수촌 버스정류장(11150)", "lat": 37.629613, "lng": 127.095087}, {"id": "bin:f24e53c37c5f4e93", "type": "bin", "name": "한국스포츠정책과학원 버스정류장(11152)", "lat": 37.636008, "lng": 127.106828}, {"id": "bin:f7e8d589ca915eb4", "type": "bin", "name": "삼육대앞 버스정류장(11155)", "lat": 37.643357, "lng": 127.10885}, {"id": "bin:828d761a62ad1ef7", "type": "bin", "name": "삼육대앞 버스정류장(11154)", "lat": 37.643357, "lng": 127.10885}, {"id": "bin:020666e61642c065", "type": "bin", "name": "장미아파트 버스정류장(602동 앞)", "lat": 37.633998, "lng": 127.067278}, {"id": "bin:f9be3c369270c17a", "type": "bin", "name": "당현천 근린공원(동일로 1328-1) 버스정류장", "lat": 37.64741, "lng": 127.06364}, {"id": "bin:6e2d242b3d0b420d", "type": "bin", "name": "상계주공 2단지(201동 앞) 버스정류장", "lat": 37.649701, "lng": 127.061359}, {"id": "bin:7df225fabea16a90", "type": "bin", "name": "상계주공4단지(상계동 749-3 앞) 버스정류장", "lat": 37.650743, "lng": 127.061926}, {"id": "bin:4b3cef3c69691a1f", "type": "bin", "name": "상계주공15단지(1508동 앞) 버스정류장", "lat": 37.670191, "lng": 127.054689}, {"id": "bin:12e2faf48406005c", "type": "bin", "name": "상계주공10단지(1001동 앞) 버스정류장", "lat": 37.661652, "lng": 127.056125}, {"id": "bin:d86419dd814d6a84", "type": "bin", "name": "월계주공 1단지(103동) 버스정류장", "lat": 37.627297, "lng": 127.053318}, {"id": "bin:35734c886ba22660", "type": "bin", "name": "월계주공 1단지(108동) 버스정류장", "lat": 37.627297, "lng": 127.053318}, {"id": "bin:23eb1fb06dced498", "type": "bin", "name": "월계헬스케어센터(월계로 378) 앞 버스정류장", "lat": 37.63145, "lng": 127.061591}, {"id": "bin:cc082f999956cbb4", "type": "bin", "name": "어린이교통공원(중계동 500) 버스정류장", "lat": 37.645609, "lng": 127.062715}, {"id": "bin:172b18df81c44409", "type": "bin", "name": "중계역 4번출구 버스정류장", "lat": 37.639148, "lng": 127.066616}, {"id": "bin:e3f996a0e253d0dc", "type": "bin", "name": "노원구민의전당(동일로 1229) 앞 버스정류장", "lat": 37.639148, "lng": 127.066616}, {"id": "bin:be4cd7d5628ca599", "type": "bin", "name": "서울시립북서울미술관(동일로 1238) 버스정류장", "lat": 37.639148, "lng": 127.066616}, {"id": "bin:8cccada0ccc2f4ff", "type": "bin", "name": "중계역 1번출구 버스정류장", "lat": 37.639148, "lng": 127.066616}, {"id": "bin:ad2f54bc41a1b28d", "type": "bin", "name": "하계역 6번출구 버스정류장", "lat": 37.636615, "lng": 127.065668}, {"id": "bin:bdfc629d5e75164e", "type": "bin", "name": "하계역 미성아파트(6동 앞) 버스정류장", "lat": 37.634235, "lng": 127.069671}, {"id": "bin:a3c607492de24c0f", "type": "bin", "name": "하계역 5번출구 버스정류장", "lat": 37.634887, "lng": 127.06621}, {"id": "bin:d455894895b1ce98", "type": "bin", "name": "하계역 세이브존 앞 버스정류장", "lat": 37.636624, "lng": 127.068915}, {"id": "bin:239a35dd64848102", "type": "bin", "name": "서울과학기술대입구(하계미성아파트방면)버스정류장", "lat": 37.628499, "lng": 127.071871}, {"id": "bin:eb83fb69a56e2f33", "type": "bin", "name": "동일로 1101(KB국민은행) 앞 버스정류장", "lat": 37.628254, "lng": 127.07101}, {"id": "bin:8690ac6039bf1d4a", "type": "bin", "name": "동일로 1082(대우직업능력개발원) 앞 버스정류장", "lat": 37.641006, "lng": 127.072148}, {"id": "bin:e3ac2117fee562dc", "type": "bin", "name": "공릉시장(공릉역1번출구방면)버스정류장", "lat": 37.622791, "lng": 127.07424}, {"id": "bin:035658e1f65542e9", "type": "bin", "name": "서울생활사박물관,농협앞 버스정류장", "lat": 37.618752, "lng": 127.077877}, {"id": "bin:571f161c7ec27b24", "type": "bin", "name": "상계동 820(서울교통공사창동차량사업소) 앞 버스정류장", "lat": 37.657486, "lng": 127.058851}, {"id": "bin:c8c02aa1e9d66929", "type": "bin", "name": "도봉운전면허시험장 앞 버스정류장", "lat": 37.655959, "lng": 127.060329}, {"id": "bin:1556fe17361e2c5f", "type": "bin", "name": "수락산역 4번출구(동일로 1669 앞) 버스정류장", "lat": 37.677458, "lng": 127.054894}, {"id": "bin:4ec9cbe44bdf46e5", "type": "bin", "name": "수락산역 3번출구(동일로 1668 앞) 버스정류장", "lat": 37.677138, "lng": 127.055597}, {"id": "bin:fdb7b4d0b50e3560", "type": "bin", "name": "당고개역(상계동 111-484 앞) 버스정류장", "lat": 37.641006, "lng": 127.072148}, {"id": "bin:7b7da41a24f50424", "type": "bin", "name": "당고개역(상계로 312-1 앞) 버스정류장", "lat": 37.670416, "lng": 127.080057}, {"id": "bin:5780fee2699f155c", "type": "bin", "name": "은곡초교입구교차로", "lat": 37.664216, "lng": 127.066437}, {"id": "bin:c899008cf522322f", "type": "bin", "name": "노해로 456 앞 버스정류장", "lat": 37.653587, "lng": 127.058798}, {"id": "bin:3fd0d07bc56c382d", "type": "bin", "name": "노원에코센터(상계동 770-2) 앞 버스정류장", "lat": 37.644383, "lng": 127.059922}, {"id": "bin:6159c4c74617813e", "type": "bin", "name": "민들레공원", "lat": 37.661652, "lng": 127.056125}, {"id": "bin:ac484de09e43ad38", "type": "bin", "name": "광운대학교(광운로 20 앞) 버스정류장", "lat": 37.61932, "lng": 127.058338}, {"id": "bin:04aced5d1840ea29", "type": "bin", "name": "광운대역 3번출구 앞 버스정류장", "lat": 37.623034, "lng": 127.061763}, {"id": "bin:de50a3979405b304", "type": "bin", "name": "월계한일1차아파트 앞 버스정류장", "lat": 37.622063, "lng": 127.061342}, {"id": "bin:4991100aab666e4b", "type": "bin", "name": "월계로 55길 16(월계사슴2단지 205동 앞) 버스정류장", "lat": 37.632665, "lng": 127.060826}, {"id": "bin:7e3b1dcfd1995933", "type": "bin", "name": "중계1동주민센터(은행사거리방면)버스정류장", "lat": 37.651718, "lng": 127.076788}, {"id": "bin:182dd82db3f90b8c", "type": "bin", "name": "두타빌A,B동사이", "lat": 37.649261, "lng": 127.076361}, {"id": "bin:fe0afe6e22dc99b7", "type": "bin", "name": "상계역(상계동주유소방면)버스정류장", "lat": 37.659808, "lng": 127.07324}, {"id": "bin:2602093be04a7c1a", "type": "bin", "name": "상계역(중계주공3단지방면)버스정류장", "lat": 37.659112, "lng": 127.073075}, {"id": "bin:4319b968c46c10f3", "type": "bin", "name": "은행사거리(신한은행중계동지점방면)버스정류장", "lat": 37.650029, "lng": 127.077012}, {"id": "bin:a3edd0e248ea8c95", "type": "bin", "name": "중계1동주민센터(중계주공4단지방면)버스정류장", "lat": 37.651897, "lng": 127.077765}, {"id": "bin:519c5bcc84057734", "type": "bin", "name": "원자력병원 버스정류장", "lat": 37.628817, "lng": 127.082693}, {"id": "bin:e6a9db11d4a490d0", "type": "bin", "name": "우방아파트 앞 버스정류장(502동 앞)", "lat": 37.626921, "lng": 127.08838}, {"id": "bin:3cea8de452eb7937", "type": "bin", "name": "태능국제종합사격장(서울여대방면)버스정류장", "lat": 37.629613, "lng": 127.095087}, {"id": "bin:4dfb8aa7b5a7c81b", "type": "bin", "name": "중계주공 9단지(주공905동 앞) 버스정류장", "lat": 37.643445, "lng": 127.073337}, {"id": "bin:a4e314b891a74bd0", "type": "bin", "name": "용화여고 앞 택시정류장", "lat": 37.659131, "lng": 127.058281}, {"id": "bin:7cac2eef45036d0e", "type": "bin", "name": "임광아파트 2동 앞 버스정류장", "lat": 37.659972, "lng": 127.057376}, {"id": "bin:655ca125897b93af", "type": "bin", "name": "상계10동 우체국 앞 버스정류장", "lat": 37.660936, "lng": 127.062589}, {"id": "bin:a1c028ba8f8f46dd", "type": "bin", "name": "수락홈마트 앞 버스정류장", "lat": 37.675847, "lng": 127.056272}, {"id": "bin:73f0110a48dc9c4b", "type": "bin", "name": "그랑디오피스텔 앞 버스정류장", "lat": 37.629017, "lng": 127.057613}, {"id": "bin:f23a034f26da5f16", "type": "bin", "name": "청백아파트 103동 앞 버스정류장", "lat": 37.630344, "lng": 127.0545}, {"id": "bin:7b12d8b75b0588b4", "type": "bin", "name": "계상초등학교 앞 버스정류장", "lat": 37.662198, "lng": 127.068678}, {"id": "bin:c469e13e504c3d00", "type": "bin", "name": "상계5동주민센터 앞 버스정류장", "lat": 37.662981, "lng": 127.069367}, {"id": "bin:c657c496a406c398", "type": "bin", "name": "상계벽산아파트 앞 버스정류장", "lat": 37.660904, "lng": 127.073575}, {"id": "bin:940338f4ccf2a7ad", "type": "bin", "name": "상계2동주민센터 앞 버스정류장", "lat": 37.657483, "lng": 127.067864}, {"id": "bin:1e3d17347223c093", "type": "bin", "name": "한내지혜의숲 앞 버스정류장", "lat": 37.623589, "lng": 127.068783}, {"id": "bin:01d00cc979331aa0", "type": "bin", "name": "한내근린공원 앞 버스정류장", "lat": 37.623589, "lng": 127.068783}, {"id": "bin:ca0b6fb07735d662", "type": "bin", "name": "오피앙오피스텔 앞 버스정류장", "lat": 37.679282, "lng": 127.05555}, {"id": "bin:f3897365c42058c2", "type": "bin", "name": "파르코오피스텔 앞 버스정류장", "lat": 37.679282, "lng": 127.05555}, {"id": "bin:fa0788b2fe03c3a5", "type": "bin", "name": "중계동 364-4 정담공원 내부", "lat": 37.650262, "lng": 127.080768}, {"id": "bin:daf1dc8cf51007c3", "type": "bin", "name": "서울과학기술대학교 맞은편 버스정류장", "lat": 37.633079, "lng": 127.076795}, {"id": "bin:93d3d0e30f6e7cf4", "type": "bin", "name": "노원경찰서 앞 버스정류장", "lat": 37.643445, "lng": 127.073337}, {"id": "bin:d04079839feb80de", "type": "bin", "name": "공릉한보아파트 앞 버스정류장", "lat": 37.627173, "lng": 127.079994}, {"id": "bin:7b53cc5e4f52013d", "type": "bin", "name": "화랑대역 1번출구 버스정류장", "lat": 37.619894, "lng": 127.083745}, {"id": "bin:5ca788d95c17b573", "type": "bin", "name": "상계주공9단지(914동 앞) 버스정류장", "lat": 37.664617, "lng": 127.059817}, {"id": "bin:f399a2d7bdec3a67", "type": "bin", "name": "대림종합상가(대림아파트 2동 앞) 버스정류장", "lat": 37.659972, "lng": 127.057376}, {"id": "bin:a09869241d0cdd84", "type": "bin", "name": "맥도날드 앞 버스정류장", "lat": 37.673861, "lng": 127.055234}, {"id": "bin:235985eaa3486896", "type": "bin", "name": "노일초등학교 앞 버스정류장", "lat": 37.673754, "lng": 127.054967}, {"id": "bin:3ec3a46586f43d3e", "type": "bin", "name": "노원구청 건너편(상계동 704 건물 앞) 버스정류장", "lat": 37.654296, "lng": 127.057601}, {"id": "bin:50cf9247070fdd10", "type": "bin", "name": "노원구청(창동농협물류센털방면)버스정류장", "lat": 37.654054, "lng": 127.057997}, {"id": "bin:15c21f84a88751a8", "type": "bin", "name": "삼호아파트", "lat": 37.494568, "lng": 126.857308}, {"id": "bin:7ace12d4d948559d", "type": "bin", "name": "임괄아파트", "lat": 37.494134, "lng": 126.8565}, {"id": "bin:067e2a9720d262c5", "type": "bin", "name": "도로변(개봉로 4)", "lat": 37.486102, "lng": 126.856775}, {"id": "bin:0505c3a03926e993", "type": "bin", "name": "버스정류장(17739)", "lat": 37.48505, "lng": 126.854467}, {"id": "bin:121299d3d667830a", "type": "bin", "name": "도로변(개봉로 10)(1)", "lat": 37.486622, "lng": 126.856712}, {"id": "bin:55bb9249cb6eb4c9", "type": "bin", "name": "도로변(개봉로 10)(2)", "lat": 37.486622, "lng": 126.856712}, {"id": "bin:2264a6e2aa3ca37b", "type": "bin", "name": "도로변(개봉로 22)", "lat": 37.487507, "lng": 126.856558}, {"id": "bin:239986460dcb899a", "type": "bin", "name": "도로변(개봉로 34)", "lat": 37.488604, "lng": 126.856445}, {"id": "bin:465032378558ff5e", "type": "bin", "name": "새마을금고 양지지점 앞 횡단보도 인근", "lat": 37.501494, "lng": 126.858514}, {"id": "bin:03f57c386798edb7", "type": "bin", "name": "버스정류장(17228)", "lat": 37.501161, "lng": 126.863006}, {"id": "bin:f5efaf6e8f248a6e", "type": "bin", "name": "맘스식자재 마트(중앙로변) 앞 횡단보도", "lat": 37.50349, "lng": 126.862614}, {"id": "bin:cf7e8ec40f1f77bf", "type": "bin", "name": "버스정류장(17226)", "lat": 37.503252, "lng": 126.861888}, {"id": "bin:4b8176818fb0617f", "type": "bin", "name": "서울고척동 우체국 인근", "lat": 37.504448, "lng": 126.861768}, {"id": "bin:9e8a1648b0e711e8", "type": "bin", "name": "하이리빙아파트", "lat": 37.506178, "lng": 126.859404}, {"id": "bin:12dac6a49b8e1c4b", "type": "bin", "name": "두성인테리어 앞", "lat": 37.497642, "lng": 126.856935}, {"id": "bin:fe1e58e8cfbfc893", "type": "bin", "name": "도로변(경인로 403)(1)", "lat": 37.497958, "lng": 126.864348}, {"id": "bin:d0150a164a37e6d0", "type": "bin", "name": "도로변(경인로 403)(2)", "lat": 37.497958, "lng": 126.864348}, {"id": "bin:e9f5e199d60671ba", "type": "bin", "name": "구로솔약국", "lat": 37.499692, "lng": 126.867056}, {"id": "bin:e53ca877720e12f9", "type": "bin", "name": "동양미래대학교 정문 인근", "lat": 37.499996, "lng": 126.86817}, {"id": "bin:d45ad41c3648803c", "type": "bin", "name": "도로변(고척로 195)", "lat": 37.504929, "lng": 126.854807}, {"id": "bin:7e2776e23b7f3acb", "type": "bin", "name": "도로변(고척로 177)", "lat": 37.504196, "lng": 126.853141}, {"id": "bin:9ef3ed5544d7f96b", "type": "bin", "name": "도로변(고척로 202)", "lat": 37.504858, "lng": 126.855798}, {"id": "bin:aa82fe06ffca866f", "type": "bin", "name": "도로변(고척로 206)", "lat": 37.505016, "lng": 126.856109}, {"id": "bin:f8ac9f2f173547d4", "type": "bin", "name": "도로변(고척로 209-1)", "lat": 37.505491, "lng": 126.856546}, {"id": "bin:2dcbb865fad21edd", "type": "bin", "name": "버스정류소(17215)(1)", "lat": 37.502647, "lng": 126.849837}, {"id": "bin:e055a5ff0af9c9fa", "type": "bin", "name": "버스정류소(17215)(2)", "lat": 37.502647, "lng": 126.849837}, {"id": "bin:9ef801be7d3033db", "type": "bin", "name": "현대연예인아파트", "lat": 37.493267, "lng": 126.87787}, {"id": "bin:6fa9a17ef793e2f2", "type": "bin", "name": "구로1동주민센터", "lat": 37.49304, "lng": 126.875788}, {"id": "bin:c153ccf5cca61cdb", "type": "bin", "name": "순환도로방음벽 옆 좌측", "lat": 37.489882, "lng": 126.875474}, {"id": "bin:16a8405c619413ab", "type": "bin", "name": "삼부르네상스 정류소", "lat": 37.479118, "lng": 126.894832}, {"id": "bin:271ebdc391a839ad", "type": "bin", "name": "디지털단지오거리 정류소", "lat": 37.480161, "lng": 126.888695}, {"id": "bin:184df30d8293bfea", "type": "bin", "name": "횡단보도 앞(가리봉동 121-44)(1)", "lat": 37.482302, "lng": 126.886722}, {"id": "bin:674e333287acaf06", "type": "bin", "name": "횡단보도 앞(가리봉동 121-44)(2)", "lat": 37.482302, "lng": 126.886722}, {"id": "bin:4a0d1631b8e3379d", "type": "bin", "name": "크림슨빌딩 앞", "lat": 37.480095, "lng": 126.891107}, {"id": "bin:276cec4615bb4739", "type": "bin", "name": "도로변(디지털로 231)", "lat": 37.480763, "lng": 126.891283}, {"id": "bin:034f6f2590f55b1f", "type": "bin", "name": "횡단보도 앞(디지털로27길 135)(1)", "lat": 37.48485, "lng": 126.886577}, {"id": "bin:a969aea9197b131e", "type": "bin", "name": "횡단보도 앞(디지털로27길 135)(2)", "lat": 37.48485, "lng": 126.886577}, {"id": "bin:66669ac233346650", "type": "bin", "name": "개봉역 버스정류소", "lat": 37.495065, "lng": 126.858047}, {"id": "bin:03f6ab93b711f8f3", "type": "bin", "name": "도로변(경인로33길 51)", "lat": 37.500241, "lng": 126.851139}, {"id": "bin:acea68f481f6dcc9", "type": "bin", "name": "개봉1동사거리", "lat": 37.501568, "lng": 126.847162}, {"id": "bin:e5e824a381ad4d6e", "type": "bin", "name": "농협 앞", "lat": 37.4975, "lng": 126.855159}, {"id": "bin:c2e19a7401f97f61", "type": "bin", "name": "진성요양센터", "lat": 37.498497, "lng": 126.851827}, {"id": "bin:b464ef30cc98d171", "type": "bin", "name": "도로변(고척로 101)", "lat": 37.501279, "lng": 126.845253}, {"id": "bin:70caf7521e8f70f8", "type": "bin", "name": "거성푸르뫼 아파트", "lat": 37.501074, "lng": 126.843823}, {"id": "bin:323c3be083a74b38", "type": "bin", "name": "버스정류장(17312)", "lat": 37.501039, "lng": 126.845496}, {"id": "bin:004abb15ec0816da", "type": "bin", "name": "도로변(경인로33길 25)", "lat": 37.499057, "lng": 126.851719}, {"id": "bin:441853f44c8305ab", "type": "bin", "name": "대림프라자", "lat": 37.497599, "lng": 126.855601}, {"id": "bin:c40fd10cfdb34c91", "type": "bin", "name": "개봉푸르지오 정문", "lat": 37.501568, "lng": 126.847162}, {"id": "bin:11a15f1c39a9dba3", "type": "bin", "name": "도로변(개봉로 63)", "lat": 37.491382, "lng": 126.855689}, {"id": "bin:c853c1be2269a6e0", "type": "bin", "name": "도로변(개봉로 71)", "lat": 37.492094, "lng": 126.855575}, {"id": "bin:c03b753beb3f0590", "type": "bin", "name": "도로변(개봉로19길 43)", "lat": 37.493602, "lng": 126.855559}, {"id": "bin:7a36eeaf27eb5dcd", "type": "bin", "name": "태릉입구역 7번출구 버스정류장", "lat": 37.617681, "lng": 127.076266}, {"id": "bin:ef937e9b391c14a7", "type": "bin", "name": "공덕역7번출구 (이마트앞)(1)", "lat": 37.543028, "lng": 126.952787}, {"id": "bin:39603fd5b12c3e21", "type": "bin", "name": "공덕역7번출구 (이마트앞)(2)", "lat": 37.543028, "lng": 126.952787}, {"id": "bin:845321e016dbaa8f", "type": "bin", "name": "백범로 공덕오거리 버스정류장 14-149", "lat": 37.544106, "lng": 126.95413}, {"id": "bin:ee51ea2169b70346", "type": "bin", "name": "공덕역 6번출구(뒤)", "lat": 37.543501, "lng": 126.952887}, {"id": "bin:4942e66cfdaabc26", "type": "bin", "name": "공덕역 6번출구(앞)", "lat": 37.542978, "lng": 126.952738}, {"id": "bin:938b455cb55a9f4e", "type": "bin", "name": "만리재로14 마포경찰서 교통센터앞(1)", "lat": 37.543994, "lng": 126.952835}, {"id": "bin:e30ab937b99a3767", "type": "bin", "name": "만리재로14 마포경찰서 교통센터앞(2)", "lat": 37.543994, "lng": 126.952835}, {"id": "bin:7abb35f388ef055c", "type": "bin", "name": "공덕역 5번출구(자전거보관소 옆)", "lat": 37.544358, "lng": 126.951776}, {"id": "bin:1b5b27c548b9563e", "type": "bin", "name": "공덕역 5번출구", "lat": 37.544319, "lng": 126.951873}, {"id": "bin:f0065523f2021dfd", "type": "bin", "name": "마포대로 버스정류장 14-003(공덕역)", "lat": 37.543672, "lng": 126.950812}, {"id": "bin:cc087451a8712c47", "type": "bin", "name": "마포대로 버스정류장 14-004(공덕역)(1)", "lat": 37.546157, "lng": 126.952624}, {"id": "bin:449215432596b25c", "type": "bin", "name": "마포대로 버스정류장 14-004(공덕역)(2)", "lat": 37.546157, "lng": 126.952624}, {"id": "bin:2de2709318d4cd5e", "type": "bin", "name": "마포대로120 공덕역4번출구(택시승강장)(1)", "lat": 37.545399, "lng": 126.95256}, {"id": "bin:2a8215226a972bc6", "type": "bin", "name": "마포대로120 공덕역4번출구(택시승강장)(2)", "lat": 37.545488, "lng": 126.952345}, {"id": "bin:e059c4fa02e4f3e1", "type": "bin", "name": "마포대로114 공덕역4번출구(기업은행앞)", "lat": 37.544808, "lng": 126.952028}, {"id": "bin:d188197cb0ae6fe9", "type": "bin", "name": "애오개역 4번출구", "lat": 37.552787, "lng": 126.956558}, {"id": "bin:7e92a4d812b6b527", "type": "bin", "name": "애오개역 3번출구", "lat": 37.552787, "lng": 126.956558}, {"id": "bin:9e030f42530dd065", "type": "bin", "name": "마포대로 버스정류장 14-007(마포경찰서)(1)", "lat": 37.550417, "lng": 126.955283}, {"id": "bin:df78fc587df097d2", "type": "bin", "name": "마포대로 버스정류장 14-007(마포경찰서)(2)", "lat": 37.550417, "lng": 126.955283}, {"id": "bin:b8b852797107610a", "type": "bin", "name": "마포대로 버스정류장 14-008(마포경찰서)(1)", "lat": 37.550812, "lng": 126.955262}, {"id": "bin:5adedfbb9f50a4a6", "type": "bin", "name": "마포대로 버스정류장 14-008(마포경찰서)(2)", "lat": 37.550812, "lng": 126.955262}, {"id": "bin:4b2b0dedca6d9b3d", "type": "bin", "name": "마포대로233-1 (아현초교담 횡단보도앞)", "lat": 37.554808, "lng": 126.957132}, {"id": "bin:383de40a45f5bad5", "type": "bin", "name": "마포대로207-1 (애오개역1번출구) 둘둘치킨앞", "lat": 37.552723, "lng": 126.956048}, {"id": "bin:674b5f61e35b6c14", "type": "bin", "name": "마포대로 버스정류장 14-005(아현동주민센터)", "lat": 37.546157, "lng": 126.952624}, {"id": "bin:ddaa2628d0977d29", "type": "bin", "name": "마포대로 버스정류장 14-006(아현동주민센터)", "lat": 37.546157, "lng": 126.952624}, {"id": "bin:90f3cb3d8a8c86c5", "type": "bin", "name": "마포대로61-1 (트라팰리스앞)(1)", "lat": 37.541357, "lng": 126.94801}, {"id": "bin:0695987b895fa55f", "type": "bin", "name": "마포대로61-1 (트라팰리스앞)(2)", "lat": 37.541357, "lng": 126.94801}, {"id": "bin:d043a7bfd220615a", "type": "bin", "name": "마포대로33 마포역1번출구(1)", "lat": 37.539584, "lng": 126.94592}, {"id": "bin:98e65c39b5434be6", "type": "bin", "name": "마포대로33 마포역1번출구(2)", "lat": 37.539584, "lng": 126.94592}, {"id": "bin:3621e97515450e73", "type": "bin", "name": "마포대로 정류소번호 14-001(가든호텔앞)(1)", "lat": 37.541113, "lng": 126.948038}, {"id": "bin:c746c6cf6b7b0e88", "type": "bin", "name": "마포대로 정류소번호 14-001(가든호텔앞)(2)", "lat": 37.541113, "lng": 126.948038}, {"id": "bin:fe99832cf2826d22", "type": "bin", "name": "마포대로20 (마포역4번출구)", "lat": 37.538425, "lng": 126.944986}, {"id": "bin:41dd9e0349a642e9", "type": "bin", "name": "마포대로25 화로연각 앞(토정로방향)", "lat": 37.539379, "lng": 126.944834}, {"id": "bin:c2b15cd285960f2c", "type": "bin", "name": "공덕역 2번출구 롯데캐슬 택시정류장앞", "lat": 37.544489, "lng": 126.950127}, {"id": "bin:aae0721e6b55adda", "type": "bin", "name": "대흥역 2번출구앞(삼성공인중개사 앞)", "lat": 37.547953, "lng": 126.942308}, {"id": "bin:93f249a4b90d58ce", "type": "bin", "name": "백범로112 버스정류장(14-176)", "lat": 37.546985, "lng": 126.943556}, {"id": "bin:025393451f6c8e54", "type": "bin", "name": "백범로122 풍천민물장어앞", "lat": 37.546555, "lng": 126.944436}, {"id": "bin:3d9a165e971b57f7", "type": "bin", "name": "백범로152 버스정류장(14-178)", "lat": 37.544748, "lng": 126.948258}, {"id": "bin:2690563d46c6cb61", "type": "bin", "name": "버스정류장 14-180", "lat": 37.544296, "lng": 126.949263}, {"id": "bin:ca450618d9bd42a3", "type": "bin", "name": "공덕역1번출구 자전거보관대앞", "lat": 37.544059, "lng": 126.950263}, {"id": "bin:4961c789309f2351", "type": "bin", "name": "공덕역1번출구 자전거보관대앞(신영지웰앞)", "lat": 37.543882, "lng": 126.950076}, {"id": "bin:d670d17c5f6bf11a", "type": "bin", "name": "백범로91 건널목앞(대흥역1번출구)", "lat": 37.548216, "lng": 126.941804}, {"id": "bin:9fe1311cde080e3c", "type": "bin", "name": "신촌역 6번출구 공원안쪽(1)", "lat": 37.554956, "lng": 126.936861}, {"id": "bin:8dd39f5c24f84ae2", "type": "bin", "name": "신촌역 6번출구 공원안쪽(2)", "lat": 37.554956, "lng": 126.936861}, {"id": "bin:7f61847ea706c258", "type": "bin", "name": "백범로88 경총회관앞 (대흥역4번출구)", "lat": 37.547947, "lng": 126.941109}, {"id": "bin:1235d8cbe4ffcec3", "type": "bin", "name": "마포세무서 사거리(공사현장)앞", "lat": 37.546044, "lng": 126.940256}, {"id": "bin:f9a19c48a9b2e13d", "type": "bin", "name": "독막로221 정자나무 공원안", "lat": 37.54754, "lng": 126.938457}, {"id": "bin:c2f36fb5bec2f067", "type": "bin", "name": "독막로192 신수동 주민센터앞", "lat": 37.547159, "lng": 126.935104}, {"id": "bin:c96dd72c384b64b2", "type": "bin", "name": "독막로242 노기홍사무소앞", "lat": 37.546597, "lng": 126.940291}, {"id": "bin:5fba1e063c8732a4", "type": "bin", "name": "독막로246(백억공인중개사 앞)", "lat": 37.546389, "lng": 126.940856}, {"id": "bin:df8416354b37b8db", "type": "bin", "name": "창전로32 서강나루공원앞", "lat": 37.545154, "lng": 126.931913}, {"id": "bin:fcb59f8a2c567ed7", "type": "bin", "name": "신촌로110 웨스턴 동물의료센터앞 (5번출구)", "lat": 37.555157, "lng": 126.938134}, {"id": "bin:c46947676d19189b", "type": "bin", "name": "신촌로174 중우빌딩 횡단보도옆(1)", "lat": 37.556487, "lng": 126.944997}, {"id": "bin:4759cac1037d967d", "type": "bin", "name": "신촌로174 중우빌딩 횡단보도옆(2)", "lat": 37.556487, "lng": 126.944997}, {"id": "bin:5ac60f15526be25f", "type": "bin", "name": "신촌로210 아현어린이집앞", "lat": 37.556716, "lng": 126.948983}, {"id": "bin:78956f97afb7f8df", "type": "bin", "name": "신촌로234 새마을금고앞", "lat": 37.556913, "lng": 126.951655}, {"id": "bin:cfa11535cae98975", "type": "bin", "name": "아현역 3번출구앞", "lat": 37.556401, "lng": 126.9565}, {"id": "bin:3d4eab2e13169fa2", "type": "bin", "name": "아현역3번출구 버스정류장앞 (굴레방다리)", "lat": 37.556401, "lng": 126.9565}, {"id": "bin:fbfe7f58455a271a", "type": "bin", "name": "대흥로122 여성동행센터", "lat": 37.550407, "lng": 126.944278}, {"id": "bin:ba8a95c02764fceb", "type": "bin", "name": "이대역5번출구앞(1)", "lat": 37.556233, "lng": 126.946135}, {"id": "bin:22512cea45dd93d8", "type": "bin", "name": "이대역5번출구앞(2)", "lat": 37.55657, "lng": 126.946268}, {"id": "bin:6235d5ea91e0daa9", "type": "bin", "name": "만리재로83-1앞 버스정류장(14-145)", "lat": 37.548154, "lng": 126.958713}, {"id": "bin:9d1478177b9524f9", "type": "bin", "name": "만리재로88앞 버스정류장(14-146)", "lat": 37.548117, "lng": 126.959186}, {"id": "bin:b74c8acee53f1731", "type": "bin", "name": "마포대로 버스정류장 14-002(마포역)", "lat": 37.541113, "lng": 126.948038}, {"id": "bin:7664cd5250fa70ea", "type": "bin", "name": "월드컵로51아카데미과학(다사랑치킨피자)", "lat": 37.553821, "lng": 126.911531}, {"id": "bin:35bb8a41243d5d6a", "type": "bin", "name": "월드컵로54티스테이션", "lat": 37.554117, "lng": 126.912034}, {"id": "bin:cb724ae28f2e6706", "type": "bin", "name": "월드컵로39하동우렁추어탕", "lat": 37.552792, "lng": 126.911918}, {"id": "bin:64ca5be7ad989d8b", "type": "bin", "name": "월드컵로30세븐일레븐", "lat": 37.552106, "lng": 126.91264}, {"id": "bin:0fda9a0253e088c3", "type": "bin", "name": "월드컵로5길11합정동주민센터 횡단보도앞(1)", "lat": 37.551617, "lng": 126.911726}, {"id": "bin:8b54f1577c1e04d8", "type": "bin", "name": "월드컵로5길11합정동주민센터 횡단보도앞(2)", "lat": 37.551617, "lng": 126.911726}, {"id": "bin:c9e3a76da214bf33", "type": "bin", "name": "양화로 36 할리스 옆 공원", "lat": 37.548509, "lng": 126.913338}, {"id": "bin:fb71fac396cc751e", "type": "bin", "name": "양화로50바이모노(합정역 5번출구앞)(1)", "lat": 37.549522, "lng": 126.914506}, {"id": "bin:ad3550d248f3ba0d", "type": "bin", "name": "양화로50바이모노(합정역 5번출구앞)(2)", "lat": 37.549522, "lng": 126.914506}, {"id": "bin:f80a5660158060c6", "type": "bin", "name": "양화로68한동빌딩(합정역 3번출구 앞)(1)", "lat": 37.550757, "lng": 126.916093}, {"id": "bin:49cf8177c00c11d5", "type": "bin", "name": "양화로68한동빌딩(합정역 3번출구 앞)(2)", "lat": 37.550757, "lng": 126.916093}, {"id": "bin:64037f1367da249e", "type": "bin", "name": "양화로100버거킹", "lat": 37.552704, "lng": 126.918684}, {"id": "bin:6dc43ef49a7ed97b", "type": "bin", "name": "양화로 100-2 버스중앙차로14-014", "lat": 37.552852, "lng": 126.918668}, {"id": "bin:5206b37073f894cd", "type": "bin", "name": "양화로136(1)", "lat": 37.554842, "lng": 126.921606}, {"id": "bin:f16016e55ea8e78e", "type": "bin", "name": "양화로136(2)", "lat": 37.554842, "lng": 126.921606}, {"id": "bin:711648fddc69f7c3", "type": "bin", "name": "양화로136횡단보도(1)", "lat": 37.554842, "lng": 126.921606}, {"id": "bin:47358102e1374e74", "type": "bin", "name": "양화로136횡단보도(2)", "lat": 37.554842, "lng": 126.921606}, {"id": "bin:cf474602a96f53dc", "type": "bin", "name": "홍대입구역8번출구(1)", "lat": 37.557031, "lng": 126.92457}, {"id": "bin:ae6253cfc2aac6e2", "type": "bin", "name": "홍대입구역8번출구(2)", "lat": 37.557031, "lng": 126.92457}, {"id": "bin:a933232d08e9273a", "type": "bin", "name": "홍대입구역8번출구 버스중앙차로14-016(1)", "lat": 37.556372, "lng": 126.923126}, {"id": "bin:a56744d65df2a48d", "type": "bin", "name": "홍대입구역8번출구 버스중앙차로14-016(2)", "lat": 37.556372, "lng": 126.923126}, {"id": "bin:ed0e6cc6f26751a9", "type": "bin", "name": "홍대입구역4번출구ak백화점횡단보도(1)", "lat": 37.557746, "lng": 126.926498}, {"id": "bin:ef663cdcbe266f3e", "type": "bin", "name": "홍대입구역4번출구ak백화점횡단보도(2)", "lat": 37.557746, "lng": 126.926498}, {"id": "bin:d939a9e4a9655083", "type": "bin", "name": "연남동 버스정류장14-226(1)", "lat": 37.562613, "lng": 126.927501}, {"id": "bin:3d8978e2e09f1d2a", "type": "bin", "name": "연남동 버스정류장14-226(2)", "lat": 37.562613, "lng": 126.927501}, {"id": "bin:f39b9172feefd8d4", "type": "bin", "name": "연희로1-1 횡단보도앞", "lat": 37.559013, "lng": 126.926145}, {"id": "bin:a650280a035c883c", "type": "bin", "name": "양화로183 홍익인간오피스텔(1)", "lat": 37.558368, "lng": 126.925148}, {"id": "bin:4fe4811c8196b8f1", "type": "bin", "name": "양화로183 홍익인간오피스텔(2)", "lat": 37.558368, "lng": 126.925148}, {"id": "bin:15c7a21727e1c01e", "type": "bin", "name": "양화로171삼성스토어 횡단보도앞", "lat": 37.557532, "lng": 126.924053}, {"id": "bin:7daab67ca4a8117e", "type": "bin", "name": "홍대입구역8번출구 버스중앙차로14-015(1)", "lat": 37.556372, "lng": 126.923126}, {"id": "bin:a4de419572fa8d4c", "type": "bin", "name": "홍대입구역8번출구 버스중앙차로14-015(2)", "lat": 37.55643, "lng": 126.923871}, {"id": "bin:34ddade799ee52ee", "type": "bin", "name": "양화로153홍대입구1번출구", "lat": 37.556494, "lng": 126.922632}, {"id": "bin:644d01e05adae1c2", "type": "bin", "name": "양화로129 맘스터치", "lat": 37.555061, "lng": 126.920694}, {"id": "bin:c6cd297e2b3b328a", "type": "bin", "name": "양화로119메디람한방병원", "lat": 37.554361, "lng": 126.91977}, {"id": "bin:f24fe0ccdffca48b", "type": "bin", "name": "양화로 버스중앙차로14-013", "lat": 37.552852, "lng": 126.918668}, {"id": "bin:c2f625163d144dc8", "type": "bin", "name": "양화로107카사미아(스타벅스앞)", "lat": 37.553587, "lng": 126.918782}, {"id": "bin:ceb3152247255ceb", "type": "bin", "name": "양화로99백년욱일집 횡단보도(지산한의원앞)", "lat": 37.553061, "lng": 126.918234}, {"id": "bin:d18ee73b75e17ba6", "type": "bin", "name": "양화로69합정역2번출구(3번출구)(1)", "lat": 37.550757, "lng": 126.916093}, {"id": "bin:e80f7fa65d100417", "type": "bin", "name": "양화로69합정역2번출구(3번출구)(2)", "lat": 37.550757, "lng": 126.916093}, {"id": "bin:ca3850f66669c672", "type": "bin", "name": "양화로57합정역버스정류장14-895", "lat": 37.550485, "lng": 126.914708}, {"id": "bin:7189e20d7ab5d290", "type": "bin", "name": "합정역8번출구", "lat": 37.549166, "lng": 126.912761}, {"id": "bin:ac30d757ce318c55", "type": "bin", "name": "합정역 8번 출구 횡단보도 앞", "lat": 37.549166, "lng": 126.912761}, {"id": "bin:5adfa786de95d6cc", "type": "bin", "name": "양화로29(배전반옆) 아람광고 앞(1)", "lat": 37.549159, "lng": 126.912483}, {"id": "bin:600d5a6fd3cab26a", "type": "bin", "name": "양화로29(배전반옆) 아람광고 앞(2)", "lat": 37.549159, "lng": 126.912483}, {"id": "bin:5f168ef84b06d3b7", "type": "bin", "name": "독막로 서강초등학교 버스정류장14-670", "lat": 37.547584, "lng": 126.926239}, {"id": "bin:ded0b5ca90aabf32", "type": "bin", "name": "독막로101횡단보도앞(br 오피스텔앞)", "lat": 37.548244, "lng": 126.924449}, {"id": "bin:b8b89e53e93ee5f8", "type": "bin", "name": "도로변(개봉로20길 54)(1)", "lat": 37.493436, "lng": 126.857361}, {"id": "bin:5fc01cc60807ac1b", "type": "bin", "name": "독막로93 상수역2번출구", "lat": 37.547994, "lng": 126.920532}, {"id": "bin:0fd815142f19fb2b", "type": "bin", "name": "독막로74김가농축산(한빛부동산앞)", "lat": 37.547634, "lng": 126.921576}, {"id": "bin:fa55ce98e0bfcb1d", "type": "bin", "name": "독막로61레드로드입구 시계탑앞(버스정류장(14-960)", "lat": 37.547994, "lng": 126.920532}, {"id": "bin:d85065180d2d9cd9", "type": "bin", "name": "독막로37 (서울화력발전소입구역)버스정류장14-121", "lat": 37.548274, "lng": 126.917695}, {"id": "bin:9ecf1862fc18d0ee", "type": "bin", "name": "독막로36 버스정류장14-122", "lat": 37.54795, "lng": 126.917386}, {"id": "bin:6be3d21f6c1a07d9", "type": "bin", "name": "독막로16보성사 앞", "lat": 37.548443, "lng": 126.915096}, {"id": "bin:ab4dd5495c922868", "type": "bin", "name": "독막로5합정역6번출구(1)", "lat": 37.54902, "lng": 126.914308}, {"id": "bin:ef54eacbcf46853c", "type": "bin", "name": "독막로5합정역6번출구(2)", "lat": 37.54902, "lng": 126.914308}, {"id": "bin:f8b70bf0d97f5380", "type": "bin", "name": "와우산로55 (극동방송국역)버스정류장14-231(아크스테이션앞)", "lat": 37.54938, "lng": 126.922894}, {"id": "bin:35e6f8804084d759", "type": "bin", "name": "극동방송 버스정류장14-230(우리은행 홍익대지점앞)", "lat": 37.549445, "lng": 126.923397}, {"id": "bin:8d61a979ed241e6d", "type": "bin", "name": "와우산로71삼거리포차 앞 삼거리(프라이빗홍대앞)", "lat": 37.550881, "lng": 126.922852}, {"id": "bin:82e5754faba204bc", "type": "bin", "name": "와우산로97홍익대학교 버스정류장14-233(하나은행앞)", "lat": 37.553094, "lng": 126.924353}, {"id": "bin:5050e7e7d523b8e6", "type": "bin", "name": "와우산로121삼진제약버스정류장(14-283)", "lat": 37.553509, "lng": 126.926757}, {"id": "bin:c201d1ca802d4480", "type": "bin", "name": "와우산로157산울림소극장앞 버스정류장(14-235)", "lat": 37.555083, "lng": 126.93011}, {"id": "bin:9a26f3af14fe74b5", "type": "bin", "name": "신촌로66 농협하나로마트", "lat": 37.556067, "lng": 126.933117}, {"id": "bin:c1d0b7d6e3d947c9", "type": "bin", "name": "신촌로82유앤아이치과의원 버스정류장(14-228)(1)", "lat": 37.555611, "lng": 126.934809}, {"id": "bin:c5c6af13bcf4535e", "type": "bin", "name": "신촌로82유앤아이치과의원 버스정류장(14-228)(2)", "lat": 37.555611, "lng": 126.934809}, {"id": "bin:6746fb719ec13c5d", "type": "bin", "name": "신촌역7번출구", "lat": 37.554994, "lng": 126.935998}, {"id": "bin:b581e357677a5b30", "type": "bin", "name": "광흥창역5번 출구 횡단보도앞", "lat": 37.547113, "lng": 126.931429}, {"id": "bin:eae8e1741da96765", "type": "bin", "name": "광흥창역2번 출구", "lat": 37.547735, "lng": 126.932062}, {"id": "bin:f5bd528c1f693e6d", "type": "bin", "name": "광흥창역3번 출구(1)", "lat": 37.547797, "lng": 126.932895}, {"id": "bin:240be3766c7b2dd5", "type": "bin", "name": "광흥창역3번 출구(2)", "lat": 37.547797, "lng": 126.932895}, {"id": "bin:0c9332b7e092787c", "type": "bin", "name": "서강대역2번 출구 자전거대여소 앞", "lat": 37.553229, "lng": 126.934375}, {"id": "bin:a96547cd0fce4b78", "type": "bin", "name": "서강로137신촌역 버스정류장14-990(1)", "lat": 37.554668, "lng": 126.935594}, {"id": "bin:91bc09e99f9f83ea", "type": "bin", "name": "서강로137신촌역 버스정류장14-990(2)", "lat": 37.554668, "lng": 126.935594}, {"id": "bin:c152fc14b1fd97a4", "type": "bin", "name": "신촌로16길29횡단보도", "lat": 37.554098, "lng": 126.934763}, {"id": "bin:803538cacaeb3d28", "type": "bin", "name": "기업은행.신촌연세병원 버스정류장14-992", "lat": 37.552767, "lng": 126.93306}, {"id": "bin:f50ba8f02f29d61a", "type": "bin", "name": "도로변(개봉로20길 54)(2)", "lat": 37.493436, "lng": 126.857361}, {"id": "bin:f9856847df008dcf", "type": "bin", "name": "서강로97삼성프라자", "lat": 37.551935, "lng": 126.932349}, {"id": "bin:bb92bc206fe579be", "type": "bin", "name": "창전현대홈타운 버스정류장14-203", "lat": 37.551121, "lng": 126.932607}, {"id": "bin:1d04aed0e5ba2361", "type": "bin", "name": "광흥창역.서강대주민센터 버스정류장14-201 (GS앞 버스정류장)", "lat": 37.548287, "lng": 126.931356}, {"id": "bin:1e188110866fdd5c", "type": "bin", "name": "광흥창역.서강대주민센터 버스정류장14-201(GS앞 버스정류장)", "lat": 37.548287, "lng": 126.931356}, {"id": "bin:b35f159be2fea5d3", "type": "bin", "name": "광흥창역1번출구", "lat": 37.547753, "lng": 126.931154}, {"id": "bin:0ee88cfcf1639bbd", "type": "bin", "name": "국립경찰교향악단 앞", "lat": 37.566312, "lng": 126.910362}, {"id": "bin:6dbe355f871f7f46", "type": "bin", "name": "월드컵경기장 서측 버스정류장(14-105)(1)", "lat": 37.570487, "lng": 126.896149}, {"id": "bin:905748d32478845d", "type": "bin", "name": "월드컵경기장 서측 버스정류장(14-105)(2)", "lat": 37.570487, "lng": 126.896149}, {"id": "bin:cb420c3730887b2c", "type": "bin", "name": "월드컵3단지 후문 버스정류장(14-115)", "lat": 37.568277, "lng": 126.892764}, {"id": "bin:ea269e6aea5a5008", "type": "bin", "name": "하늘공원주차장 버스정류장(14-332)", "lat": 37.569117, "lng": 126.891255}, {"id": "bin:a5a5ce33d5625a1a", "type": "bin", "name": "상암월드컵파크 6,7단지 버스정류장(14-612)", "lat": 37.579549, "lng": 126.883109}, {"id": "bin:7ff7e0fa109a7720", "type": "bin", "name": "월드컵파크3단지 버스정류장(14-108)", "lat": 37.573102, "lng": 126.887603}, {"id": "bin:a8f4934f91c8d475", "type": "bin", "name": "서부면허시험장 버스정류장(14-109)(1)", "lat": 37.578523, "lng": 126.879551}, {"id": "bin:dcab7e71794d9013", "type": "bin", "name": "서부면허시험장 버스정류장(14-109)(2)", "lat": 37.578523, "lng": 126.879551}, {"id": "bin:9d287de028a81405", "type": "bin", "name": "서부면허시험장 버스정류장(14-110)(1)", "lat": 37.577363, "lng": 126.880826}, {"id": "bin:4b6df879fe7fcf26", "type": "bin", "name": "서부면허시험장 버스정류장(14-110)(2)", "lat": 37.577363, "lng": 126.880826}, {"id": "bin:569769d2974b893e", "type": "bin", "name": "서부면허시험장 버스정류장(14-493)", "lat": 37.578186, "lng": 126.881709}, {"id": "bin:7040048eecf9ed14", "type": "bin", "name": "월드컵파크9단지 버스정류장(14-335)", "lat": 37.584535, "lng": 126.879867}, {"id": "bin:b86a765cbdcac60a", "type": "bin", "name": "상암동 하늘초등학교 버스정류장(14-337)", "lat": 37.586334, "lng": 126.881518}, {"id": "bin:14d69f2e2c9f19b9", "type": "bin", "name": "월드컵북로396 누리꿈스퀘어 주차장 옆", "lat": 37.579442, "lng": 126.890323}, {"id": "bin:8d99c74f3ec7e5c5", "type": "bin", "name": "월드컵북로396 KFC 상암DMC점 앞", "lat": 37.579442, "lng": 126.890323}, {"id": "bin:60a37c7dce299a18", "type": "bin", "name": "월드컵북로 15 시디즈 홍대점 앞", "lat": 37.556209, "lng": 126.919948}, {"id": "bin:da3e6c48a5e8ff4d", "type": "bin", "name": "누리꿈스퀘어(MBC) 버스정류장(14-307)", "lat": 37.579232, "lng": 126.889408}, {"id": "bin:ab5d798b9b6b25dc", "type": "bin", "name": "월드컵북로 6길 3 수협 앞", "lat": 37.55789, "lng": 126.918944}, {"id": "bin:e3d2d779a614534f", "type": "bin", "name": "월드컵북로54길 12 국악방송 앞", "lat": 37.580854, "lng": 126.889332}, {"id": "bin:09d5d1678fbf6a62", "type": "bin", "name": "월드컵북로 78 cu편의점 앞", "lat": 37.560837, "lng": 126.916147}, {"id": "bin:75acf04713921c31", "type": "bin", "name": "버스정류장(14-186)", "lat": 37.563945, "lng": 126.913344}, {"id": "bin:392984c602b47f0d", "type": "bin", "name": "월드컵북로 136 하나은행 옆", "lat": 37.565025, "lng": 126.912474}, {"id": "bin:afaf6bddf8e571d3", "type": "bin", "name": "성산2교 버스정류장(14-198)", "lat": 37.565907, "lng": 126.914674}, {"id": "bin:f7cf7e925b44008b", "type": "bin", "name": "월드컵파크7단지 버스정류장(14-272)", "lat": 37.581921, "lng": 126.879462}, {"id": "bin:a43800da00dea61a", "type": "bin", "name": "월드컵파크7단지 버스정류장(14-271)", "lat": 37.580791, "lng": 126.87845}, {"id": "bin:ec27c6527e906f71", "type": "bin", "name": "상암고등학교 버스정류장(14-291)", "lat": 37.582145, "lng": 126.883443}, {"id": "bin:a3cd5b71db4ff482", "type": "bin", "name": "상암산로1길 52 월드컵파크5단지 508동 앞", "lat": 37.580807, "lng": 126.885395}, {"id": "bin:2fd8d7d5eefbb256", "type": "bin", "name": "월드컵파크5단지 버스정류장(14-289)", "lat": 37.580807, "lng": 126.885395}, {"id": "bin:7fedd407e94b946e", "type": "bin", "name": "월드컵로202 마포구청역 1번 출구 앞", "lat": 37.565287, "lng": 126.902464}, {"id": "bin:2881a3a529731e48", "type": "bin", "name": "월드컵로204 마포구 청사 맞은편 횡단보도", "lat": 37.565399, "lng": 126.902132}, {"id": "bin:afece78a86ef4a51", "type": "bin", "name": "상암산로1길 26 상암중학교 앞", "lat": 37.579057, "lng": 126.887551}, {"id": "bin:3a29701305c9e782", "type": "bin", "name": "구청 광장 대로변", "lat": 37.566313, "lng": 126.901616}, {"id": "bin:a77e15bf8dedd5ac", "type": "bin", "name": "마포구의회 앞 마을버스정류장(14-563)", "lat": 37.566313, "lng": 126.901616}, {"id": "bin:9b9b89c8734ae3db", "type": "bin", "name": "월드컵북로381 월드컵파크4단지 401동 앞", "lat": 37.577953, "lng": 126.889888}, {"id": "bin:46d4b9486f380a3e", "type": "bin", "name": "월드컵북로 381 버스정류장(14-306)(1)", "lat": 37.577953, "lng": 126.889888}, {"id": "bin:355a0d52a4bdd5db", "type": "bin", "name": "월드컵북로 381 버스정류장(14-306)(2)", "lat": 37.577953, "lng": 126.889888}, {"id": "bin:e75d619f16fabc27", "type": "bin", "name": "성중길 월드컵경기장역 마을버스정류장(14-573)", "lat": 37.5697, "lng": 126.901417}, {"id": "bin:c0ec2771b37fd28a", "type": "bin", "name": "상암이안 2단지 버스정류장(14-287)", "lat": 37.579971, "lng": 126.887611}, {"id": "bin:d3624efcacb9685c", "type": "bin", "name": "마포농수산물시장 3거리 홈플러스 입구(1)", "lat": 37.567362, "lng": 126.90067}, {"id": "bin:8f19290acbc53394", "type": "bin", "name": "마포농수산물시장 3거리 홈플러스 입구(2)", "lat": 37.567362, "lng": 126.90067}, {"id": "bin:6d3a6444671752df", "type": "bin", "name": "월드컵경기장 남측 버스정류장(14-104)", "lat": 37.568277, "lng": 126.892764}, {"id": "bin:44db68eff44193b1", "type": "bin", "name": "월드컵파크2단지 버스정류장(14-117)(1)", "lat": 37.574882, "lng": 126.890733}, {"id": "bin:8ab94cba467d4ead", "type": "bin", "name": "월드컵파크2단지 버스정류장(14-117)(2)", "lat": 37.574882, "lng": 126.890733}, {"id": "bin:24287e6a3449faab", "type": "bin", "name": "평화의공원 주차장입구 횡단보도 맞은편(1)", "lat": 37.561293, "lng": 126.887772}, {"id": "bin:a7279b58f224d5c7", "type": "bin", "name": "평화의공원 주차장입구 횡단보도 맞은편(2)", "lat": 37.561293, "lng": 126.887772}, {"id": "bin:585faf189e224f30", "type": "bin", "name": "상암초등학교 버스정류장(14-166)", "lat": 37.576414, "lng": 126.893324}, {"id": "bin:dbc8a8a58dd9914b", "type": "bin", "name": "월드컵경기장 사거리", "lat": 37.568277, "lng": 126.892764}, {"id": "bin:26254a300c6b00ad", "type": "bin", "name": "성암로 37 버스정류장(14-351)", "lat": 37.569146, "lng": 126.912291}, {"id": "bin:7659a0345b8a8dfb", "type": "bin", "name": "마포구청역 5번 출구", "lat": 37.564186, "lng": 126.903288}, {"id": "bin:840450f3e89a84d7", "type": "bin", "name": "성암로184 DMC역 7번 출구 버스정류장(14-358)", "lat": 37.576665, "lng": 126.89892}, {"id": "bin:4d7e079dce9cfc59", "type": "bin", "name": "DMC첨단산업센터 버스정류장(14-355)", "lat": 37.581461, "lng": 126.891709}, {"id": "bin:e7381606fcc70435", "type": "bin", "name": "디지털미디어시티역 공항철로 9번 출구 앞(1)", "lat": 37.577588, "lng": 126.896952}, {"id": "bin:7a502dd8243d6307", "type": "bin", "name": "디지털미디어시티역 공항철로 9번 출구 앞(2)", "lat": 37.577588, "lng": 126.896952}, {"id": "bin:23c3be5d9a0520a2", "type": "bin", "name": "월드컵로 54 횡단보도 옆", "lat": 37.554117, "lng": 126.912034}, {"id": "bin:9f978fb292490644", "type": "bin", "name": "마포중앙도서관 버스정류장(14-197)", "lat": 37.564127, "lng": 126.906381}, {"id": "bin:e05a4c9ef9caef92", "type": "bin", "name": "월드컵파크5단지 상암고등학교 버스정류장(14-288)", "lat": 37.579971, "lng": 126.887611}, {"id": "bin:af4aff7ea430de42", "type": "bin", "name": "마포구청역 버스정류장(14-194)", "lat": 37.564127, "lng": 126.906381}, {"id": "bin:fc7f352d46f2d826", "type": "bin", "name": "상암 DMC 버스정류장(14-290)", "lat": 37.58361, "lng": 126.884416}, {"id": "bin:319aba0411074fff", "type": "bin", "name": "마포구청역 버스정류장(14-195)", "lat": 37.562562, "lng": 126.902634}, {"id": "bin:0da5ad6ded6c0c43", "type": "bin", "name": "DMC첨단산업센터 버스정류장(14-111)", "lat": 37.585411, "lng": 126.885383}, {"id": "bin:c018e79e6c5d1575", "type": "bin", "name": "서부도로사업소 버스정류장(14-112)", "lat": 37.584406, "lng": 126.883466}, {"id": "bin:2dcee1fdfa0107a3", "type": "bin", "name": "마포구청역 3번 출구 앞(1)", "lat": 37.563025, "lng": 126.90467}, {"id": "bin:73420b19176e838c", "type": "bin", "name": "마포구청역 3번 출구 앞(2)", "lat": 37.563025, "lng": 126.90467}, {"id": "bin:b9b315e5d9031638", "type": "bin", "name": "마포중앙도서관 버스정류장(14-196)", "lat": 37.563845, "lng": 126.906672}, {"id": "bin:ee0f9485f8645fd8", "type": "bin", "name": "디지털미디어시티역 8번 출구 횡단보도 앞(1)", "lat": 37.57713, "lng": 126.897825}, {"id": "bin:ced5bbdada6d0d01", "type": "bin", "name": "월드컵로74 올리브영 앞", "lat": 37.555782, "lng": 126.910729}, {"id": "bin:1acaabcafa47d1eb", "type": "bin", "name": "월드컵로 100 으뜸공인중개사 앞", "lat": 37.557621, "lng": 126.908998}, {"id": "bin:00120f058524c953", "type": "bin", "name": "월드컵로 108 시골김치삼겹살 앞", "lat": 37.558245, "lng": 126.908443}, {"id": "bin:1d91810009ac7fa9", "type": "bin", "name": "버스정류장(14-199)", "lat": 37.565693, "lng": 126.912326}, {"id": "bin:7590ab0c85c6ff36", "type": "bin", "name": "월드컵로 158 LG베스트샵 앞", "lat": 37.561963, "lng": 126.905207}, {"id": "bin:2244684345e1b3e7", "type": "bin", "name": "버스정류장(14-162)", "lat": 37.573062, "lng": 126.901048}, {"id": "bin:5ad1be6daf013294", "type": "bin", "name": "월드컵북로 137 CS타워 앞", "lat": 37.564826, "lng": 126.911662}, {"id": "bin:214c4fbcad8de224", "type": "bin", "name": "버스정류장(14-286)", "lat": 37.57888, "lng": 126.891961}, {"id": "bin:1ca0a5ea90a8b097", "type": "bin", "name": "월드컵북로 69 바다약국 앞", "lat": 37.559931, "lng": 126.916343}, {"id": "bin:e91d315d997cc905", "type": "bin", "name": "월드컵북로43길 11 세븐일레븐 앞", "lat": 37.574668, "lng": 126.895713}, {"id": "bin:d19e605a6dd77499", "type": "bin", "name": "마포농수산물시장 버스정류장(14-103)", "lat": 37.568277, "lng": 126.892764}, {"id": "bin:2705ff2ab02b8210", "type": "bin", "name": "마포농수산물시장 입구 횡단보도(성산동665)", "lat": 37.568277, "lng": 126.892764}, {"id": "bin:e61bde635384a49f", "type": "bin", "name": "월드컵로 213 마포장애인복지회관 앞", "lat": 37.565444, "lng": 126.900803}, {"id": "bin:213ab92bea819bd9", "type": "bin", "name": "월드컵로 205 마포구청역 8번 출구 앞 버스정류장(14-102)", "lat": 37.565048, "lng": 126.9015}, {"id": "bin:f1ef05855bc2d957", "type": "bin", "name": "버스정류장(14-274)", "lat": 37.574235, "lng": 126.898388}, {"id": "bin:78b0854c26e585e6", "type": "bin", "name": "도로변(개봉로20길 74)(1)", "lat": 37.493289, "lng": 126.858419}, {"id": "bin:0b8b7b2b43bc30ed", "type": "bin", "name": "도로변(개봉로20길 74)(2)", "lat": 37.493289, "lng": 126.858419}, {"id": "bin:55f99048ec4838ab", "type": "bin", "name": "대동의류 앞", "lat": 37.483873, "lng": 126.886325}, {"id": "bin:7101d028f4887b10", "type": "bin", "name": "남구로역 3번출구", "lat": 37.48444, "lng": 126.885991}, {"id": "bin:5bf8c770d91d7130", "type": "bin", "name": "독막로 래미안밤섬아파트 서강육교 앞 버스정류장(14-126)", "lat": 37.547654, "lng": 126.927227}, {"id": "bin:bf5a1b93ea43a3e0", "type": "bin", "name": "홍대입구역 사거리, 횡단보도 앞", "lat": 37.552852, "lng": 126.918668}, {"id": "bin:893894b947d29e2a", "type": "bin", "name": "홍대입구역 사거리, 버스정류장(14-832) 앞", "lat": 37.552852, "lng": 126.918668}, {"id": "bin:802b359e07e7a450", "type": "bin", "name": "어울마당로 107 AA플레이스 앞", "lat": 37.554628, "lng": 126.922483}, {"id": "bin:9999f3965707abff", "type": "bin", "name": "어울마당로 113 양꼬치 앞", "lat": 37.554975, "lng": 126.922914}, {"id": "bin:f8e27387d8fb3a85", "type": "bin", "name": "gs마트 앞", "lat": 37.551959, "lng": 126.919338}, {"id": "bin:ea75c02ffc7220ff", "type": "bin", "name": "홍익로 10 서교푸르지오아파트 앞", "lat": 37.553762, "lng": 126.923694}, {"id": "bin:46d24e130524ca67", "type": "bin", "name": "홍익로 11 프리스비빌딩 앞(코닥서울쇼룸)", "lat": 37.553504, "lng": 126.923286}, {"id": "bin:aa7163f62d9dbcbc", "type": "bin", "name": "홍익로 18 국민은행 앞", "lat": 37.55422, "lng": 126.92301}, {"id": "bin:2cd50b7f4c6cc69b", "type": "bin", "name": "홍익로 19 세븐일레븐 앞", "lat": 37.554012, "lng": 126.922633}, {"id": "bin:929fb754a98262fc", "type": "bin", "name": "홍익로 20 걷고관광초소 옆", "lat": 37.554383, "lng": 126.922819}, {"id": "bin:de8d03c8de6e4d91", "type": "bin", "name": "홍익로 23 나이키홍대점 앞", "lat": 37.554293, "lng": 126.922241}, {"id": "bin:a2bf9940d809840e", "type": "bin", "name": "홍익로 5", "lat": 37.553114, "lng": 126.923764}, {"id": "bin:382858df19943241", "type": "bin", "name": "홍익로 6 CU편의점 앞", "lat": 37.553298, "lng": 126.924051}, {"id": "bin:0edb5c546f8aad3e", "type": "bin", "name": "공덕역 2번 출구 앞 횡단보도 옆", "lat": 37.545119, "lng": 126.950886}, {"id": "bin:b9ff8ef13a51d152", "type": "bin", "name": "애오개역 3번 출구 앞", "lat": 37.552787, "lng": 126.956558}, {"id": "bin:5fa0388406342cb5", "type": "bin", "name": "서강로 111-1 파리바게트 근처 전봇대앞", "lat": 37.553194, "lng": 126.933286}, {"id": "bin:7e9a6b19aeb856ab", "type": "bin", "name": "서강로 127-1 버스정류장(14-204)", "lat": 37.553975, "lng": 126.934777}, {"id": "bin:0625065263f03353", "type": "bin", "name": "홍대상상마당 부근(뷰티플레이 앞)", "lat": 37.550958, "lng": 126.921063}, {"id": "bin:f7bf27f51b8e9818", "type": "bin", "name": "한신포차 앞", "lat": 37.55057, "lng": 126.921626}, {"id": "bin:6c327936de5d8312", "type": "bin", "name": "토리엔비어 앞", "lat": 37.550909, "lng": 126.922525}, {"id": "bin:5958dcf605e76c27", "type": "bin", "name": "월드컵경기장 서측(문화비축기지) 버스정류장(14-106)(1)", "lat": 37.570269, "lng": 126.894524}, {"id": "bin:038e9b00a0a07fd6", "type": "bin", "name": "월드컵경기장 서측(문화비축기지) 버스정류장(14-106)(2)", "lat": 37.570269, "lng": 126.894524}, {"id": "bin:abeb00ddc65654e8", "type": "bin", "name": "성산아파트 버스정류장(14-163)", "lat": 37.569732, "lng": 126.903136}, {"id": "bin:5413d6cfe2205629", "type": "bin", "name": "월드컵북로 221 자전거대여소 옆", "lat": 37.569278, "lng": 126.904325}, {"id": "bin:8b4f6329d3eb0dec", "type": "bin", "name": "성산2동주민센터 버스정류장(14-158)", "lat": 37.567905, "lng": 126.908259}, {"id": "bin:a3fe9555144b67e0", "type": "bin", "name": "망원역 1번 출구, 택시승강장", "lat": 37.556015, "lng": 126.910469}, {"id": "bin:a387271b153d65bb", "type": "bin", "name": "망원역 하나은행 앞 배전함", "lat": 37.556474, "lng": 126.909241}, {"id": "bin:56b98ad0c39b10a9", "type": "bin", "name": "버스정류장(14-253)(1)", "lat": 37.560482, "lng": 126.905632}, {"id": "bin:f752fcbda49a7d6f", "type": "bin", "name": "버스정류장(14-253)(2)", "lat": 37.560482, "lng": 126.905632}, {"id": "bin:bd9e4e1a5c50d2a5", "type": "bin", "name": "버스정류장(14-249)", "lat": 37.554654, "lng": 126.911064}, {"id": "bin:1b2d4e7a1768f665", "type": "bin", "name": "디지털미디어시티입구 교차로, 버스정류장(14-509)", "lat": 37.573623, "lng": 126.887301}, {"id": "bin:60ecfd0fb9b47152", "type": "bin", "name": "디지털미디어시티역 8번 출구 횡단보도 앞(2)", "lat": 37.57713, "lng": 126.897825}, {"id": "bin:ebc7559973468162", "type": "bin", "name": "마포구청사 맞은편횡단보도", "lat": 37.565399, "lng": 126.902132}, {"id": "bin:611863ce8b6640c2", "type": "bin", "name": "마포농수산물시장 입구 횡단보도", "lat": 37.568277, "lng": 126.892764}, {"id": "bin:86b9e14d28a1eadc", "type": "bin", "name": "마포구의회 앞 마을버스정류장 (14-563)", "lat": 37.566313, "lng": 126.901616}, {"id": "bin:9413c92aee85188d", "type": "bin", "name": "마포구청역 1번 출구 앞", "lat": 37.565287, "lng": 126.902464}, {"id": "bin:bc958e4e617a2515", "type": "bin", "name": "버스정류장 14-361", "lat": 37.57853, "lng": 126.894285}, {"id": "bin:b621ac52f661a3b1", "type": "bin", "name": "DMC홍보관 방향 횡단보도 앞", "lat": 37.57711, "lng": 126.891404}, {"id": "bin:a44c7d3976d9894d", "type": "bin", "name": "시립마포청소년센터 앞 횡단보도 옆", "lat": 37.566313, "lng": 126.901616}, {"id": "bin:9a805b7b8ca1928c", "type": "bin", "name": "망원역2번 출구 안쪽(1)", "lat": 37.556057, "lng": 126.910034}, {"id": "bin:d4a789abe0f6dfd4", "type": "bin", "name": "망원역2번 출구 안쪽(2)", "lat": 37.556057, "lng": 126.910034}, {"id": "bin:61fd5afd66244719", "type": "bin", "name": "고산2길 61 노고산체육공원", "lat": 37.553979, "lng": 126.940809}, {"id": "bin:7f16464dcc4879e8", "type": "bin", "name": "구청 광장", "lat": 37.566313, "lng": 126.901616}, {"id": "bin:b70ac0eda0ce17d4", "type": "bin", "name": "구청 광장 재활용", "lat": 37.566313, "lng": 126.901616}, {"id": "bin:798e0f235e3ee882", "type": "bin", "name": "빈티지플러스 홍대점 앞", "lat": 37.551739, "lng": 126.921615}, {"id": "bin:1b55b028b4474a98", "type": "bin", "name": "홍대한신포차 앞", "lat": 37.55057, "lng": 126.921626}, {"id": "bin:2db1d669b03ff2c1", "type": "bin", "name": "홍대상상마당 부근(1)", "lat": 37.550958, "lng": 126.921063}, {"id": "bin:f26fb78fbdd4c5a9", "type": "bin", "name": "홍대상상마당 부근(2)", "lat": 37.550958, "lng": 126.921063}, {"id": "bin:430e17e91ac0c1c7", "type": "bin", "name": "홍대 어썸 앞", "lat": 37.550886, "lng": 126.922285}, {"id": "bin:c9bbad3d1e9b19f8", "type": "bin", "name": "도로변(구로중앙로 135-6)(1)", "lat": 37.499951, "lng": 126.882869}, {"id": "bin:6190f049a15bbaba", "type": "bin", "name": "버스정류장(17222)", "lat": 37.499834, "lng": 126.882616}, {"id": "bin:063be12ecbbd3efa", "type": "bin", "name": "버스정류장(17507)", "lat": 37.492356, "lng": 126.883433}, {"id": "bin:dab65860ca4278d5", "type": "bin", "name": "오르셀의원 앞", "lat": 37.517408, "lng": 127.018733}, {"id": "bin:5008d912b7131fff", "type": "bin", "name": "신사역4번출구 옆", "lat": 37.515555, "lng": 127.019471}, {"id": "bin:dd5137989d375325", "type": "bin", "name": "대도식당 앞", "lat": 37.512394, "lng": 127.020069}, {"id": "bin:4e965e641ac8e3db", "type": "bin", "name": "고도일병원 앞", "lat": 37.507014, "lng": 127.022703}, {"id": "bin:d9ecee3987af6bd7", "type": "bin", "name": "스타벅스 앞", "lat": 37.505325, "lng": 127.023649}, {"id": "bin:0e92a6c29c574480", "type": "bin", "name": "신논현역2번출구 뒤", "lat": 37.504919, "lng": 127.024041}, {"id": "bin:80f15880ec714352", "type": "bin", "name": "자라 앞", "lat": 37.502192, "lng": 127.025097}, {"id": "bin:7b1347abb6fcfc39", "type": "bin", "name": "유화빌딩 앞", "lat": 37.501736, "lng": 127.025278}, {"id": "bin:dde0e9f51e317e85", "type": "bin", "name": "이니스프리 앞", "lat": 37.50031, "lng": 127.025815}, {"id": "bin:d17bf2f314189381", "type": "bin", "name": "대동빌딩 앞", "lat": 37.49956, "lng": 127.02634}, {"id": "bin:ff4a77b84d057283", "type": "bin", "name": "던킨도너츠 앞", "lat": 37.495983, "lng": 127.02801}, {"id": "bin:d2f9ded6306fe3a4", "type": "bin", "name": "도씨에빛 1 앞", "lat": 37.495323, "lng": 127.028349}, {"id": "bin:217461cd644ea31e", "type": "bin", "name": "티월드 앞", "lat": 37.494799, "lng": 127.02861}, {"id": "bin:43dbc91fbd180d20", "type": "bin", "name": "신한금융투자 강남중앙지점 앞", "lat": 37.49352, "lng": 127.029241}, {"id": "bin:9f31a7f064d788b6", "type": "bin", "name": "지하철 환풍구 옆", "lat": 37.489753, "lng": 127.030983}, {"id": "bin:1da242e3b44e8b4d", "type": "bin", "name": "양재역 1번출구 옆", "lat": 37.483935, "lng": 127.034544}, {"id": "bin:4c49bbe4b8c5de91", "type": "bin", "name": "양재역 11번출구 옆", "lat": 37.483935, "lng": 127.034544}, {"id": "bin:d81a972548770b5c", "type": "bin", "name": "맥도널드 앞", "lat": 37.482767, "lng": 127.03495}, {"id": "bin:7b966dd335148b2b", "type": "bin", "name": "양재역 7번출구 옆", "lat": 37.483935, "lng": 127.034544}, {"id": "bin:e83f8be0fd96f088", "type": "bin", "name": "상록빌딩 앞", "lat": 37.477888, "lng": 127.03918}, {"id": "bin:5c57cd23b11688a6", "type": "bin", "name": "일동제약사거리 버스정류장(22-291)", "lat": 37.478592, "lng": 127.038431}, {"id": "bin:d52baeea874467ac", "type": "bin", "name": "양재시민의 숲 3번출구", "lat": 37.469282, "lng": 127.039909}, {"id": "bin:18cc7e3927252db2", "type": "bin", "name": "양재시민의 숲 1번출구 앞 버스정류장(222-98)", "lat": 37.468604, "lng": 127.03959}, {"id": "bin:feabeae6269f4910", "type": "bin", "name": "버스정류장 앞(22979)", "lat": 37.477387, "lng": 126.987482}, {"id": "bin:55dfb38f19e0f740", "type": "bin", "name": "버스정류장 앞(22250)", "lat": 37.480162, "lng": 126.994597}, {"id": "bin:067de72c0332362a", "type": "bin", "name": "남부터미널 역 5번출구 옆", "lat": 37.483547, "lng": 127.015111}, {"id": "bin:adb479bbcd713627", "type": "bin", "name": "페이토호텔 앞", "lat": 37.486573, "lng": 127.032633}, {"id": "bin:38c0d4486e0a73b0", "type": "bin", "name": "양재시민의 숲 4번출구", "lat": 37.468279, "lng": 127.039136}, {"id": "bin:fda53ba5124bfe11", "type": "bin", "name": "버스정류장 앞(22446)", "lat": 37.486026, "lng": 127.020989}, {"id": "bin:6b354eb849f00c80", "type": "bin", "name": "버스정류장 앞(22126)", "lat": 37.488611, "lng": 127.029589}, {"id": "bin:c1b9b27d9568d3df", "type": "bin", "name": "버스정류장 앞(22112)", "lat": 37.48664, "lng": 127.021315}, {"id": "bin:899a85677ecd066b", "type": "bin", "name": "와라와라 앞", "lat": 37.483895, "lng": 127.011921}, {"id": "bin:000cf1f7a4303a48", "type": "bin", "name": "서초고용센터 앞", "lat": 37.48423, "lng": 127.010841}, {"id": "bin:b5f18ce649fc9b14", "type": "bin", "name": "한독모터스 앞", "lat": 37.486929, "lng": 127.010587}, {"id": "bin:e53e90a70a89437b", "type": "bin", "name": "서초역 2번출구 앞", "lat": 37.491577, "lng": 127.008343}, {"id": "bin:c9f0edc347696a4b", "type": "bin", "name": "서초역 3번출구 앞", "lat": 37.490922, "lng": 127.007913}, {"id": "bin:2ff63d6398fc437d", "type": "bin", "name": "버스정류장 앞(22142)", "lat": 37.488685, "lng": 127.00874}, {"id": "bin:37655552da230d92", "type": "bin", "name": "방배역 3번출구 옆", "lat": 37.481083, "lng": 126.997421}, {"id": "bin:d152364c86b69777", "type": "bin", "name": "버스정류장 앞(22140)", "lat": 37.488711, "lng": 127.009584}, {"id": "bin:f799aa95c24ed747", "type": "bin", "name": "방배역 1번출구 옆", "lat": 37.481365, "lng": 126.998918}, {"id": "bin:32f236a70ab930ba", "type": "bin", "name": "버스정류장 앞(22223),서래초근처", "lat": 37.496686, "lng": 126.988421}, {"id": "bin:2aeaa776509404fe", "type": "bin", "name": "방배열린문화센터 앞", "lat": 37.489008, "lng": 126.992242}, {"id": "bin:e6d9688c832ec465", "type": "bin", "name": "내방역 3번출구 앞", "lat": 37.487158, "lng": 126.99356}, {"id": "bin:4ecdcb274bbc7bf9", "type": "bin", "name": "내방역 5번출구 뒤", "lat": 37.487902, "lng": 126.993196}, {"id": "bin:ea9df26933462dd3", "type": "bin", "name": "방배역 2번출구 앞", "lat": 37.481083, "lng": 126.997421}, {"id": "bin:0483f6ae03c75ef3", "type": "bin", "name": "버스정류장 앞(22548)", "lat": 37.476523, "lng": 127.001244}, {"id": "bin:da853ac6e8aae02c", "type": "bin", "name": "구반포역 2번출구 앞", "lat": 37.501139, "lng": 126.986184}, {"id": "bin:41b50dd7230d986b", "type": "bin", "name": "고속터미널 역 8-1번 출구 앞", "lat": 37.50622, "lng": 127.005052}, {"id": "bin:f73f7b97f647a1f8", "type": "bin", "name": "버스정류장 옆(22990)", "lat": 37.50239, "lng": 126.995965}, {"id": "bin:17b7eac81c10ecc8", "type": "bin", "name": "신반포역 4번출구 앞", "lat": 37.50622, "lng": 127.005052}, {"id": "bin:4777a03196dd6822", "type": "bin", "name": "킴스클럽 앞", "lat": 37.510261, "lng": 127.006971}, {"id": "bin:d353de7c70fe628b", "type": "bin", "name": "버스정류장 앞(22208)", "lat": 37.509949, "lng": 127.007776}, {"id": "bin:62035aba224fd9e2", "type": "bin", "name": "버스정류장 앞(22205)", "lat": 37.514519, "lng": 127.006996}, {"id": "bin:9227c5dd068e2ad3", "type": "bin", "name": "버스정류장 앞(22417)", "lat": 37.475117, "lng": 126.991091}, {"id": "bin:1b6e7ec694752d03", "type": "bin", "name": "예술의 전당 앞(22151)", "lat": 37.48024, "lng": 127.014215}, {"id": "bin:58d4857075d901ce", "type": "bin", "name": "예술의 전당 앞 마임건너편(22025)", "lat": 37.48024, "lng": 127.014215}, {"id": "bin:e5dd1ef624f84eca", "type": "bin", "name": "버스정류장 앞(22380)", "lat": 37.498853, "lng": 126.990516}, {"id": "bin:57c0f02475b2b83b", "type": "bin", "name": "골프존마켓 앞", "lat": 37.498652, "lng": 126.995456}, {"id": "bin:cf35e42159802185", "type": "bin", "name": "버스정류장 앞(22543)", "lat": 37.499767, "lng": 126.998352}, {"id": "bin:70dffdd076d1b017", "type": "bin", "name": "버스정류장 앞(22544)", "lat": 37.500373, "lng": 127.00106}, {"id": "bin:248a626ca2bf4657", "type": "bin", "name": "버스정류장 앞(22433)", "lat": 37.497897, "lng": 126.991837}, {"id": "bin:154f0f6b3701c4ee", "type": "bin", "name": "버스정류장 앞(22195)", "lat": 37.504916, "lng": 127.014417}, {"id": "bin:f23ee34149f1268d", "type": "bin", "name": "버스정류장 앞(22196)", "lat": 37.504159, "lng": 127.015434}, {"id": "bin:5981346622877f7b", "type": "bin", "name": "이수역 1번 출구 뒤", "lat": 37.488013, "lng": 126.982636}, {"id": "bin:f7438b631522d4d1", "type": "bin", "name": "이수역 4번 출구 앞", "lat": 37.486091, "lng": 126.982617}, {"id": "bin:f827df3619c6d229", "type": "bin", "name": "이수역 5번 출구 앞", "lat": 37.484793, "lng": 126.982599}, {"id": "bin:ec7aa7790190de92", "type": "bin", "name": "사당역 11번 출구 앞", "lat": 37.478662, "lng": 126.982152}, {"id": "bin:e14ca66f2f50f4a3", "type": "bin", "name": "사당역 12번 출구 앞", "lat": 37.477701, "lng": 126.982236}, {"id": "bin:d24ab01d1d1aa85c", "type": "bin", "name": "이수교차로 교통섬", "lat": 37.498293, "lng": 126.984829}, {"id": "bin:f58c5689952d8a29", "type": "bin", "name": "신한은행 반포남금융센터 앞", "lat": 37.502962, "lng": 127.012071}, {"id": "bin:c0735f3de4cf519a", "type": "bin", "name": "버스정류장 앞(22922),세란병원앞", "lat": 37.489243, "lng": 127.004825}, {"id": "bin:43caf0fa09f91dfb", "type": "bin", "name": "버스정류장 앞(22466)", "lat": 37.502487, "lng": 127.012513}, {"id": "bin:623c24b25a41d610", "type": "bin", "name": "서리풀문화광장 앞", "lat": 37.490746, "lng": 127.004678}, {"id": "bin:9fd5492b8e044320", "type": "bin", "name": "버스정류장 앞(22117)", "lat": 37.493416, "lng": 127.026491}, {"id": "bin:fc4802bf92a9b191", "type": "bin", "name": "버스정류장 앞(22118)", "lat": 37.493007, "lng": 127.025453}, {"id": "bin:f670d384d685d43a", "type": "bin", "name": "버스정류장 앞(22164)", "lat": 37.501325, "lng": 127.020127}, {"id": "bin:9d57cb0a34e456fa", "type": "bin", "name": "버스정류장 앞(22164)", "lat": 37.501858, "lng": 127.022423}, {"id": "bin:c611cb022fbd5a8f", "type": "bin", "name": "버스정류장 앞(22607)", "lat": 37.459764, "lng": 127.025361}, {"id": "bin:a22b56bbc5f2de17", "type": "bin", "name": "서초힐스아파트 앞", "lat": 37.457605, "lng": 127.017571}, {"id": "bin:3b9313a08a1bc8c4", "type": "bin", "name": "버스정류장 앞(22422)", "lat": 37.463439, "lng": 127.035526}, {"id": "bin:b3d2bf7435d0467c", "type": "bin", "name": "양재시민의 숲 5번 출구 앞", "lat": 37.469979, "lng": 127.038326}, {"id": "bin:35245054382ab10a", "type": "bin", "name": "버스정류장 앞(22302)", "lat": 37.465123, "lng": 127.044751}, {"id": "bin:b721fe89f9439280", "type": "bin", "name": "청계산입구 역 2번 출구", "lat": 37.447538, "lng": 127.05532}, {"id": "bin:f55224f20c6790ee", "type": "bin", "name": "버스정류장(22175)", "lat": 37.517934, "lng": 127.014143}, {"id": "bin:fc8d410a521f5eb7", "type": "bin", "name": "반포 푸르지오101동 횡단보도앞", "lat": 37.50622, "lng": 127.005052}, {"id": "bin:3e0521bc41b08d06", "type": "bin", "name": "신반포역사거리(세화고등학교옆)", "lat": 37.50622, "lng": 127.005052}, {"id": "bin:ee89f8ae87aff272", "type": "bin", "name": "버스정류장(22211)", "lat": 37.506436, "lng": 127.006834}, {"id": "bin:8134dee3c218d381", "type": "bin", "name": "버스정류장(22128)", "lat": 37.487613, "lng": 127.026189}, {"id": "bin:28d4bfafbe8b7574", "type": "bin", "name": "양재역 5번 출구뒤", "lat": 37.484338, "lng": 127.035179}, {"id": "bin:c3814474881a03b5", "type": "bin", "name": "원베일리정류장(22381)", "lat": 37.507506, "lng": 126.999653}, {"id": "bin:d2b49303ac2b6952", "type": "bin", "name": "브라운스톤 앞 버스정류장", "lat": 37.639876, "lng": 127.064284}, {"id": "bin:41f0a7fed07b339c", "type": "bin", "name": "하계1동주민센터 앞 버스정류장", "lat": 37.643445, "lng": 127.073337}, {"id": "bin:547f0d085e82390a", "type": "bin", "name": "온곡중학교 앞 버스정류장", "lat": 37.660677, "lng": 127.061496}, {"id": "bin:5ce85812184db1c3", "type": "bin", "name": "성북역사문화공원 앞", "lat": 37.5925, "lng": 126.997789}, {"id": "bin:918c060cf6aa802a", "type": "bin", "name": "상계주공14단지(1403동) 앞 버스정류장", "lat": 37.669857, "lng": 127.058746}, {"id": "bin:54d7673be8536b8b", "type": "bin", "name": "보문동주민센터 버스정류장(08-184)", "lat": 37.580218, "lng": 127.022611}, {"id": "bin:4847d8214948753c", "type": "bin", "name": "한일유앤아이아파트", "lat": 37.485848, "lng": 126.876157}, {"id": "bin:f57d358966aad0c2", "type": "bin", "name": "구일어린이집 옆", "lat": 37.491777, "lng": 126.874364}, {"id": "bin:4db5d1b0769435e1", "type": "bin", "name": "구일우성아파트(1)", "lat": 37.489758, "lng": 126.877081}, {"id": "bin:013500886378f275", "type": "bin", "name": "성북천 분수광장 평화의소녀상 앞", "lat": 37.588406, "lng": 127.006487}, {"id": "bin:b44aa6d826a75389", "type": "bin", "name": "삼선교.한성대학교.조소앙활동터 버스정류장(08-010)", "lat": 37.588899, "lng": 127.00747}, {"id": "bin:a1a7fd3dc9f392a0", "type": "bin", "name": "삼선교.한성대학교.조소앙활동터 버스정류장(08-009)", "lat": 37.589954, "lng": 127.009784}, {"id": "bin:d1c1a15e77d4e3d8", "type": "bin", "name": "한성대입구역 5번 출구", "lat": 37.588624, "lng": 127.00553}, {"id": "bin:fa8240c11e21c6be", "type": "bin", "name": "돈암사거리.성신여대입구 버스정류장(08-007)", "lat": 37.594035, "lng": 127.018532}, {"id": "bin:7038bec0e13ece01", "type": "bin", "name": "돈암사거리.성신여대입구 버스정류장(08-008)", "lat": 37.593052, "lng": 127.017335}, {"id": "bin:9b7412a7e6341814", "type": "bin", "name": "성신여대입구역 버스정류장(08-270), 아리랑힐호텔 동대문 앞", "lat": 37.593608, "lng": 127.016666}, {"id": "bin:1273dcfa0391ba43", "type": "bin", "name": "성신필약국 앞", "lat": 37.593471, "lng": 127.016123}, {"id": "bin:f4ac9b26bb63dde6", "type": "bin", "name": "돈암동삼성아파트입구 버스정류장(08-123)", "lat": 37.601881, "lng": 127.024467}, {"id": "bin:67fe0c96fd81e424", "type": "bin", "name": "미아리고개.미아리예술극장 버스정류장(08-005)", "lat": 37.598314, "lng": 127.021585}, {"id": "bin:eb806f80e2f90261", "type": "bin", "name": "미아리고개.미아리예술극장 버스정류장(08-006)", "lat": 37.598406, "lng": 127.021962}, {"id": "bin:934612834bdc0545", "type": "bin", "name": "서울다원학교.한용운활동터 버스정류장(08-223)", "lat": 37.594384, "lng": 126.991777}, {"id": "bin:07647ddf387a0d65", "type": "bin", "name": "숭덕초교 버스정류장(08-120)", "lat": 37.603875, "lng": 127.015369}, {"id": "bin:cfb9339a023df9ef", "type": "bin", "name": "숭덕초교 버스정류장(08-119)", "lat": 37.603128, "lng": 127.014511}, {"id": "bin:fa29831121566d32", "type": "bin", "name": "정릉2동주민센터 버스정류장(08-117)", "lat": 37.604465, "lng": 127.011129}, {"id": "bin:ad5764a7dd6025b4", "type": "bin", "name": "정릉우체국앞 버스정류장(08-169)", "lat": 37.605284, "lng": 127.01138}, {"id": "bin:b05e3eee5b557f2a", "type": "bin", "name": "고려대사범대학부속고등학교 버스정류장(08-114)", "lat": 37.607955, "lng": 127.002402}, {"id": "bin:34fc70d9a803ce6b", "type": "bin", "name": "청덕초교 버스정류장(08-112)", "lat": 37.608364, "lng": 127.000717}, {"id": "bin:1d5c3486abae3a9e", "type": "bin", "name": "국민대앞 버스정류장(08-107)", "lat": 37.610947, "lng": 126.993582}, {"id": "bin:83cc367a34bbe694", "type": "bin", "name": "국민대학교앞 버스정류장(08-110)", "lat": 37.610905, "lng": 126.994344}, {"id": "bin:fa17c09b2dca0de9", "type": "bin", "name": "국민대앞 버스정류장(08-108)", "lat": 37.609912, "lng": 126.998355}, {"id": "bin:2a12a0797a187d6e", "type": "bin", "name": "북악중학교 버스정류장(08-113)", "lat": 37.607303, "lng": 127.003061}, {"id": "bin:6969fbc9ba3222d1", "type": "bin", "name": "정릉동풍림아파트.청소년문화의집 버스정류장(08-262)", "lat": 37.616045, "lng": 127.008106}, {"id": "bin:828c0fed97198431", "type": "bin", "name": "정릉4동주민센터.경국사 버스정류장(08-163)", "lat": 37.613578, "lng": 127.006265}, {"id": "bin:fbd6069a64004b72", "type": "bin", "name": "돌곶이역 2번출구", "lat": 37.611267, "lng": 127.056567}, {"id": "bin:42c72a53e78aab3c", "type": "bin", "name": "돌곶이역 버스정류장(08-142)", "lat": 37.610631, "lng": 127.05612}, {"id": "bin:fac57137d9d6e74d", "type": "bin", "name": "월곡중학교 버스정류장(08-353)", "lat": 37.606031, "lng": 127.04768}, {"id": "bin:c046fa4981bd12fc", "type": "bin", "name": "상월곡역 버스정류장(08-136)", "lat": 37.605725, "lng": 127.046387}, {"id": "bin:2abec346aa35a051", "type": "bin", "name": "월곡역 버스정류장(08-132)", "lat": 37.601562, "lng": 127.041581}, {"id": "bin:03a7ae8f42dd2bf8", "type": "bin", "name": "길음역 9번출구", "lat": 37.604552, "lng": 127.025173}, {"id": "bin:19fa894d719011b0", "type": "bin", "name": "서울종암경찰서", "lat": 37.601937, "lng": 127.033532}, {"id": "bin:74e8879327fabdc1", "type": "bin", "name": "월곡동신아파트 버스정류장(08-403)", "lat": 37.604594, "lng": 127.034545}, {"id": "bin:e82b76a94736be51", "type": "bin", "name": "숭곡초교입구 버스정류장(08-101)", "lat": 37.609678, "lng": 127.032022}, {"id": "bin:f3c8eec7681c10fa", "type": "bin", "name": "성가복지병원 버스정류장(08-149)", "lat": 37.605961, "lng": 127.031637}, {"id": "bin:ea308f383ba7bef6", "type": "bin", "name": "보문동주민센터 버스정류장(08-183)", "lat": 37.58041, "lng": 127.021729}, {"id": "bin:8b2afdeedd5caad2", "type": "bin", "name": "보문동성당 버스정류장(08-181)", "lat": 37.582381, "lng": 127.020687}, {"id": "bin:b691bc7aac5bd9e1", "type": "bin", "name": "보문역 버스정류장(08-326)", "lat": 37.586123, "lng": 127.019206}, {"id": "bin:ab81b1e22893e189", "type": "bin", "name": "안암전철역 버스정류장(08-302)", "lat": 37.586522, "lng": 127.030237}, {"id": "bin:bf1074b78942e839", "type": "bin", "name": "안암역 버스정류장(08-301)", "lat": 37.586172, "lng": 127.030421}, {"id": "bin:c3378fffe1f3ff2c", "type": "bin", "name": "국민은행장위동지점 버스정류장(08-282)", "lat": 37.613868, "lng": 127.048737}, {"id": "bin:04fd80fd66d3673e", "type": "bin", "name": "영어의 힘 앞", "lat": 37.617621, "lng": 127.04772}, {"id": "bin:0babd8e7f48de6fa", "type": "bin", "name": "장월초교.참누리아파트 버스정류장(08-450)", "lat": 37.622918, "lng": 127.048397}, {"id": "bin:b7a2a9cc96fd8b67", "type": "bin", "name": "아리랑고개.아리랑시네미디어센터 버스정류장(08-266)", "lat": 37.600059, "lng": 127.013924}, {"id": "bin:6e7c6fec88586c5e", "type": "bin", "name": "아리랑고개.아리랑시네미디어센터 버스정류장(08-265)", "lat": 37.600733, "lng": 127.013617}, {"id": "bin:67daff39ba2414fa", "type": "bin", "name": "경신중고입구 버스정류장(08-233)", "lat": 37.592514, "lng": 127.002794}, {"id": "bin:f4da5a79b182137c", "type": "bin", "name": "홍익대부속중고등학교입구 버스정류장(08-231)", "lat": 37.593525, "lng": 127.001406}, {"id": "bin:fdf76a1a429e4a60", "type": "bin", "name": "현대백화점별관주차장 버스정류장(08-874)", "lat": 37.607562, "lng": 127.029209}, {"id": "bin:c0a0384c7f79a9b4", "type": "bin", "name": "우리은행 앞 광장", "lat": 37.614165, "lng": 127.064926}, {"id": "bin:33aa6c3d69de4c61", "type": "bin", "name": "고려대역 1번출구", "lat": 37.59065, "lng": 127.036213}, {"id": "bin:f4f81135c2777cbb", "type": "bin", "name": "종암사거리입구 버스정류장(08-150)", "lat": 37.60145, "lng": 127.032724}, {"id": "bin:6820537956ff6078", "type": "bin", "name": "길음1동주민센터.길음중앙새마을금고앞 버스정류장(08-786)", "lat": 37.60929, "lng": 127.021034}, {"id": "bin:c942ff9240068f1a", "type": "bin", "name": "길음시장입구 버스정류장(08-662)", "lat": 37.607246, "lng": 127.021634}, {"id": "bin:8d30698c6bde42bb", "type": "bin", "name": "현대아파트앞 버스정류장(08-514)", "lat": 37.607246, "lng": 127.021634}, {"id": "bin:81b519af18e28731", "type": "bin", "name": "래미안821동앞 버스정류장(08-529)", "lat": 37.606606, "lng": 127.021716}, {"id": "bin:8e2ea84284ad32e3", "type": "bin", "name": "보문역 버스정류장(08-179)", "lat": 37.585869, "lng": 127.0188}, {"id": "bin:a89f13bf8edbc79a", "type": "bin", "name": "우신향병원 버스정류장(08-157)", "lat": 37.585109, "lng": 127.031429}, {"id": "bin:1f420da131d9bfba", "type": "bin", "name": "숭례초등학교 버스정류장(08-155)", "lat": 37.594179, "lng": 127.036206}, {"id": "bin:0e24e5a88c61a602", "type": "bin", "name": "청덕초등학교 버스정류장(08-111)", "lat": 37.608697, "lng": 126.998974}, {"id": "bin:90127f9741286e4f", "type": "bin", "name": "창문여고 버스정류장(08-102)", "lat": 37.611763, "lng": 127.035952}, {"id": "bin:cf00db9254b3decc", "type": "bin", "name": "길음역 버스정류장(08-124)", "lat": 37.602274, "lng": 127.024066}, {"id": "bin:5ef4dacf75155336", "type": "bin", "name": "월곡뉴타운 버스정류장(08-002)", "lat": 37.605813, "lng": 127.027388}, {"id": "bin:9369031ab6f5326a", "type": "bin", "name": "월곡뉴타운 버스정류장(08-001)", "lat": 37.606752, "lng": 127.027864}, {"id": "bin:83f1b9633c903f39", "type": "bin", "name": "길음뉴타운 버스정류장(08-003)", "lat": 37.603756, "lng": 127.024224}, {"id": "bin:119d3b2c023aa467", "type": "bin", "name": "길음뉴타운 버스정류장(08-004)", "lat": 37.603288, "lng": 127.02374}, {"id": "bin:9526897875c8c592", "type": "bin", "name": "월곡역 2번출구", "lat": 37.602493, "lng": 127.041151}, {"id": "bin:6329eda6b47a96ca", "type": "bin", "name": "정릉길음시장 버스정류장(08-121)", "lat": 37.602124, "lng": 127.019152}, {"id": "bin:b10fac0a944d3b57", "type": "bin", "name": "종암동주민센터 버스정류장(08-152)", "lat": 37.599339, "lng": 127.034048}, {"id": "bin:7884fddf8e6ad9a0", "type": "bin", "name": "청진동해장국 앞", "lat": 37.59503, "lng": 127.036199}, {"id": "bin:bfc821f35fc76906", "type": "bin", "name": "삼선교.성북문화원 버스정류장(08-237)", "lat": 37.58947, "lng": 127.00522}, {"id": "bin:f7380f28d5a1cbae", "type": "bin", "name": "정릉입구 버스정류장(08-263)", "lat": 37.602441, "lng": 127.01342}, {"id": "bin:c1a8eccbbec2343e", "type": "bin", "name": "정릉입구 버스정류장(08-264)", "lat": 37.602918, "lng": 127.013689}, {"id": "bin:1201f62f76842d87", "type": "bin", "name": "생명의전화 버스정류장(08-290)", "lat": 37.60422, "lng": 127.037684}, {"id": "bin:5036e6aa93eb9e74", "type": "bin", "name": "성가복지병원 버스정류장(08-148)", "lat": 37.604936, "lng": 127.03162}, {"id": "bin:722a56be1f2db8a6", "type": "bin", "name": "석계역 버스정류장(08-147)", "lat": 37.615095, "lng": 127.066719}, {"id": "bin:902e268e10f99ad8", "type": "bin", "name": "돈암2동주민센터입구.흥천사 버스정류장(08-268)", "lat": 37.596396, "lng": 127.015751}, {"id": "bin:030ca68106381642", "type": "bin", "name": "한국과학기술연구원입구 버스정류장(08-135)", "lat": 37.605546, "lng": 127.047424}, {"id": "bin:da2399aaa067190c", "type": "bin", "name": "명쭈3 앞", "lat": 37.595079, "lng": 127.016162}, {"id": "bin:4efe2e52ba81e7a6", "type": "bin", "name": "배스킨라빈스 앞", "lat": 37.585045, "lng": 127.0193}, {"id": "bin:86419d732fb1457e", "type": "bin", "name": "종암SK아파트 버스정류장(08-130)", "lat": 37.602035, "lng": 127.037477}, {"id": "bin:1455ac638975874a", "type": "bin", "name": "석관동코오롱아파트 버스정류장(08-197)", "lat": 37.606206, "lng": 127.066437}, {"id": "bin:ae8e2aceb03fff88", "type": "bin", "name": "KT월곡지사 버스정류장(08-128)", "lat": 37.602435, "lng": 127.034667}, {"id": "bin:7ffa3a606e4f255d", "type": "bin", "name": "솔샘사거리 버스정류장(08-324)", "lat": 37.612895, "lng": 127.007058}, {"id": "bin:a5b35cf16b4f83bc", "type": "bin", "name": "석계역 4번 출구", "lat": 37.614849, "lng": 127.066847}, {"id": "bin:58906a242c9600c3", "type": "bin", "name": "숭례초교 버스정류장(08-154)", "lat": 37.594521, "lng": 127.035297}, {"id": "bin:9a37905b85d4e6dd", "type": "bin", "name": "숭덕초교 버스정류장(08-257)", "lat": 37.60382, "lng": 127.013291}, {"id": "bin:928b2a1343eb4c4f", "type": "bin", "name": "장곡초교사거리 버스정류장(08-222)", "lat": 37.617699, "lng": 127.049802}, {"id": "bin:d8623a3d1c11f241", "type": "bin", "name": "성북구청 바람마당", "lat": 37.589468, "lng": 127.016822}, {"id": "bin:beb3d08304921f72", "type": "bin", "name": "서울·성북 미디어문화마루 앞", "lat": 37.603751, "lng": 127.022464}, {"id": "bin:c08fba773f2ac136", "type": "bin", "name": "정릉2동주민센터 버스정류장(08-118)", "lat": 37.60504, "lng": 127.011356}, {"id": "bin:30dcd837c94b07d9", "type": "bin", "name": "문화공간 이육사 앞 공원", "lat": 37.598152, "lng": 127.03261}, {"id": "bin:7e4bc732d6fb9b89", "type": "bin", "name": "월곡역 교통섬", "lat": 37.601421, "lng": 127.041185}, {"id": "bin:9c9a04008c8570f3", "type": "bin", "name": "래미안라센트아파트 103동 외부 서울자전거 따릉이 대여소", "lat": 37.599373, "lng": 127.039227}, {"id": "bin:f2254617f69e1b20", "type": "bin", "name": "북한산보국문역 1번출구", "lat": 37.612113, "lng": 127.008592}, {"id": "bin:0eae09e870b55e54", "type": "bin", "name": "꿈의숲아이파크아파트 702동, 703동 사이 외부 인도", "lat": 37.618661, "lng": 127.048959}, {"id": "bin:8cf5403e7bb01d6e", "type": "bin", "name": "래미안장위포레카운티아파트 110동 외부 쉼터", "lat": 37.618002, "lng": 127.053308}, {"id": "bin:ea045e6d5cf75a30", "type": "bin", "name": "장위래미안퍼스트하이 상가 앞", "lat": 37.620056, "lng": 127.051435}, {"id": "bin:5c2b3c02f77b1333", "type": "bin", "name": "시온아트빌 앞", "lat": 37.606704, "lng": 127.066436}, {"id": "bin:921413cbfd02b79b", "type": "bin", "name": "삼덕단지 버스정류장 앞", "lat": 37.610395, "lng": 127.005287}, {"id": "bin:e95eacbb4d0f3f3f", "type": "bin", "name": "롯데캐슬 아파트 건너편 버스정류장", "lat": 37.609058, "lng": 127.015366}, {"id": "bin:ea2bacc14cca8ec5", "type": "bin", "name": "코오롱 하늘채 아파트 앞 버스정류장(08200)", "lat": 37.619034, "lng": 127.045615}, {"id": "bin:2057c7cf79a0814b", "type": "bin", "name": "길음뉴타운 8단지 앞", "lat": 37.605049, "lng": 127.022009}, {"id": "bin:2fcfa7b474068847", "type": "bin", "name": "길음뉴타운 우리은행 앞 버스정류장(08545)", "lat": 37.605445, "lng": 127.022222}, {"id": "bin:12904d2d29a71c13", "type": "bin", "name": "아리랑호텔 동대문 앞 버스정류장(08270)", "lat": 37.59377, "lng": 127.016453}, {"id": "bin:54dea6ac7826a240", "type": "bin", "name": "힐스테이트 입구 버스 정류장", "lat": 37.606507, "lng": 127.028219}, {"id": "bin:9c09dfa4b6d31888", "type": "bin", "name": "구일우성아파트(2)", "lat": 37.495173, "lng": 126.872676}, {"id": "bin:b44efc40b74d6e16", "type": "bin", "name": "성북 우체국 앞 인도", "lat": 37.607313, "lng": 127.029312}, {"id": "bin:0344612792a1947a", "type": "bin", "name": "고대병원 버스정류장", "lat": 37.587111, "lng": 127.026357}, {"id": "bin:dd58e5c6d0c4e0fe", "type": "bin", "name": "보문역 버스정류장(08296)", "lat": 37.585638, "lng": 127.020008}, {"id": "bin:f513908180d0850a", "type": "bin", "name": "보문역 버스정류장(08295)", "lat": 37.585505, "lng": 127.020195}, {"id": "bin:9b8525f03f5ac211", "type": "bin", "name": "성북구청 버스정류장(08178)", "lat": 37.588698, "lng": 127.017294}, {"id": "bin:25dce56615fa3265", "type": "bin", "name": "성북구청 버스정류장(08177)", "lat": 37.588165, "lng": 127.017289}, {"id": "bin:7159798165775836", "type": "bin", "name": "삼선시장 버스정류장(08535)", "lat": 37.588242, "lng": 127.00922}, {"id": "bin:9b701c0602fb031d", "type": "bin", "name": "보문로34길 88 앞 인도", "lat": 37.591259, "lng": 127.02015}, {"id": "bin:7e2f22ed8ceeb906", "type": "bin", "name": "동소문로20길 43 앞 인도", "lat": 37.590659, "lng": 127.017025}, {"id": "bin:2faa88f3e573c814", "type": "bin", "name": "도로변(구로동로 13)", "lat": 37.482896, "lng": 126.886887}, {"id": "bin:048f46903311cde8", "type": "bin", "name": "보문동성당 버스정류장(08-182)", "lat": 37.582281, "lng": 127.021306}, {"id": "bin:742395d257b08eeb", "type": "bin", "name": "삼선동주민센터 버스정류장(08-176)", "lat": 37.590866, "lng": 127.014655}, {"id": "bin:3d9a1c374a8b926d", "type": "bin", "name": "삼선동주민센터 버스정류장(08-997)", "lat": 37.590866, "lng": 127.014655}, {"id": "bin:719c7e0f9e6edb96", "type": "bin", "name": "돈암시장 버스정류장(08-934)", "lat": 37.591431, "lng": 127.013262}, {"id": "bin:d91db7389b9e9297", "type": "bin", "name": "국수나무 길음점 앞", "lat": 37.60929, "lng": 127.021034}, {"id": "bin:4ee23c86bd1ba3cd", "type": "bin", "name": "주신공인중개사사무소 앞", "lat": 37.607487, "lng": 127.028368}, {"id": "bin:224825c8e8986a8b", "type": "bin", "name": "진각종 앞 달빛공원", "lat": 37.604168, "lng": 127.042325}, {"id": "bin:8f0a86fd38a35ce7", "type": "bin", "name": "겸재로 120-1", "lat": 37.586726, "lng": 127.081234}, {"id": "bin:2618ac270c41da5b", "type": "bin", "name": "면목동 396-1", "lat": 37.590988, "lng": 127.075554}, {"id": "bin:48119eaf05036f8a", "type": "bin", "name": "사가정로49길 56", "lat": 37.583508, "lng": 127.086969}, {"id": "bin:bd5e441d2fb587f8", "type": "bin", "name": "사가정로51길 (1)", "lat": 37.582344, "lng": 127.087912}, {"id": "bin:b6e191b40af0aba2", "type": "bin", "name": "사가정로51길 (2)", "lat": 37.582344, "lng": 127.087912}, {"id": "bin:1dd0e77672d90070", "type": "bin", "name": "사가정로51길 (3)", "lat": 37.582344, "lng": 127.087912}, {"id": "bin:ae9071d94122218b", "type": "bin", "name": "사가정로51길 (4)", "lat": 37.582344, "lng": 127.087912}, {"id": "bin:2940d17979421f70", "type": "bin", "name": "사가정로51길 (5)", "lat": 37.582344, "lng": 127.087912}, {"id": "bin:dd3254f1db28a1b7", "type": "bin", "name": "사가정로51길 (6)", "lat": 37.582344, "lng": 127.087912}, {"id": "bin:969d9dcdc633df98", "type": "bin", "name": "사가정로51길 (7)", "lat": 37.582344, "lng": 127.087912}, {"id": "bin:82847a7a481bc7bd", "type": "bin", "name": "사가정로51길 (8)", "lat": 37.582344, "lng": 127.087912}, {"id": "bin:8901378eccffd8a6", "type": "bin", "name": "사가정로51길 (9)", "lat": 37.582344, "lng": 127.087912}, {"id": "bin:792d4ff17b2dc2a2", "type": "bin", "name": "사가정로51길 (10)", "lat": 37.582344, "lng": 127.087912}, {"id": "bin:779d15289ba82b28", "type": "bin", "name": "사가정로51길 (11)", "lat": 37.582344, "lng": 127.087912},