[
  {
    "id": "3dfd51224d9a2301",
    "type": "bin",
    "lat": 37.499951,
    "lng": 126.882869,
    "name": "도로변(구로중앙로 135-6)"
  },
  {
    "id": "80039a48873b726b",
    "type": "bin",
    "lat": 37.49132,
    "lng": 126.883399,
    "name": "도로변(구로동로 141)"
  },
  {
    "id": "55385f9fb65fb9c5",
    "type": "bin",
    "lat": 37.495511,
    "lng": 126.888289,
    "name": "구로구청"
  },
  {
    "id": "80f47e660107ae2f",
    "type": "bin",
    "lat": 37.494532,
    "lng": 126.887015,
    "name": "도로변(가마산로 235)"
  },
  {
    "id": "ab79f6b007538929",
    "type": "bin",
    "lat": 37.494814,
    "lng": 126.888677,
    "name": "도로변(가마산로 250)"
  },
  {
    "id": "08d4ec7ca13b8a6f",
    "type": "bin",
    "lat": 37.490641,
    "lng": 126.88371,
    "name": "도로변(구로동로 135)"
  },
  {
    "id": "7c8fa53d5f8f8a6e",
    "type": "bin",
    "lat": 37.492955,
    "lng": 126.884044,
    "name": "도로변(가마산로 206)"
  },
  {
    "id": "bbd1703465004bc9",
    "type": "bin",
    "lat": 37.492736,
    "lng": 126.883204,
    "name": "도로변(구로동로 159)"
  },
  {
    "id": "d2e4c11226d5d0dd",
    "type": "bin",
    "lat": 37.50364,
    "lng": 126.879714,
    "name": "도로변(경인로 565)"
  },
  {
    "id": "67a02c7bb6c310e9",
    "type": "bin",
    "lat": 37.503109,
    "lng": 126.879009,
    "name": "도로변(경인로 557)"
  },
  {
    "id": "8f6b88a33e7ce0a9",
    "type": "bin",
    "lat": 37.500239,
    "lng": 126.87691,
    "name": "도로변(경인로 518)"
  },
  {
    "id": "e9ae11975f6ed0b1",
    "type": "bin",
    "lat": 37.494453,
    "lng": 126.882542,
    "name": "도로변(구로동로 179)"
  },
  {
    "id": "6c034a1c3fa7df26",
    "type": "bin",
    "lat": 37.496719,
    "lng": 126.88227,
    "name": "도로변(구로동 481-7)"
  },
  {
    "id": "191f16e2669cae8b",
    "type": "bin",
    "lat": 37.498129,
    "lng": 126.883412,
    "name": "버스정류소"
  },
  {
    "id": "341a9ea47b42f491",
    "type": "bin",
    "lat": 37.494049,
    "lng": 126.883365,
    "name": "도로변(구로동로 174)"
  },
  {
    "id": "9800cfd395e187fc",
    "type": "bin",
    "lat": 37.491682,
    "lng": 126.882275,
    "name": "도로변(가마산로 180-2)"
  },
  {
    "id": "a75913103164176b",
    "type": "bin",
    "lat": 37.493496,
    "lng": 126.885788,
    "name": "도로변(가마산로 222)"
  },
  {
    "id": "c7be8fa465a0f906",
    "type": "bin",
    "lat": 37.49154,
    "lng": 126.881638,
    "name": "도로변(가마산로9길 4-4)"
  },
  {
    "id": "3ec5dc5e9db01907",
    "type": "bin",
    "lat": 37.497332,
    "lng": 126.880135,
    "name": "도로변(벚꽃로 484)"
  },
  {
    "id": "d9a15a00388e4f65",
    "type": "bin",
    "lat": 37.489823,
    "lng": 126.884047,
    "name": "도로변(구로동로 125-1)"
  },
  {
    "id": "3fa3c3fdf41fc88a",
    "type": "bin",
    "lat": 37.488136,
    "lng": 126.88452,
    "name": "도로변(구로동로 107)"
  },
  {
    "id": "368484efb6708f55",
    "type": "bin",
    "lat": 37.493403,
    "lng": 126.883747,
    "name": "도로변(가마산로 203)"
  },
  {
    "id": "8efc576731285d76",
    "type": "bin",
    "lat": 37.499858,
    "lng": 126.874931,
    "name": "버스전용차로-17005"
  },
  {
    "id": "eca4c02403257a00",
    "type": "bin",
    "lat": 37.494362,
    "lng": 126.887671,
    "name": "라크라센타"
  },
  {
    "id": "4d8caccf8db0cf5d",
    "type": "bin",
    "lat": 37.660677,
    "lng": 127.061496,
    "name": "상계주공7단지(714동 앞) 버스정류장"
  },
  {
    "id": "b97dc5104b7afaf8",
    "type": "bin",
    "lat": 37.493216,
    "lng": 126.885141,
    "name": "구로고대병원 이음관"
  },
  {
    "id": "e047e3baf81615f5",
    "type": "bin",
    "lat": 37.493924,
    "lng": 126.882903,
    "name": "온누리십자당약국"
  },
  {
    "id": "b6617d8c033591fb",
    "type": "bin",
    "lat": 37.497848,
    "lng": 126.882701,
    "name": "광양교회"
  },
  {
    "id": "2d2b0b80f04e0e0c",
    "type": "bin",
    "lat": 37.492356,
    "lng": 126.883433,
    "name": "도로변(구로동로 153)"
  },
  {
    "id": "0e26cb093242360f",
    "type": "bin",
    "lat": 37.498134,
    "lng": 126.882207,
    "name": "도로변(구로동로 219)"
  },
  {
    "id": "55b53784701c6220",
    "type": "bin",
    "lat": 37.493461,
    "lng": 126.884108,
    "name": "도로변(가마산로 205)"
  },
  {
    "id": "b9f596b0c0c69b4e",
    "type": "bin",
    "lat": 37.493761,
    "lng": 126.883394,
    "name": "도로변(구로동로 170)"
  },
  {
    "id": "0e330f389ceec4de",
    "type": "bin",
    "lat": 37.497214,
    "lng": 126.882659,
    "name": "도로변(구로동로 210)"
  },
  {
    "id": "48d1f3c0a3ef2f4c",
    "type": "bin",
    "lat": 37.485161,
    "lng": 126.886737,
    "name": "도로변(도림로 6)"
  },
  {
    "id": "d88374e02afbda6a",
    "type": "bin",
    "lat": 37.483954,
    "lng": 126.894103,
    "name": "도로변(디지털로 273)"
  },
  {
    "id": "f11c5b0190a7db92",
    "type": "bin",
    "lat": 37.484694,
    "lng": 126.895892,
    "name": "도로변(디지털로 292)"
  },
  {
    "id": "d1dc7a1d0abe8ef3",
    "type": "bin",
    "lat": 37.490038,
    "lng": 126.895433,
    "name": "구로현대아파트"
  },
  {
    "id": "6b3b48022d446a60",
    "type": "bin",
    "lat": 37.481611,
    "lng": 126.893479,
    "name": "에이스하이엔드타워1차"
  },
  {
    "id": "114017da7ae8ff92",
    "type": "bin",
    "lat": 37.48847,
    "lng": 126.890773,
    "name": "도로변(디지털로31길 120)"
  },
  {
    "id": "4bf6535e4e4ea1e6",
    "type": "bin",
    "lat": 37.483987,
    "lng": 126.898339,
    "name": "도로변(디지털로32길 55)"
  },
  {
    "id": "aab6913477f0c8ca",
    "type": "bin",
    "lat": 37.483533,
    "lng": 126.899752,
    "name": "도로변(디지털로32길 79)"
  },
  {
    "id": "d87e48fc6ff47517",
    "type": "bin",
    "lat": 37.484545,
    "lng": 126.901199,
    "name": "도로변(디지털로32길 38)"
  },
  {
    "id": "8aa1b6d78c023b08",
    "type": "bin",
    "lat": 37.484901,
    "lng": 126.900382,
    "name": "도로변(디지털로32나길 51)"
  },
  {
    "id": "6819f61f7823996a",
    "type": "bin",
    "lat": 37.483392,
    "lng": 126.901424,
    "name": "도로변(시흥대로 563)"
  },
  {
    "id": "a354a5d431ed7bb3",
    "type": "bin",
    "lat": 37.484388,
    "lng": 126.892335,
    "name": "도로변(디지털로27가길 17)"
  },
  {
    "id": "2fa15d0ba00d700a",
    "type": "bin",
    "lat": 37.485911,
    "lng": 126.891542,
    "name": "도로변(디지털로31길 61)"
  },
  {
    "id": "b625987ceae3849d",
    "type": "bin",
    "lat": 37.485706,
    "lng": 126.895513,
    "name": "도로변(디지털로33길 11)"
  },
  {
    "id": "cf7097ea54213762",
    "type": "bin",
    "lat": 37.487347,
    "lng": 126.89033,
    "name": "도로변(디지털로31길 109)"
  },
  {
    "id": "3fb1269466f8c2ed",
    "type": "bin",
    "lat": 37.48892,
    "lng": 126.89015,
    "name": "보민한의원"
  },
  {
    "id": "1a7c7a37dca523de",
    "type": "bin",
    "lat": 37.485151,
    "lng": 126.886185,
    "name": "황금부동산 앞"
  },
  {
    "id": "3e256d5ed8d39c77",
    "type": "bin",
    "lat": 37.485229,
    "lng": 126.8863,
    "name": "도로변(도림로 5)"
  },
  {
    "id": "aa2db980ba967178",
    "type": "bin",
    "lat": 37.486284,
    "lng": 126.885635,
    "name": "도로변(구로동로 84)"
  },
  {
    "id": "6e251ca553537f46",
    "type": "bin",
    "lat": 37.487313,
    "lng": 126.88518,
    "name": "도로변(구로동로 96-1)"
  },
  {
    "id": "7cd0656a42dbfaa5",
    "type": "bin",
    "lat": 37.488253,
    "lng": 126.884851,
    "name": "도로변(구로동로 108)"
  },
  {
    "id": "7813dd562bd41652",
    "type": "bin",
    "lat": 37.489632,
    "lng": 126.884536,
    "name": "농협구로지점"
  },
  {
    "id": "d080e98fd0bd988a",
    "type": "bin",
    "lat": 37.489931,
    "lng": 126.88457,
    "name": "기업은행 남구로"
  },
  {
    "id": "a3e56d9a2bddc7c7",
    "type": "bin",
    "lat": 37.500103,
    "lng": 126.889338,
    "name": "도로변(구로중앙로28길 66)"
  },
  {
    "id": "dbed2601dbaa9f2b",
    "type": "bin",
    "lat": 37.50547,
    "lng": 126.890498,
    "name": "아름제일병원"
  },
  {
    "id": "83afd6b7b38e475e",
    "type": "bin",
    "lat": 37.49586,
    "lng": 126.888807,
    "name": "버스정류소(17293)"
  },
  {
    "id": "6e7e61559536ef28",
    "type": "bin",
    "lat": 37.50116,
    "lng": 126.882773,
    "name": "NC백화점 신구로점"
  },
  {
    "id": "2dc9fe8c76924c33",
    "type": "bin",
    "lat": 37.496905,
    "lng": 126.891385,
    "name": "성호메이플아파트"
  },
  {
    "id": "adedb3f01f84b44d",
    "type": "bin",
    "lat": 37.505143,
    "lng": 126.888908,
    "name": "남원가마솥추어탕"
  },
  {
    "id": "c88d9c8c4d85d89d",
    "type": "bin",
    "lat": 37.49884,
    "lng": 126.890309,
    "name": "구로고등학교"
  },
  {
    "id": "33da2fcee3a07a7d",
    "type": "bin",
    "lat": 37.499397,
    "lng": 126.891009,
    "name": "대성스카이렉스아파트"
  },
  {
    "id": "d7d85e189ca2350d",
    "type": "bin",
    "lat": 37.50132,
    "lng": 126.8894,
    "name": "상신운수"
  },
  {
    "id": "34378fbc9900b414",
    "type": "bin",
    "lat": 37.501358,
    "lng": 126.892013,
    "name": "삼각어린이공원"
  },
  {
    "id": "011385b98de8669d",
    "type": "bin",
    "lat": 37.502592,
    "lng": 126.890181,
    "name": "한국SGI"
  },
  {
    "id": "0dc4ce7dc8557bad",
    "type": "bin",
    "lat": 37.507864,
    "lng": 126.892218,
    "name": "신도림역2번(택시)"
  },
  {
    "id": "95efc27112bccd43",
    "type": "bin",
    "lat": 37.507442,
    "lng": 126.892269,
    "name": "신도림역"
  },
  {
    "id": "f693c99ee98128b3",
    "type": "bin",
    "lat": 37.620956,
    "lng": 127.084896,
    "name": "화랑대역 2번출구 버스정류장"
  },
  {
    "id": "5587e338b3708487",
    "type": "bin",
    "lat": 37.503306,
    "lng": 126.881084,
    "name": "도로변(경인로 572)"
  },
  {
    "id": "40146811f3b82ec4",
    "type": "bin",
    "lat": 37.50047,
    "lng": 126.888932,
    "name": "버스정류장"
  },
  {
    "id": "e5656e3ddb77bc74",
    "type": "bin",
    "lat": 37.500164,
    "lng": 126.889338,
    "name": "구로보건소"
  },
  {
    "id": "3f846556f75a53f5",
    "type": "bin",
    "lat": 37.498506,
    "lng": 126.886377,
    "name": "장성빌딩"
  },
  {
    "id": "daf7d899654a76d0",
    "type": "bin",
    "lat": 37.507264,
    "lng": 126.89282,
    "name": "도로변(구로동 3-64)"
  },
  {
    "id": "48dd4d1d4c906ae9",
    "type": "bin",
    "lat": 37.493891,
    "lng": 126.831477,
    "name": "수궁동주민센터"
  },
  {
    "id": "b5c7eae0bf2035fc",
    "type": "bin",
    "lat": 37.498098,
    "lng": 126.828955,
    "name": "보현정사 앞"
  },
  {
    "id": "c3b5e8cef498e0e5",
    "type": "bin",
    "lat": 37.496882,
    "lng": 126.829207,
    "name": "DC마트 앞"
  },
  {
    "id": "5bdd93b7ddd3bf31",
    "type": "bin",
    "lat": 37.496278,
    "lng": 126.829996,
    "name": "현대카공업사 앞"
  },
  {
    "id": "c801e7de66f5625e",
    "type": "bin",
    "lat": 37.493509,
    "lng": 126.835896,
    "name": "연세중앙교회 정문"
  },
  {
    "id": "52f83a71147adaa1",
    "type": "bin",
    "lat": 37.493516,
    "lng": 126.834427,
    "name": "도로변(부일로15길 4)"
  },
  {
    "id": "a2101550c1787a4f",
    "type": "bin",
    "lat": 37.4934,
    "lng": 126.833692,
    "name": "24시 뼈다귀감자탕 건너편"
  },
  {
    "id": "8f187c41178b2095",
    "type": "bin",
    "lat": 37.494902,
    "lng": 126.826354,
    "name": "우신중고교입구삼거리"
  },
  {
    "id": "fb5c8a0fedb10565",
    "type": "bin",
    "lat": 37.492545,
    "lng": 126.823543,
    "name": "온수역 6번출구"
  },
  {
    "id": "c5ca3ab8014e5990",
    "type": "bin",
    "lat": 37.492943,
    "lng": 126.823634,
    "name": "기업은행 앞 횡단보도"
  },
  {
    "id": "7bd2081bc893b197",
    "type": "bin",
    "lat": 37.492654,
    "lng": 126.822945,
    "name": "엘림공인중개사, 월드빌라 맞은편"
  },
  {
    "id": "fddc39b62fd44c6a",
    "type": "bin",
    "lat": 37.496902,
    "lng": 126.822186,
    "name": "온수힐스테이트 버스 회차장"
  },
  {
    "id": "041d0fa7664e0866",
    "type": "bin",
    "lat": 37.491737,
    "lng": 126.823542,
    "name": "온수역 남부광장 돌돌치킨 앞"
  },
  {
    "id": "c08f1e7d19228b9c",
    "type": "bin",
    "lat": 37.505123,
    "lng": 126.882191,
    "name": "대림12차아파트"
  },
  {
    "id": "e3546e8d5fe65acb",
    "type": "bin",
    "lat": 37.505595,
    "lng": 126.877275,
    "name": "파리바게트 앞"
  },
  {
    "id": "3aa2b3b02d512c4a",
    "type": "bin",
    "lat": 37.624449,
    "lng": 127.086216,
    "name": "예수사랑교회 앞 버스정류장"
  },
  {
    "id": "aced3df49cd68457",
    "type": "bin",
    "lat": 37.509389,
    "lng": 126.8847,
    "name": "신도림중학교"
  },
  {
    "id": "65ac5ae810627930",
    "type": "bin",
    "lat": 37.509924,
    "lng": 126.882026,
    "name": "버스정류장"
  },
  {
    "id": "4585ded01f336f96",
    "type": "bin",
    "lat": 37.511981,
    "lng": 126.888175,
    "name": "신도림아이파크아파트"
  },
  {
    "id": "f2b54e6236011872",
    "type": "bin",
    "lat": 37.50778,
    "lng": 126.880595,
    "name": "도로변(신도림로 40)"
  },
  {
    "id": "f90c07d427a33c17",
    "type": "bin",
    "lat": 37.511203,
    "lng": 126.88447,
    "name": "성관빌딩 파리바게트 앞"
  },
  {
    "id": "421b219ddf14ac12",
    "type": "bin",
    "lat": 37.507275,
    "lng": 126.878181,
    "name": "대림3차아파트"
  },
  {
    "id": "b7cf5885ce88f49d",
    "type": "bin",
    "lat": 37.506238,
    "lng": 126.885392,
    "name": "디큐브시티아파트"
  },
  {
    "id": "40c1b197475ff974",
    "type": "bin",
    "lat": 37.508627,
    "lng": 126.887638,
    "name": "버스전용차로"
  },
  {
    "id": "8cad4783af1445f9",
    "type": "bin",
    "lat": 37.505643,
    "lng": 126.883498,
    "name": "버스전용차로"
  },
  {
    "id": "c81834eced393566",
    "type": "bin",
    "lat": 37.509049,
    "lng": 126.886987,
    "name": "푸르지오상가앞"
  },
  {
    "id": "e375f48ceb431234",
    "type": "bin",
    "lat": 37.481853,
    "lng": 126.887875,
    "name": "연길순희냉면"
  },
  {
    "id": "d06db331e1227dcf",
    "type": "bin",
    "lat": 37.480903,
    "lng": 126.888878,
    "name": "뽑기대륙"
  },
  {
    "id": "93bf37d80588cb46",
    "type": "bin",
    "lat": 37.481247,
    "lng": 126.888586,
    "name": "연변냉면"
  },
  {
    "id": "b0e47e50ab9f2527",
    "type": "bin",
    "lat": 37.482843,
    "lng": 126.887327,
    "name": "문화의거리"
  },
  {
    "id": "7f25be60af6ca0ee",
    "type": "bin",
    "lat": 37.497071,
    "lng": 126.845091,
    "name": "도로변(오류1동 주민센터 앞)"
  },
  {
    "id": "cad4e1bfa25abe7e",
    "type": "bin",
    "lat": 37.496722,
    "lng": 126.844944,
    "name": "도로변(하이축산 앞)"
  },
  {
    "id": "87f15b520474d810",
    "type": "bin",
    "lat": 37.498568,
    "lng": 126.840471,
    "name": "한신플러스타운 아파트"
  },
  {
    "id": "4fd8284a85591a13",
    "type": "bin",
    "lat": 37.495422,
    "lng": 126.840901,
    "name": "버스정류장"
  },
  {
    "id": "abeded69d29af319",
    "type": "bin",
    "lat": 37.494392,
    "lng": 126.839457,
    "name": "버스정류소(오류지구대정류장)"
  },
  {
    "id": "5586413cc7f7eb46",
    "type": "bin",
    "lat": 37.494464,
    "lng": 126.840722,
    "name": "버스정류소(씨티월드정류장)"
  },
  {
    "id": "cc1ad1248e247311",
    "type": "bin",
    "lat": 37.495382,
    "lng": 126.842931,
    "name": "도로변(블루클럽 앞)"
  },
  {
    "id": "0088f17e4d24cbe6",
    "type": "bin",
    "lat": 37.485325,
    "lng": 126.837723,
    "name": "천왕이펜하우스"
  },
  {
    "id": "549c15826c37f008",
    "type": "bin",
    "lat": 37.483711,
    "lng": 126.841287,
    "name": "버스정류장"
  },
  {
    "id": "7c142bcf427d1867",
    "type": "bin",
    "lat": 37.483607,
    "lng": 126.841003,
    "name": "버스정류장"
  },
  {
    "id": "3a94d0c49076889c",
    "type": "bin",
    "lat": 37.490488,
    "lng": 126.840874,
    "name": "버스정류장"
  },
  {
    "id": "144035f28425c1c5",
    "type": "bin",
    "lat": 37.492462,
    "lng": 126.840975,
    "name": "오류소공원 내"
  },
  {
    "id": "e3a7e7d2daf690d7",
    "type": "bin",
    "lat": 37.493444,
    "lng": 126.842968,
    "name": "오류동역2번출구 자전거보관소 옆"
  },
  {
    "id": "99a84b8a24f38199",
    "type": "bin",
    "lat": 37.488221,
    "lng": 126.839713,
    "name": "버스정류장"
  },
  {
    "id": "e0b3f6e0b53818fb",
    "type": "bin",
    "lat": 37.480208,
    "lng": 126.822536,
    "name": "도로변(항동 115-2)"
  },
  {
    "id": "a2560aea5c146523",
    "type": "bin",
    "lat": 37.479827,
    "lng": 126.822111,
    "name": "버스정류장"
  },
  {
    "id": "3ce618a00eb69b45",
    "type": "bin",
    "lat": 37.481774,
    "lng": 126.824619,
    "name": "도로변(항동 82-7)"
  },
  {
    "id": "6e648e4dc23f9884",
    "type": "bin",
    "lat": 37.481355,
    "lng": 126.824877,
    "name": "버스정류장"
  },
  {
    "id": "80698d4f4a7b84b1",
    "type": "bin",
    "lat": 37.476991,
    "lng": 126.8195,
    "name": "도로변(항동 204-2)"
  },
  {
    "id": "da04d9de31c2feac",
    "type": "bin",
    "lat": 37.478369,
    "lng": 126.823641,
    "name": "도로변(항동 169-1)"
  },
  {
    "id": "015d4a1e1d29ff5d",
    "type": "bin",
    "lat": 37.481305,
    "lng": 126.821679,
    "name": "도로변(항동 100-14)"
  },
  {
    "id": "c4bce439ccedd720",
    "type": "bin",
    "lat": 37.481968,
    "lng": 126.823669,
    "name": "하버라인2단지"
  },
  {
    "id": "21a23b28385dae16",
    "type": "bin",
    "lat": 37.50117,
    "lng": 126.865405,
    "name": "마이홈고시원"
  },
  {
    "id": "8a7f3b8487ba4263",
    "type": "bin",
    "lat": 37.501374,
    "lng": 126.86557,
    "name": "양떼목장"
  },
  {
    "id": "98ebe431fc773beb",
    "type": "bin",
    "lat": 37.501125,
    "lng": 126.883602,
    "name": "경인로"
  },
  {
    "id": "334bddf79760c031",
    "type": "bin",
    "lat": 37.501164,
    "lng": 126.88349,
    "name": "새말로김치찌개삼겹살"
  },
  {
    "id": "e8ac3b15262e8aaa",
    "type": "bin",
    "lat": 37.49756,
    "lng": 126.847879,
    "name": "2차동부아파트"
  },
  {
    "id": "be1edf05c3bcf5d6",
    "type": "bin",
    "lat": 37.494464,
    "lng": 126.840732,
    "name": "황비홍"
  },
  {
    "id": "94c26509618cac72",
    "type": "bin",
    "lat": 37.493948,
    "lng": 126.840547,
    "name": "해츠빌"
  },
  {
    "id": "d935c93c4b38097d",
    "type": "bin",
    "lat": 37.496181,
    "lng": 126.846457,
    "name": "레지던스"
  },
  {
    "id": "f1edc2e2d63dd3e4",
    "type": "bin",
    "lat": 37.494266,
    "lng": 126.839146,
    "name": "오류중앙재활의학과의원"
  },
  {
    "id": "3a601ed0cb9a8517",
    "type": "bin",
    "lat": 37.4864,
    "lng": 126.839547,
    "name": "천왕역"
  },
  {
    "id": "fd012490783e9486",
    "type": "bin",
    "lat": 37.486822,
    "lng": 126.838774,
    "name": "천왕역"
  },
  {
    "id": "b4ba9e981f03edef",
    "type": "bin",
    "lat": 37.509847,
    "lng": 126.889001,
    "name": "공원"
  },
  {
    "id": "443f619a5a2d3e33",
    "type": "bin",
    "lat": 37.484713,
    "lng": 126.900872,
    "name": "구로디지털단지역"
  },
  {
    "id": "95b24e621e31fd1c",
    "type": "bin",
    "lat": 37.493808,
    "lng": 126.859765,
    "name": "도로변(개봉동 199-4)"
  },
  {
    "id": "02db1f82ebab101b",
    "type": "bin",
    "lat": 37.492558,
    "lng": 126.841342,
    "name": "오류동역"
  },
  {
    "id": "4ae5d078c60d6f32",
    "type": "bin",
    "lat": 37.617522,
    "lng": 127.074331,
    "name": "태릉입구역 1번출구 버스정류장"
  },
  {
    "id": "514d9d3caff89b22",
    "type": "bin",
    "lat": 37.625901,
    "lng": 127.074258,
    "name": "공릉역(공연초등학교방면)버스정류장"
  },
  {
    "id": "90353eec7467e9c6",
    "type": "bin",
    "lat": 37.619196,
    "lng": 127.075488,
    "name": "태릉입구역 4번출구 버스정류장"
  },
  {
    "id": "9f676d45cf626b8a",
    "type": "bin",
    "lat": 37.618614,
    "lng": 127.074631,
    "name": "태릉입구역 3번출구 버스정류장"
  },
  {
    "id": "f48cb9b566c739bf",
    "type": "bin",
    "lat": 37.623103,
    "lng": 127.073503,
    "name": "동일로 1041(은성빌딩) 앞 버스정류장"
  },
  {
    "id": "c930337ee6c8a144",
    "type": "bin",
    "lat": 37.626377,
    "lng": 127.07227,
    "name": "공릉역 4번출구 버스정류장"
  },
  {
    "id": "6c3460bf3dda86b7",
    "type": "bin",
    "lat": 37.651736,
    "lng": 127.061456,
    "name": "상계주공3단지(301동) 앞 버스정류장"
  },
  {
    "id": "e551130b47bd9da1",
    "type": "bin",
    "lat": 37.654519,
    "lng": 127.056297,
    "name": "노원구청 앞 버스정류장"
  },
  {
    "id": "ebe5801b6bea2e38",
    "type": "bin",
    "lat": 37.647009,
    "lng": 127.063343,
    "name": "대한적십자사 앞 버스정류장"
  },
  {
    "id": "c5efdae914075e79",
    "type": "bin",
    "lat": 37.682462,
    "lng": 127.056771,
    "name": "수락중고등학교 버스정류장"
  },
  {
    "id": "ca12deab0d52c929",
    "type": "bin",
    "lat": 37.683145,
    "lng": 127.054808,
    "name": "수락중고등학교 버스정류장"
  },
  {
    "id": "65b332972fb96500",
    "type": "bin",
    "lat": 37.650226,
    "lng": 127.056865,
    "name": "상계주공2단지 상가 버스정류장"
  },
  {
    "id": "cea4b016bef79709",
    "type": "bin",
    "lat": 37.650421,
    "lng": 127.059069,
    "name": "상계주공2단지 버스정류장"
  },
  {
    "id": "f30f6ffa17913717",
    "type": "bin",
    "lat": 37.664617,
    "lng": 127.059817,
    "name": "상계주공9단지 버스정류장"
  },
  {
    "id": "7b421da257258849",
    "type": "bin",
    "lat": 37.663853,
    "lng": 127.061985,
    "name": "청원고등학교 버스정류장"
  },
  {
    "id": "711f953d032f29db",
    "type": "bin",
    "lat": 37.65445,
    "lng": 127.063692,
    "name": "KT플라자 노원점 버스정류장"
  },
  {
    "id": "b81401e78c98cf81",
    "type": "bin",
    "lat": 37.654704,
    "lng": 127.066191,
    "name": "순복음교회 버스정류장"
  },
  {
    "id": "4f2a374fbf9b0c2d",
    "type": "bin",
    "lat": 37.654528,
    "lng": 127.068353,
    "name": "상계중앙하이츠2단지 버스정류장"
  },
  {
    "id": "340f2c7823eaded6",
    "type": "bin",
    "lat": 37.650521,
    "lng": 127.06735,
    "name": "상계중학교정문 버스정류장"
  },
  {
    "id": "0fdb9bb447a31d70",
    "type": "bin",
    "lat": 37.638286,
    "lng": 127.062712,
    "name": "건영옴니백화점 버스정류장"
  },
  {
    "id": "c8ddd7ec0ec3a3d3",
    "type": "bin",
    "lat": 37.639858,
    "lng": 127.068668,
    "name": "노원평생학습관 버스정류장"
  },
  {
    "id": "558759db168a3682",
    "type": "bin",
    "lat": 37.63816,
    "lng": 127.068031,
    "name": "하계한신청구아파트 버스정류장"
  },
  {
    "id": "ab99f4fbc66d30c3",
    "type": "bin",
    "lat": 37.665074,
    "lng": 127.077582,
    "name": "노원롯데캐슬시그니처아파트 버스정류장"
  },
  {
    "id": "8a5655fae4d4be91",
    "type": "bin",
    "lat": 37.673503,
    "lng": 127.084388,
    "name": "상계3,4동주민센터 버스정류장"
  },
  {
    "id": "2fa54f1d8a529463",
    "type": "bin",
    "lat": 37.651013,
    "lng": 127.075048,
    "name": "원광초등학교 버스정류장"
  },
  {
    "id": "403a37a12868028c",
    "type": "bin",
    "lat": 37.654311,
    "lng": 127.074914,
    "name": "청암중고등학교 버스정류장"
  },
  {
    "id": "aff61612445087dc",
    "type": "bin",
    "lat": 37.648723,
    "lng": 127.066968,
    "name": "상명초등학교 버스정류장"
  },
  {
    "id": "f68f0f459f5efbf9",
    "type": "bin",
    "lat": 37.646177,
    "lng": 127.06966,
    "name": "중계3단지목련아파트 버스정류장"
  },
  {
    "id": "6042fec63536e59b",
    "type": "bin",
    "lat": 37.639731,
    "lng": 127.070034,
    "name": "홈플러스중계점 버스정류장"
  },
  {
    "id": "8ebdfb8ee8554273",
    "type": "bin",
    "lat": 37.645034,
    "lng": 127.066139,
    "name": "청계초등학교 버스정류장"
  },
  {
    "id": "d0dc9d51c70a2a60",
    "type": "bin",
    "lat": 37.650054,
    "lng": 127.080731,
    "name": "노원문화예술회관.불암초등학교 버스정류장"
  },
  {
    "id": "2f09cfc63ee31061",
    "type": "bin",
    "lat": 37.646791,
    "lng": 127.070941,
    "name": "중계구민체육센터 버스정류장"
  },
  {
    "id": "c0583b11c65cb58f",
    "type": "bin",
    "lat": 37.648158,
    "lng": 127.0707,
    "name": "중계구민체육센터 버스정류장"
  },
  {
    "id": "14c45be88397fb9b",
    "type": "bin",
    "lat": 37.646819,
    "lng": 127.08187,
    "name": "중계본동주민센터 버스정류장"
  },
  {
    "id": "c988f54247a7f416",
    "type": "bin",
    "lat": 37.646335,
    "lng": 127.08179,
    "name": "노원우체국 버스정류장"
  },
  {
    "id": "a57700b756f07197",
    "type": "bin",
    "lat": 37.64066,
    "lng": 127.066866,
    "name": "서울시립북서울미술관후문 버스정류장"
  },
  {
    "id": "85da9dae5b84c178",
    "type": "bin",
    "lat": 37.641006,
    "lng": 127.069082,
    "name": "용동초등학교 버스정류장"
  },
  {
    "id": "b50045f38c40ab25",
    "type": "bin",
    "lat": 37.644512,
    "lng": 127.072926,
    "name": "동천학교 버스정류장"
  },
  {
    "id": "4e74ab05d41165b2",
    "type": "bin",
    "lat": 37.643445,
    "lng": 127.073337,
    "name": "동천학교 버스정류장"
  },
  {
    "id": "b95bbbce10c0290c",
    "type": "bin",
    "lat": 37.641338,
    "lng": 127.075647,
    "name": "한신동성아파트.시립과학관"
  },
  {
    "id": "870be06946c48f86",
    "type": "bin",
    "lat": 37.637699,
    "lng": 127.076963,
    "name": "대진고등학교.하계우방아파트 버스정류장"
  },
  {
    "id": "65fbfe0c25c13883",
    "type": "bin",
    "lat": 37.637474,
    "lng": 127.071637,
    "name": "한성여객종점 버스정류장"
  },
  {
    "id": "ffbaf8d6c6cfa2df",
    "type": "bin",
    "lat": 37.637535,
    "lng": 127.072775,
    "name": "대진고등학교 버스정류장"
  },
  {
    "id": "0495e25a2638a6e7",
    "type": "bin",
    "lat": 37.633285,
    "lng": 127.065521,
    "name": "하계시영아파트 버스정류장"
  },
  {
    "id": "72f270127ad89ddb",
    "type": "bin",
    "lat": 37.629313,
    "lng": 127.056222,
    "name": "인덕대학교 버스정류장"
  },
  {
    "id": "e2a017b9ddb3aaf2",
    "type": "bin",
    "lat": 37.619827,
    "lng": 127.05759,
    "name": "광운대학교 버스정류장"
  },
  {
    "id": "1ae500bac16b1707",
    "type": "bin",
    "lat": 37.626786,
    "lng": 127.065271,
    "name": "월계삼호4차아파트 버스정류장"
  },
  {
    "id": "57667a1fd7cc18f0",
    "type": "bin",
    "lat": 37.623834,
    "lng": 127.064778,
    "name": "월계삼호아파트 버스정류장"
  },
  {
    "id": "10eb11ab45c9fc6c",
    "type": "bin",
    "lat": 37.639372,
    "lng": 127.074526,
    "name": "서울온천 버스정류장"
  },
  {
    "id": "c7a74a000248d7a6",
    "type": "bin",
    "lat": 37.62365,
    "lng": 127.085958,
    "name": "청솔아파트 버스정류장"
  },
  {
    "id": "9f1e099d8bf19e85",
    "type": "bin",
    "lat": 37.633079,
    "lng": 127.076795,
    "name": "서울과학기술대앞 버스정류장"
  },
  {
    "id": "47e89040a8f9fe86",
    "type": "bin",
    "lat": 37.621623,
    "lng": 127.079337,
    "name": "두산힐스빌아파트 버스정류장"
  },
  {
    "id": "ba3bd28993ec913d",
    "type": "bin",
    "lat": 37.627663,
    "lng": 127.069606,
    "name": "노원문화원 버스정류장"
  },
  {
    "id": "d208008fcf15c158",
    "type": "bin",
    "lat": 37.628799,
    "lng": 127.069801,
    "name": "노원문화원 버스정류장"
  },
  {
    "id": "9e05c66b71c6773d",
    "type": "bin",
    "lat": 37.626723,
    "lng": 127.070724,
    "name": "공릉대동2차아파트 버스정류장"
  },
  {
    "id": "f3720950714bd644",
    "type": "bin",
    "lat": 37.623282,
    "lng": 127.071389,
    "name": "공릉대아2차아파트 버스정류장"
  },
  {
    "id": "b8c4be6cf2dcd926",
    "type": "bin",
    "lat": 37.61843,
    "lng": 127.072347,
    "name": "공릉초등학교 버스정류장"
  },
  {
    "id": "efc25bf63f55eae0",
    "type": "bin",
    "lat": 37.623078,
    "lng": 127.089366,
    "name": "화랑대사거리 버스정류장"
  },
  {
    "id": "7134a6b0e4e2276b",
    "type": "bin",
    "lat": 37.621288,
    "lng": 127.087753,
    "name": "화랑대사거리 버스정류장"
  },
  {
    "id": "6c62333ab02fe393",
    "type": "bin",
    "lat": 37.628783,
    "lng": 127.088992,
    "name": "서울여대.육군사관학교행정안내소 버스정류장"
  },
  {
    "id": "f9d087d4c36e78ff",
    "type": "bin",
    "lat": 37.629613,
    "lng": 127.095087,
    "name": "태릉국제사격장 버스정류장"
  },
  {
    "id": "b1d37f81cf23b993",
    "type": "bin",
    "lat": 37.62973,
    "lng": 127.097959,
    "name": "태릉국제사격장 버스정류장"
  },
  {
    "id": "8400119de0aaa169",
    "type": "bin",
    "lat": 37.636008,
    "lng": 127.106828,
    "name": "한국스포츠정책과학원 버스정류장"
  },
  {
    "id": "d93a1c1d3a27da21",
    "type": "bin",
    "lat": 37.643357,
    "lng": 127.10885,
    "name": "삼육대앞 버스정류장"
  },
  {
    "id": "80b6a96ac9e7e0e4",
    "type": "bin",
    "lat": 37.633998,
    "lng": 127.067278,
    "name": "장미아파트 버스정류장(602동 앞)"
  },
  {
    "id": "b38fe525a81b3bdc",
    "type": "bin",
    "lat": 37.64741,
    "lng": 127.06364,
    "name": "당현천 근린공원(동일로 1328-1) 버스정류장"
  },
  {
    "id": "d9a7046ccbeeeed3",
    "type": "bin",
    "lat": 37.649701,
    "lng": 127.061359,
    "name": "상계주공 2단지(201동 앞) 버스정류장"
  },
  {
    "id": "6ac7a158a984b786",
    "type": "bin",
    "lat": 37.650743,
    "lng": 127.061926,
    "name": "상계주공4단지(상계동 749-3 앞) 버스정류장"
  },
  {
    "id": "976e46ec5b627576",
    "type": "bin",
    "lat": 37.670191,
    "lng": 127.054689,
    "name": "상계주공15단지(1508동 앞) 버스정류장"
  },
  {
    "id": "53b10fb34edb2f67",
    "type": "bin",
    "lat": 37.661652,
    "lng": 127.056125,
    "name": "상계주공10단지(1001동 앞) 버스정류장"
  },
  {
    "id": "6ef13924649552ef",
    "type": "bin",
    "lat": 37.627297,
    "lng": 127.053318,
    "name": "월계주공 1단지(103동) 버스정류장"
  },
  {
    "id": "768407886245002f",
    "type": "bin",
    "lat": 37.63145,
    "lng": 127.061591,
    "name": "월계헬스케어센터(월계로 378) 앞 버스정류장"
  },
  {
    "id": "596bc7d73bb2cc46",
    "type": "bin",
    "lat": 37.645609,
    "lng": 127.062715,
    "name": "어린이교통공원(중계동 500) 버스정류장"
  },
  {
    "id": "e8e6f3074be831c3",
    "type": "bin",
    "lat": 37.639148,
    "lng": 127.066616,
    "name": "중계역 4번출구 버스정류장"
  },
  {
    "id": "eb91daae06c82af2",
    "type": "bin",
    "lat": 37.636615,
    "lng": 127.065668,
    "name": "하계역 6번출구 버스정류장"
  },
  {
    "id": "e2944f874079accb",
    "type": "bin",
    "lat": 37.634235,
    "lng": 127.069671,
    "name": "하계역 미성아파트(6동 앞) 버스정류장"
  },
  {
    "id": "afcc166b513208e3",
    "type": "bin",
    "lat": 37.634887,
    "lng": 127.06621,
    "name": "하계역 5번출구 버스정류장"
  },
  {
    "id": "6b9f02bf777018b7",
    "type": "bin",
    "lat": 37.636624,
    "lng": 127.068915,
    "name": "하계역 세이브존 앞 버스정류장"
  },
  {
    "id": "e64cd3f2ba96667f",
    "type": "bin",
    "lat": 37.628499,
    "lng": 127.071871,
    "name": "서울과학기술대입구(하계미성아파트방면)버스정류장"
  },
  {
    "id": "2228ad3e02a6ae1b",
    "type": "bin",
    "lat": 37.628254,
    "lng": 127.07101,
    "name": "동일로 1101(KB국민은행) 앞 버스정류장"
  },
  {
    "id": "68b3ee5fe73abf46",
    "type": "bin",
    "lat": 37.641006,
    "lng": 127.072148,
    "name": "동일로 1082(대우직업능력개발원) 앞 버스정류장"
  },
  {
    "id": "c3ac8e8c7db5c513",
    "type": "bin",
    "lat": 37.622791,
    "lng": 127.07424,
    "name": "공릉시장(공릉역1번출구방면)버스정류장"
  },
  {
    "id": "81dc5f07e45cf11a",
    "type": "bin",
    "lat": 37.618752,
    "lng": 127.077877,
    "name": "서울생활사박물관,농협앞 버스정류장"
  },
  {
    "id": "f70ec37d1349492a",
    "type": "bin",
    "lat": 37.657486,
    "lng": 127.058851,
    "name": "상계동 820(서울교통공사창동차량사업소) 앞 버스정류장"
  },
  {
    "id": "eaf6a14b134b5e1c",
    "type": "bin",
    "lat": 37.655959,
    "lng": 127.060329,
    "name": "도봉운전면허시험장 앞 버스정류장"
  },
  {
    "id": "e471a1841c084e7f",
    "type": "bin",
    "lat": 37.677458,
    "lng": 127.054894,
    "name": "수락산역 4번출구(동일로 1669 앞) 버스정류장"
  },
  {
    "id": "170009dfaea4f954",
    "type": "bin",
    "lat": 37.677138,
    "lng": 127.055597,
    "name": "수락산역 3번출구(동일로 1668 앞) 버스정류장"
  },
  {
    "id": "e82c1629781f20d5",
    "type": "bin",
    "lat": 37.670416,
    "lng": 127.080057,
    "name": "당고개역(상계로 312-1 앞) 버스정류장"
  },
  {
    "id": "ad660fb3b7277248",
    "type": "bin",
    "lat": 37.664216,
    "lng": 127.066437,
    "name": "은곡초교입구교차로"
  },
  {
    "id": "b3e61885b57abfbc",
    "type": "bin",
    "lat": 37.653587,
    "lng": 127.058798,
    "name": "노해로 456 앞 버스정류장"
  },
  {
    "id": "5c1b9a8f333c97b3",
    "type": "bin",
    "lat": 37.644383,
    "lng": 127.059922,
    "name": "노원에코센터(상계동 770-2) 앞 버스정류장"
  },
  {
    "id": "606df1b33435335d",
    "type": "bin",
    "lat": 37.61932,
    "lng": 127.058338,
    "name": "광운대학교(광운로 20 앞) 버스정류장"
  },
  {
    "id": "a1772dcee1625768",
    "type": "bin",
    "lat": 37.623034,
    "lng": 127.061763,
    "name": "광운대역 3번출구 앞 버스정류장"
  },
  {
    "id": "1c060819a3c22d9b",
    "type": "bin",
    "lat": 37.622063,
    "lng": 127.061342,
    "name": "월계한일1차아파트 앞 버스정류장"
  },
  {
    "id": "9e53c1237864551f",
    "type": "bin",
    "lat": 37.632665,
    "lng": 127.060826,
    "name": "월계로 55길 16(월계사슴2단지 205동 앞) 버스정류장"
  },
  {
    "id": "e0e608314df7087f",
    "type": "bin",
    "lat": 37.651718,
    "lng": 127.076788,
    "name": "중계1동주민센터(은행사거리방면)버스정류장"
  },
  {
    "id": "b431fe1e830729f5",
    "type": "bin",
    "lat": 37.649261,
    "lng": 127.076361,
    "name": "두타빌A,B동사이"
  },
  {
    "id": "27329eec5d621329",
    "type": "bin",
    "lat": 37.659808,
    "lng": 127.07324,
    "name": "상계역(상계동주유소방면)버스정류장"
  },
  {
    "id": "7c2a55c11b56b4cc",
    "type": "bin",
    "lat": 37.659112,
    "lng": 127.073075,
    "name": "상계역(중계주공3단지방면)버스정류장"
  },
  {
    "id": "7247ef8e7ca2ea66",
    "type": "bin",
    "lat": 37.650029,
    "lng": 127.077012,
    "name": "은행사거리(신한은행중계동지점방면)버스정류장"
  },
  {
    "id": "f37b4c82f1037694",
    "type": "bin",
    "lat": 37.651897,
    "lng": 127.077765,
    "name": "중계1동주민센터(중계주공4단지방면)버스정류장"
  },
  {
    "id": "7a3bc1e3fa12c64f",
    "type": "bin",
    "lat": 37.628817,
    "lng": 127.082693,
    "name": "원자력병원 버스정류장"
  },
  {
    "id": "3c3454df472c6494",
    "type": "bin",
    "lat": 37.626921,
    "lng": 127.08838,
    "name": "우방아파트 앞 버스정류장(502동 앞)"
  },
  {
    "id": "238a8b941ab6ed92",
    "type": "bin",
    "lat": 37.659131,
    "lng": 127.058281,
    "name": "용화여고 앞 택시정류장"
  },
  {
    "id": "0bb1316a76cc90d2",
    "type": "bin",
    "lat": 37.659972,
    "lng": 127.057376,
    "name": "임광아파트 2동 앞 버스정류장"
  },
  {
    "id": "bde0e81516675f4f",
    "type": "bin",
    "lat": 37.660936,
    "lng": 127.062589,
    "name": "상계10동 우체국 앞 버스정류장"
  },
  {
    "id": "8afb81657a3585a1",
    "type": "bin",
    "lat": 37.675847,
    "lng": 127.056272,
    "name": "수락홈마트 앞 버스정류장"
  },
  {
    "id": "f033661c96399433",
    "type": "bin",
    "lat": 37.629017,
    "lng": 127.057613,
    "name": "그랑디오피스텔 앞 버스정류장"
  },
  {
    "id": "8fb10b7a5c1df285",
    "type": "bin",
    "lat": 37.630344,
    "lng": 127.0545,
    "name": "청백아파트 103동 앞 버스정류장"
  },
  {
    "id": "f97e0c38a38bfa33",
    "type": "bin",
    "lat": 37.662198,
    "lng": 127.068678,
    "name": "계상초등학교 앞 버스정류장"
  },
  {
    "id": "9ddd9b99444df192",
    "type": "bin",
    "lat": 37.662981,
    "lng": 127.069367,
    "name": "상계5동주민센터 앞 버스정류장"
  },
  {
    "id": "b28a411abc5b034f",
    "type": "bin",
    "lat": 37.660904,
    "lng": 127.073575,
    "name": "상계벽산아파트 앞 버스정류장"
  },
  {
    "id": "4029a6b55159e65c",
    "type": "bin",
    "lat": 37.657483,
    "lng": 127.067864,
    "name": "상계2동주민센터 앞 버스정류장"
  },
  {
    "id": "2a5520519ed2af6c",
    "type": "bin",
    "lat": 37.623589,
    "lng": 127.068783,
    "name": "한내지혜의숲 앞 버스정류장"
  },
  {
    "id": "91f112ba68f87f7f",
    "type": "bin",
    "lat": 37.679282,
    "lng": 127.05555,
    "name": "오피앙오피스텔 앞 버스정류장"
  },
  {
    "id": "0349e5327e0d7d11",
    "type": "bin",
    "lat": 37.650262,
    "lng": 127.080768,
    "name": "중계동 364-4 정담공원 내부"
  },
  {
    "id": "8a3f5e0cd25792fc",
    "type": "bin",
    "lat": 37.627173,
    "lng": 127.079994,
    "name": "공릉한보아파트 앞 버스정류장"
  },
  {
    "id": "e692d7f889bdb7b7",
    "type": "bin",
    "lat": 37.619894,
    "lng": 127.083745,
    "name": "화랑대역 1번출구 버스정류장"
  },
  {
    "id": "50812a5351fb4bb9",
    "type": "bin",
    "lat": 37.673861,
    "lng": 127.055234,
    "name": "맥도날드 앞 버스정류장"
  },
  {
    "id": "474c5fde25678212",
    "type": "bin",
    "lat": 37.673754,
    "lng": 127.054967,
    "name": "노일초등학교 앞 버스정류장"
  },
  {
    "id": "3060737d32d8a631",
    "type": "bin",
    "lat": 37.654296,
    "lng": 127.057601,
    "name": "노원구청 건너편(상계동 704 건물 앞) 버스정류장"
  },
  {
    "id": "7715aa43b256602a",
    "type": "bin",
    "lat": 37.654054,
    "lng": 127.057997,
    "name": "노원구청(창동농협물류센털방면)버스정류장"
  },
  {
    "id": "2488fd8c2b9befb2",
    "type": "bin",
    "lat": 37.494568,
    "lng": 126.857308,
    "name": "삼호아파트"
  },
  {
    "id": "e04f24bf27b78d28",
    "type": "bin",
    "lat": 37.494134,
    "lng": 126.8565,
    "name": "임괄아파트"
  },
  {
    "id": "5c934c3bad1c83c7",
    "type": "bin",
    "lat": 37.486102,
    "lng": 126.856775,
    "name": "도로변(개봉로 4)"
  },
  {
    "id": "74bd9c69326197dd",
    "type": "bin",
    "lat": 37.48505,
    "lng": 126.854467,
    "name": "버스정류장"
  },
  {
    "id": "72cb256b44f0f675",
    "type": "bin",
    "lat": 37.486622,
    "lng": 126.856712,
    "name": "도로변(개봉로 10)"
  },
  {
    "id": "ebfb5f94acb3800c",
    "type": "bin",
    "lat": 37.487507,
    "lng": 126.856558,
    "name": "도로변(개봉로 22)"
  },
  {
    "id": "1586a3220af0e05d",
    "type": "bin",
    "lat": 37.488604,
    "lng": 126.856445,
    "name": "도로변(개봉로 34)"
  },
  {
    "id": "e59d19610847381b",
    "type": "bin",
    "lat": 37.501494,
    "lng": 126.858514,
    "name": "새마을금고 양지지점 앞 횡단보도 인근"
  },
  {
    "id": "01dbf64cb5cb60b0",
    "type": "bin",
    "lat": 37.501161,
    "lng": 126.863006,
    "name": "버스정류장"
  },
  {
    "id": "3c077e485e1d8b72",
    "type": "bin",
    "lat": 37.50349,
    "lng": 126.862614,
    "name": "맘스식자재 마트(중앙로변) 앞 횡단보도"
  },
  {
    "id": "3b2884b470ae02ab",
    "type": "bin",
    "lat": 37.503252,
    "lng": 126.861888,
    "name": "버스정류장"
  },
  {
    "id": "3a869cbdeb5f23a8",
    "type": "bin",
    "lat": 37.504448,
    "lng": 126.861768,
    "name": "서울고척동 우체국 인근"
  },
  {
    "id": "44cdab47c2bd691e",
    "type": "bin",
    "lat": 37.506178,
    "lng": 126.859404,
    "name": "하이리빙아파트"
  },
  {
    "id": "86d74d94960aa1e2",
    "type": "bin",
    "lat": 37.497642,
    "lng": 126.856935,
    "name": "두성인테리어 앞"
  },
  {
    "id": "15503497a99ab4f8",
    "type": "bin",
    "lat": 37.497958,
    "lng": 126.864348,
    "name": "도로변(경인로 403)"
  },
  {
    "id": "ad7040f6efd1961c",
    "type": "bin",
    "lat": 37.499692,
    "lng": 126.867056,
    "name": "구로솔약국"
  },
  {
    "id": "4022196c90b3f492",
    "type": "bin",
    "lat": 37.499996,
    "lng": 126.86817,
    "name": "동양미래대학교 정문 인근"
  },
  {
    "id": "329c4e1fa77169cb",
    "type": "bin",
    "lat": 37.504929,
    "lng": 126.854807,
    "name": "도로변(고척로 195)"
  },
  {
    "id": "a77ebee98f629f16",
    "type": "bin",
    "lat": 37.504196,
    "lng": 126.853141,
    "name": "도로변(고척로 177)"
  },
  {
    "id": "a9d742cde38903e9",
    "type": "bin",
    "lat": 37.504858,
    "lng": 126.855798,
    "name": "도로변(고척로 202)"
  },
  {
    "id": "3357d724e6357974",
    "type": "bin",
    "lat": 37.505016,
    "lng": 126.856109,
    "name": "도로변(고척로 206)"
  },
  {
    "id": "85200c033fb7d110",
    "type": "bin",
    "lat": 37.505491,
    "lng": 126.856546,
    "name": "도로변(고척로 209-1)"
  },
  {
    "id": "37ac5cc3f340c3ab",
    "type": "bin",
    "lat": 37.502647,
    "lng": 126.849837,
    "name": "버스정류소(17215)"
  },
  {
    "id": "3f48b874673cf75d",
    "type": "bin",
    "lat": 37.493267,
    "lng": 126.87787,
    "name": "현대연예인아파트"
  },
  {
    "id": "5f15de9a50557b03",
    "type": "bin",
    "lat": 37.49304,
    "lng": 126.875788,
    "name": "구로1동주민센터"
  },
  {
    "id": "79ef3a9e61bc1afa",
    "type": "bin",
    "lat": 37.489882,
    "lng": 126.875474,
    "name": "순환도로방음벽 옆 좌측"
  },
  {
    "id": "256dfad1828ff7f5",
    "type": "bin",
    "lat": 37.479118,
    "lng": 126.894832,
    "name": "삼부르네상스 정류소"
  },
  {
    "id": "1f32f45c79ca6d66",
    "type": "bin",
    "lat": 37.480161,
    "lng": 126.888695,
    "name": "디지털단지오거리 정류소"
  },
  {
    "id": "f1e1eef262e81ca6",
    "type": "bin",
    "lat": 37.482302,
    "lng": 126.886722,
    "name": "횡단보도 앞(가리봉동 121-44)"
  },
  {
    "id": "877ab44716086cc1",
    "type": "bin",
    "lat": 37.480095,
    "lng": 126.891107,
    "name": "크림슨빌딩 앞"
  },
  {
    "id": "79779e4d86e78e95",
    "type": "bin",
    "lat": 37.480763,
    "lng": 126.891283,
    "name": "도로변(디지털로 231)"
  },
  {
    "id": "75bece5dd19ec421",
    "type": "bin",
    "lat": 37.48485,
    "lng": 126.886577,
    "name": "횡단보도 앞(디지털로27길 135)"
  },
  {
    "id": "d65760bb0710689d",
    "type": "bin",
    "lat": 37.495065,
    "lng": 126.858047,
    "name": "개봉역 버스정류소"
  },
  {
    "id": "41d946375aee3803",
    "type": "bin",
    "lat": 37.500241,
    "lng": 126.851139,
    "name": "도로변(경인로33길 51)"
  },
  {
    "id": "9b224ca17ecb0ee3",
    "type": "bin",
    "lat": 37.501568,
    "lng": 126.847162,
    "name": "개봉1동사거리"
  },
  {
    "id": "13ade2b91fc1e595",
    "type": "bin",
    "lat": 37.4975,
    "lng": 126.855159,
    "name": "농협 앞"
  },
  {
    "id": "58b3f0f34bbef470",
    "type": "bin",
    "lat": 37.498497,
    "lng": 126.851827,
    "name": "진성요양센터"
  },
  {
    "id": "4c09cbaf96196b3e",
    "type": "bin",
    "lat": 37.501279,
    "lng": 126.845253,
    "name": "도로변(고척로 101)"
  },
  {
    "id": "9e25849094ec118b",
    "type": "bin",
    "lat": 37.501074,
    "lng": 126.843823,
    "name": "거성푸르뫼 아파트"
  },
  {
    "id": "3dd9b57c3f490493",
    "type": "bin",
    "lat": 37.501039,
    "lng": 126.845496,
    "name": "버스정류장"
  },
  {
    "id": "e7bbfd7b47c8f6b3",
    "type": "bin",
    "lat": 37.499057,
    "lng": 126.851719,
    "name": "도로변(경인로33길 25)"
  },
  {
    "id": "9c4beb0a61d91f34",
    "type": "bin",
    "lat": 37.497599,
    "lng": 126.855601,
    "name": "대림프라자"
  },
  {
    "id": "908b71d9ebcdf4db",
    "type": "bin",
    "lat": 37.491382,
    "lng": 126.855689,
    "name": "도로변(개봉로 63)"
  },
  {
    "id": "83c6387f13321c6f",
    "type": "bin",
    "lat": 37.492094,
    "lng": 126.855575,
    "name": "도로변(개봉로 71)"
  },
  {
    "id": "fc8e3aaa1c98ad3c",
    "type": "bin",
    "lat": 37.493602,
    "lng": 126.855559,
    "name": "도로변(개봉로19길 43)"
  },
  {
    "id": "7820fd0371892949",
    "type": "bin",
    "lat": 37.617681,
    "lng": 127.076266,
    "name": "태릉입구역 7번출구 버스정류장"
  },
  {
    "id": "e02cc45aefba5fc7",
    "type": "bin",
    "lat": 37.489882,
    "lng": 26.875474,
    "name": "순환도로방음벽 옆 우측"
  },
  {
    "id": "6939ba6188e7fe27",
    "type": "bin",
    "lat": 37.543028,
    "lng": 126.952787,
    "name": "공덕역7번출구 (이마트앞)"
  },
  {
    "id": "83ec40391592cb6c",
    "type": "bin",
    "lat": 37.544106,
    "lng": 126.95413,
    "name": "백범로 공덕오거리 버스정류장 14-149"
  },
  {
    "id": "3085d19173f51883",
    "type": "bin",
    "lat": 37.543501,
    "lng": 126.952887,
    "name": "공덕역 6번출구(뒤)"
  },
  {
    "id": "3be33920ab414f02",
    "type": "bin",
    "lat": 37.542978,
    "lng": 126.952738,
    "name": "공덕역 6번출구(앞)"
  },
  {
    "id": "e40ad26ccbd3cf51",
    "type": "bin",
    "lat": 37.543994,
    "lng": 126.952835,
    "name": "만리재로14 마포경찰서 교통센터앞"
  },
  {
    "id": "fcb8661ddb30bf70",
    "type": "bin",
    "lat": 37.544358,
    "lng": 126.951776,
    "name": "공덕역 5번출구(자전거보관소 옆)"
  },
  {
    "id": "816905ec7732fbf6",
    "type": "bin",
    "lat": 37.544319,
    "lng": 126.951873,
    "name": "공덕역 5번출구"
  },
  {
    "id": "fdb29563cbe52a4b",
    "type": "bin",
    "lat": 37.543672,
    "lng": 126.950812,
    "name": "마포대로 버스정류장 14-003(공덕역)"
  },
  {
    "id": "a2a8ae0e0f292e6c",
    "type": "bin",
    "lat": 37.546157,
    "lng": 126.952624,
    "name": "마포대로 버스정류장 14-004(공덕역)"
  },
  {
    "id": "2f8e9c3126e5080d",
    "type": "bin",
    "lat": 37.545399,
    "lng": 126.95256,
    "name": "마포대로120 공덕역4번출구(택시승강장)"
  },
  {
    "id": "0c86adb5b7f195e5",
    "type": "bin",
    "lat": 37.545488,
    "lng": 126.952345,
    "name": "마포대로120 공덕역4번출구(택시승강장)"
  },
  {
    "id": "8000a8be4aa1d7be",
    "type": "bin",
    "lat": 37.544808,
    "lng": 126.952028,
    "name": "마포대로114 공덕역4번출구(기업은행앞)"
  },
  {
    "id": "3c524592fef79520",
    "type": "bin",
    "lat": 37.552787,
    "lng": 126.956558,
    "name": "애오개역 4번출구"
  },
  {
    "id": "5f70a8f3fd94adae",
    "type": "bin",
    "lat": 37.550417,
    "lng": 126.955283,
    "name": "마포대로 버스정류장 14-007(마포경찰서)"
  },
  {
    "id": "d7a325ab2a414fa4",
    "type": "bin",
    "lat": 37.550812,
    "lng": 126.955262,
    "name": "마포대로 버스정류장 14-008(마포경찰서)"
  },
  {
    "id": "733b874cd3b8e7ba",
    "type": "bin",
    "lat": 37.554808,
    "lng": 126.957132,
    "name": "마포대로233-1 (아현초교담 횡단보도앞)"
  },
  {
    "id": "03192044c2d0c4a5",
    "type": "bin",
    "lat": 37.552723,
    "lng": 126.956048,
    "name": "마포대로207-1 (애오개역1번출구) 둘둘치킨앞"
  },
  {
    "id": "f7bee5271a8bac27",
    "type": "bin",
    "lat": 37.541357,
    "lng": 126.94801,
    "name": "마포대로61-1 (트라팰리스앞)"
  },
  {
    "id": "4ae27d999a9ae59f",
    "type": "bin",
    "lat": 37.539584,
    "lng": 126.94592,
    "name": "마포대로33 마포역1번출구"
  },
  {
    "id": "c4b17707efa6828a",
    "type": "bin",
    "lat": 37.541113,
    "lng": 126.948038,
    "name": "마포대로 정류소번호 14-001(가든호텔앞)"
  },
  {
    "id": "de0a9856121e8c06",
    "type": "bin",
    "lat": 37.538425,
    "lng": 126.944986,
    "name": "마포대로20 (마포역4번출구)"
  },
  {
    "id": "9e79f65164c7b683",
    "type": "bin",
    "lat": 37.539379,
    "lng": 126.944834,
    "name": "마포대로25 화로연각 앞(토정로방향)"
  },
  {
    "id": "9fe39bc8ef9f5b44",
    "type": "bin",
    "lat": 37.544489,
    "lng": 126.950127,
    "name": "공덕역 2번출구 롯데캐슬 택시정류장앞"
  },
  {
    "id": "11fdea90dbfd4f56",
    "type": "bin",
    "lat": 37.547953,
    "lng": 126.942308,
    "name": "대흥역 2번출구앞(삼성공인중개사 앞)"
  },
  {
    "id": "21a61d186843bdef",
    "type": "bin",
    "lat": 37.546985,
    "lng": 126.943556,
    "name": "백범로112 버스정류장(14-176)"
  },
  {
    "id": "d429210470458bbc",
    "type": "bin",
    "lat": 37.546555,
    "lng": 126.944436,
    "name": "백범로122 풍천민물장어앞"
  },
  {
    "id": "cb8857fbeca5f897",
    "type": "bin",
    "lat": 37.544748,
    "lng": 126.948258,
    "name": "백범로152 버스정류장(14-178)"
  },
  {
    "id": "b5507d1de2fcb688",
    "type": "bin",
    "lat": 37.544296,
    "lng": 126.949263,
    "name": "버스정류장 14-180"
  },
  {
    "id": "be89c7ebcae4097e",
    "type": "bin",
    "lat": 37.544059,
    "lng": 126.950263,
    "name": "공덕역1번출구 자전거보관대앞"
  },
  {
    "id": "f9b6063d4e5bbdb9",
    "type": "bin",
    "lat": 37.543882,
    "lng": 126.950076,
    "name": "공덕역1번출구 자전거보관대앞(신영지웰앞)"
  },
  {
    "id": "f136754c2ef94c2e",
    "type": "bin",
    "lat": 37.548216,
    "lng": 126.941804,
    "name": "백범로91 건널목앞(대흥역1번출구)"
  },
  {
    "id": "d55d0ca284bb6483",
    "type": "bin",
    "lat": 37.554956,
    "lng": 126.936861,
    "name": "신촌역 6번출구 공원안쪽"
  },
  {
    "id": "d0c8952df13c7df1",
    "type": "bin",
    "lat": 37.547947,
    "lng": 126.941109,
    "name": "백범로88 경총회관앞 (대흥역4번출구)"
  },
  {
    "id": "bf73326708de5e6a",
    "type": "bin",
    "lat": 37.546044,
    "lng": 126.940256,
    "name": "마포세무서 사거리(공사현장)앞"
  },
  {
    "id": "c1853d593c90178d",
    "type": "bin",
    "lat": 37.54754,
    "lng": 126.938457,
    "name": "독막로221 정자나무 공원안"
  },
  {
    "id": "ef03d3f4506f5961",
    "type": "bin",
    "lat": 37.547159,
    "lng": 126.935104,
    "name": "독막로192 신수동 주민센터앞"
  },
  {
    "id": "107020ad7d4839a0",
    "type": "bin",
    "lat": 37.546597,
    "lng": 126.940291,
    "name": "독막로242 노기홍사무소앞"
  },
  {
    "id": "44ff645fac86a0c3",
    "type": "bin",
    "lat": 37.546389,
    "lng": 126.940856,
    "name": "독막로246(백억공인중개사 앞)"
  },
  {
    "id": "da28e56e0fa08cbe",
    "type": "bin",
    "lat": 37.545154,
    "lng": 126.931913,
    "name": "창전로32 서강나루공원앞"
  },
  {
    "id": "f99a1f56995ecaec",
    "type": "bin",
    "lat": 37.555157,
    "lng": 126.938134,
    "name": "신촌로110 웨스턴 동물의료센터앞 (5번출구)"
  },
  {
    "id": "07b2df3c1d08b149",
    "type": "bin",
    "lat": 37.556487,
    "lng": 126.944997,
    "name": "신촌로174 중우빌딩 횡단보도옆"
  },
  {
    "id": "4f6d23c398d98e90",
    "type": "bin",
    "lat": 37.556716,
    "lng": 126.948983,
    "name": "신촌로210 아현어린이집앞"
  },
  {
    "id": "3ebf03b37b3e9590",
    "type": "bin",
    "lat": 37.556913,
    "lng": 126.951655,
    "name": "신촌로234 새마을금고앞"
  },
  {
    "id": "0dc3f61ebcdee0e5",
    "type": "bin",
    "lat": 37.556401,
    "lng": 126.9565,
    "name": "아현역 3번출구앞"
  },
  {
    "id": "77dde50ae829c9a3",
    "type": "bin",
    "lat": 37.550407,
    "lng": 126.944278,
    "name": "대흥로122 여성동행센터"
  },
  {
    "id": "54b1abcf93f5f5f3",
    "type": "bin",
    "lat": 37.556233,
    "lng": 126.946135,
    "name": "이대역5번출구앞"
  },
  {
    "id": "890f318d4aa8b2c9",
    "type": "bin",
    "lat": 37.55657,
    "lng": 126.946268,
    "name": "이대역5번출구앞"
  },
  {
    "id": "3cf3329b811db714",
    "type": "bin",
    "lat": 37.548154,
    "lng": 126.958713,
    "name": "만리재로83-1앞 버스정류장(14-145)"
  },
  {
    "id": "3de1e70b33b0794e",
    "type": "bin",
    "lat": 37.548117,
    "lng": 126.959186,
    "name": "만리재로88앞 버스정류장(14-146)"
  },
  {
    "id": "90d92ec12611bf15",
    "type": "bin",
    "lat": 37.553821,
    "lng": 126.911531,
    "name": "월드컵로51아카데미과학(다사랑치킨피자)"
  },
  {
    "id": "b8dd6b50f888e5e4",
    "type": "bin",
    "lat": 37.554117,
    "lng": 126.912034,
    "name": "월드컵로54티스테이션"
  },
  {
    "id": "918932ace552bc0e",
    "type": "bin",
    "lat": 37.552792,
    "lng": 126.911918,
    "name": "월드컵로39하동우렁추어탕"
  },
  {
    "id": "a7386c791138fa00",
    "type": "bin",
    "lat": 37.552106,
    "lng": 126.91264,
    "name": "월드컵로30세븐일레븐"
  },
  {
    "id": "7701c2b01bb1b5c7",
    "type": "bin",
    "lat": 37.551617,
    "lng": 126.911726,
    "name": "월드컵로5길11합정동주민센터 횡단보도앞"
  },
  {
    "id": "1cd105fa96ecf3c5",
    "type": "bin",
    "lat": 37.548509,
    "lng": 126.913338,
    "name": "양화로 36 할리스 옆 공원"
  },
  {
    "id": "de28f242843d6469",
    "type": "bin",
    "lat": 37.549522,
    "lng": 126.914506,
    "name": "양화로50바이모노(합정역 5번출구앞)"
  },
  {
    "id": "8ea992975822fb97",
    "type": "bin",
    "lat": 37.550757,
    "lng": 126.916093,
    "name": "양화로68한동빌딩(합정역 3번출구 앞)"
  },
  {
    "id": "60a97c66e1eb41b8",
    "type": "bin",
    "lat": 37.552704,
    "lng": 126.918684,
    "name": "양화로100버거킹"
  },
  {
    "id": "ca231c814ba7526e",
    "type": "bin",
    "lat": 37.552852,
    "lng": 126.918668,
    "name": "양화로 100-2 버스중앙차로14-014"
  },
  {
    "id": "b489752dd55d3f00",
    "type": "bin",
    "lat": 37.554842,
    "lng": 126.921606,
    "name": "양화로136"
  },
  {
    "id": "b2dc8fe92bc3710b",
    "type": "bin",
    "lat": 37.557031,
    "lng": 126.92457,
    "name": "홍대입구역8번출구"
  },
  {
    "id": "1a3f6a0b31739ae8",
    "type": "bin",
    "lat": 37.556372,
    "lng": 126.923126,
    "name": "홍대입구역8번출구 버스중앙차로14-016"
  },
  {
    "id": "09480196484ac4bf",
    "type": "bin",
    "lat": 37.557746,
    "lng": 126.926498,
    "name": "홍대입구역4번출구ak백화점횡단보도"
  },
  {
    "id": "3ac3778af490da68",
    "type": "bin",
    "lat": 37.562613,
    "lng": 126.927501,
    "name": "연남동 버스정류장14-226"
  },
  {
    "id": "222fb336f3d379ae",
    "type": "bin",
    "lat": 37.559013,
    "lng": 126.926145,
    "name": "연희로1-1 횡단보도앞"
  },
  {
    "id": "ba6bdbba1335beb1",
    "type": "bin",
    "lat": 37.558368,
    "lng": 126.925148,
    "name": "양화로183 홍익인간오피스텔"
  },
  {
    "id": "f913209131213951",
    "type": "bin",
    "lat": 37.557532,
    "lng": 126.924053,
    "name": "양화로171삼성스토어 횡단보도앞"
  },
  {
    "id": "074e237293e2a6f5",
    "type": "bin",
    "lat": 37.55643,
    "lng": 126.923871,
    "name": "홍대입구역8번출구 버스중앙차로14-015"
  },
  {
    "id": "822947c766278769",
    "type": "bin",
    "lat": 37.556494,
    "lng": 126.922632,
    "name": "양화로153홍대입구1번출구"
  },
  {
    "id": "78b7a07f13c1c6e1",
    "type": "bin",
    "lat": 37.555061,
    "lng": 126.920694,
    "name": "양화로129 맘스터치"
  },
  {
    "id": "96ba4a972394a93a",
    "type": "bin",
    "lat": 37.554361,
    "lng": 126.91977,
    "name": "양화로119메디람한방병원"
  },
  {
    "id": "21c03378b6bf3068",
    "type": "bin",
    "lat": 37.553587,
    "lng": 126.918782,
    "name": "양화로107카사미아(스타벅스앞)"
  },
  {
    "id": "62be4aa484cc0d4b",
    "type": "bin",
    "lat": 37.553061,
    "lng": 126.918234,
    "name": "양화로99백년욱일집 횡단보도(지산한의원앞)"
  },
  {
    "id": "f806aa6a9ced5ef1",
    "type": "bin",
    "lat": 37.550485,
    "lng": 126.914708,
    "name": "양화로57합정역버스정류장14-895"
  },
  {
    "id": "2007c8e63c4bfe69",
    "type": "bin",
    "lat": 37.549166,
    "lng": 126.912761,
    "name": "합정역8번출구"
  },
  {
    "id": "3a2f1c1e528663b0",
    "type": "bin",
    "lat": 37.549159,
    "lng": 126.912483,
    "name": "양화로29(배전반옆) 아람광고 앞"
  },
  {
    "id": "d307e5ec329751fc",
    "type": "bin",
    "lat": 37.547584,
    "lng": 126.926239,
    "name": "독막로 서강초등학교 버스정류장14-670"
  },
  {
    "id": "d98d48dbba2c9aa9",
    "type": "bin",
    "lat": 37.548244,
    "lng": 126.924449,
    "name": "독막로101횡단보도앞(br 오피스텔앞)"
  },
  {
    "id": "35b4e3289dc7b7ac",
    "type": "bin",
    "lat": 37.493436,
    "lng": 126.857361,
    "name": "도로변(개봉로20길 54)"
  },
  {
    "id": "d9ec03e0e086f32c",
    "type": "bin",
    "lat": 37.547994,
    "lng": 126.920532,
    "name": "독막로93 상수역2번출구"
  },
  {
    "id": "a067ad147705ca25",
    "type": "bin",
    "lat": 37.547634,
    "lng": 126.921576,
    "name": "독막로74김가농축산(한빛부동산앞)"
  },
  {
    "id": "9f37389252f03da4",
    "type": "bin",
    "lat": 37.548274,
    "lng": 126.917695,
    "name": "독막로37 (서울화력발전소입구역)버스정류장14-121"
  },
  {
    "id": "a547e0a06806ed88",
    "type": "bin",
    "lat": 37.54795,
    "lng": 126.917386,
    "name": "독막로36 버스정류장14-122"
  },
  {
    "id": "8530fb3e1d4100cc",
    "type": "bin",
    "lat": 37.548443,
    "lng": 126.915096,
    "name": "독막로16보성사 앞"
  },
  {
    "id": "63ea102e7f78a9f3",
    "type": "bin",
    "lat": 37.54902,
    "lng": 126.914308,
    "name": "독막로5합정역6번출구"
  },
  {
    "id": "d3d9ae6f70684883",
    "type": "bin",
    "lat": 37.54938,
    "lng": 126.922894,
    "name": "와우산로55 (극동방송국역)버스정류장14-231(아크스테이션앞)"
  },
  {
    "id": "7661622c0d72d6d7",
    "type": "bin",
    "lat": 37.549445,
    "lng": 126.923397,
    "name": "극동방송 버스정류장14-230(우리은행 홍익대지점앞)"
  },
  {
    "id": "0e020b071c4ac3aa",
    "type": "bin",
    "lat": 37.550881,
    "lng": 126.922852,
    "name": "와우산로71삼거리포차 앞 삼거리(프라이빗홍대앞)"
  },
  {
    "id": "1d3f08e2d1d4ff59",
    "type": "bin",
    "lat": 37.553094,
    "lng": 126.924353,
    "name": "와우산로97홍익대학교 버스정류장14-233(하나은행앞)"
  },
  {
    "id": "8bd9340efa52fe44",
    "type": "bin",
    "lat": 37.553509,
    "lng": 126.926757,
    "name": "와우산로121삼진제약버스정류장(14-283)"
  },
  {
    "id": "0d4a2e55c0e14927",
    "type": "bin",
    "lat": 37.555083,
    "lng": 126.93011,
    "name": "와우산로157산울림소극장앞 버스정류장(14-235)"
  },
  {
    "id": "c9a2143830b369be",
    "type": "bin",
    "lat": 37.556067,
    "lng": 126.933117,
    "name": "신촌로66 농협하나로마트"
  },
  {
    "id": "3d3ebfebaa92515b",
    "type": "bin",
    "lat": 37.555611,
    "lng": 126.934809,
    "name": "신촌로82유앤아이치과의원 버스정류장(14-228)"
  },
  {
    "id": "e6719127b3cfdb59",
    "type": "bin",
    "lat": 37.554994,
    "lng": 126.935998,
    "name": "신촌역7번출구"
  },
  {
    "id": "cfb6af00ec03afc4",
    "type": "bin",
    "lat": 37.547113,
    "lng": 126.931429,
    "name": "광흥창역5번 출구 횡단보도앞"
  },
  {
    "id": "759c75703cb8da60",
    "type": "bin",
    "lat": 37.547735,
    "lng": 126.932062,
    "name": "광흥창역2번 출구"
  },
  {
    "id": "5fd04a8bcb115060",
    "type": "bin",
    "lat": 37.547797,
    "lng": 126.932895,
    "name": "광흥창역3번 출구"
  },
  {
    "id": "f8ca3f88f2344439",
    "type": "bin",
    "lat": 37.553229,
    "lng": 126.934375,
    "name": "서강대역2번 출구 자전거대여소 앞"
  },
  {
    "id": "62451c66e9d1f0fd",
    "type": "bin",
    "lat": 37.554668,
    "lng": 126.935594,
    "name": "서강로137신촌역 버스정류장14-990"
  },
  {
    "id": "22d3ce9a715ea42e",
    "type": "bin",
    "lat": 37.554098,
    "lng": 126.934763,
    "name": "신촌로16길29횡단보도"
  },
  {
    "id": "7a9483c4795d02f7",
    "type": "bin",
    "lat": 37.552767,
    "lng": 126.93306,
    "name": "기업은행.신촌연세병원 버스정류장14-992"
  },
  {
    "id": "f2842a06cd260b62",
    "type": "bin",
    "lat": 37.551935,
    "lng": 126.932349,
    "name": "서강로97삼성프라자"
  },
  {
    "id": "a568c470a6c3a77b",
    "type": "bin",
    "lat": 37.551121,
    "lng": 126.932607,
    "name": "창전현대홈타운 버스정류장14-203"
  },
  {
    "id": "092c3241585ee5f4",
    "type": "bin",
    "lat": 37.548287,
    "lng": 126.931356,
    "name": "광흥창역.서강대주민센터 버스정류장14-201 (GS앞 버스정류장)"
  },
  {
    "id": "337512bb77d80dd8",
    "type": "bin",
    "lat": 37.547753,
    "lng": 126.931154,
    "name": "광흥창역1번출구"
  },
  {
    "id": "6f802d4287dc2121",
    "type": "bin",
    "lat": 37.566312,
    "lng": 126.910362,
    "name": "국립경찰교향악단 앞"
  },
  {
    "id": "fa4a14663d34766a",
    "type": "bin",
    "lat": 37.570487,
    "lng": 126.896149,
    "name": "월드컵경기장 서측 버스정류장(14-105)"
  },
  {
    "id": "0d4d3456e7383ef2",
    "type": "bin",
    "lat": 37.568277,
    "lng": 126.892764,
    "name": "월드컵3단지 후문 버스정류장(14-115)"
  },
  {
    "id": "16e942e05df18adc",
    "type": "bin",
    "lat": 37.569117,
    "lng": 126.891255,
    "name": "하늘공원주차장 버스정류장(14-332)"
  },
  {
    "id": "0b6f70a518c41462",
    "type": "bin",
    "lat": 37.579549,
    "lng": 126.883109,
    "name": "상암월드컵파크 6,7단지 버스정류장(14-612)"
  },
  {
    "id": "640dc8bc7f540f21",
    "type": "bin",
    "lat": 37.573102,
    "lng": 126.887603,
    "name": "월드컵파크3단지 버스정류장(14-108)"
  },
  {
    "id": "81b3505b4257426e",
    "type": "bin",
    "lat": 37.578523,
    "lng": 126.879551,
    "name": "서부면허시험장 버스정류장(14-109)"
  },
  {
    "id": "b5a5d874497739b7",
    "type": "bin",
    "lat": 37.577363,
    "lng": 126.880826,
    "name": "서부면허시험장 버스정류장(14-110)"
  },
  {
    "id": "d82eff603baebdea",
    "type": "bin",
    "lat": 37.578186,
    "lng": 126.881709,
    "name": "서부면허시험장 버스정류장(14-493)"
  },
  {
    "id": "69050cb66fe5b409",
    "type": "bin",
    "lat": 37.584535,
    "lng": 126.879867,
    "name": "월드컵파크9단지 버스정류장(14-335)"
  },
  {
    "id": "86c5eebda56be879",
    "type": "bin",
    "lat": 37.586334,
    "lng": 126.881518,
    "name": "상암동 하늘초등학교 버스정류장(14-337)"
  },
  {
    "id": "b1a6f5a7b6687c7b",
    "type": "bin",
    "lat": 37.579442,
    "lng": 126.890323,
    "name": "월드컵북로396 누리꿈스퀘어 주차장 옆"
  },
  {
    "id": "207f8f1e1bc4a43c",
    "type": "bin",
    "lat": 37.556209,
    "lng": 126.919948,
    "name": "월드컵북로 15 시디즈 홍대점 앞"
  },
  {
    "id": "5e0fd958ffdd756f",
    "type": "bin",
    "lat": 37.579232,
    "lng": 126.889408,
    "name": "누리꿈스퀘어(MBC) 버스정류장(14-307)"
  },
  {
    "id": "548e43c6348bb497",
    "type": "bin",
    "lat": 37.55789,
    "lng": 126.918944,
    "name": "월드컵북로 6길 3 수협 앞"
  },
  {
    "id": "f24d9350975cebdd",
    "type": "bin",
    "lat": 37.580854,
    "lng": 126.889332,
    "name": "월드컵북로54길 12 국악방송 앞"
  },
  {
    "id": "397254a4c9c9579b",
    "type": "bin",
    "lat": 37.560837,
    "lng": 126.916147,
    "name": "월드컵북로 78 cu편의점 앞"
  },
  {
    "id": "030a24f975e7314d",
    "type": "bin",
    "lat": 37.563945,
    "lng": 126.913344,
    "name": "버스정류장(14-186)"
  },
  {
    "id": "460ea552bc115229",
    "type": "bin",
    "lat": 37.565025,
    "lng": 126.912474,
    "name": "월드컵북로 136 하나은행 옆"
  },
  {
    "id": "e45270020562db19",
    "type": "bin",
    "lat": 37.565907,
    "lng": 126.914674,
    "name": "성산2교 버스정류장(14-198)"
  },
  {
    "id": "41a8d383ca6b3860",
    "type": "bin",
    "lat": 37.581921,
    "lng": 126.879462,
    "name": "월드컵파크7단지 버스정류장(14-272)"
  },
  {
    "id": "23e122d9e84d0b86",
    "type": "bin",
    "lat": 37.580791,
    "lng": 126.87845,
    "name": "월드컵파크7단지 버스정류장(14-271)"
  },
  {
    "id": "9fa60ed4fc7df062",
    "type": "bin",
    "lat": 37.582145,
    "lng": 126.883443,
    "name": "상암고등학교 버스정류장(14-291)"
  },
  {
    "id": "6c5b7daf19167367",
    "type": "bin",
    "lat": 37.580807,
    "lng": 126.885395,
    "name": "상암산로1길 52 월드컵파크5단지 508동 앞"
  },
  {
    "id": "9fcc08307ea2f642",
    "type": "bin",
    "lat": 37.565287,
    "lng": 126.902464,
    "name": "월드컵로202 마포구청역 1번 출구 앞"
  },
  {
    "id": "8d3735e52d145f5c",
    "type": "bin",
    "lat": 37.565399,
    "lng": 126.902132,
    "name": "월드컵로204 마포구 청사 맞은편 횡단보도"
  },
  {
    "id": "ff408d0ee5ec894b",
    "type": "bin",
    "lat": 37.579057,
    "lng": 126.887551,
    "name": "상암산로1길 26 상암중학교 앞"
  },
  {
    "id": "59e58c628917039d",
    "type": "bin",
    "lat": 37.566313,
    "lng": 126.901616,
    "name": "구청 광장 대로변"
  },
  {
    "id": "2217995404397706",
    "type": "bin",
    "lat": 37.577953,
    "lng": 126.889888,
    "name": "월드컵북로381 월드컵파크4단지 401동 앞"
  },
  {
    "id": "ebb1f891d5ab4ced",
    "type": "bin",
    "lat": 37.5697,
    "lng": 126.901417,
    "name": "성중길 월드컵경기장역 마을버스정류장(14-573)"
  },
  {
    "id": "4ed9b2f584a60af0",
    "type": "bin",
    "lat": 37.579971,
    "lng": 126.887611,
    "name": "상암이안 2단지 버스정류장(14-287)"
  },
  {
    "id": "e85f286342b62481",
    "type": "bin",
    "lat": 37.567362,
    "lng": 126.90067,
    "name": "마포농수산물시장 3거리 홈플러스 입구"
  },
  {
    "id": "0d650afe8f0ff21f",
    "type": "bin",
    "lat": 37.574882,
    "lng": 126.890733,
    "name": "월드컵파크2단지 버스정류장(14-117)"
  },
  {
    "id": "2fda4e2eff7800c7",
    "type": "bin",
    "lat": 37.561293,
    "lng": 126.887772,
    "name": "평화의공원 주차장입구 횡단보도 맞은편"
  },
  {
    "id": "8f7a9012e343e1cc",
    "type": "bin",
    "lat": 37.576414,
    "lng": 126.893324,
    "name": "상암초등학교 버스정류장(14-166)"
  },
  {
    "id": "12df039475d7e0bb",
    "type": "bin",
    "lat": 37.569146,
    "lng": 126.912291,
    "name": "성암로 37 버스정류장(14-351)"
  },
  {
    "id": "11b576d318be6652",
    "type": "bin",
    "lat": 37.564186,
    "lng": 126.903288,
    "name": "마포구청역 5번 출구"
  },
  {
    "id": "eb98c52588d092aa",
    "type": "bin",
    "lat": 37.576665,
    "lng": 126.89892,
    "name": "성암로184 DMC역 7번 출구 버스정류장(14-358)"
  },
  {
    "id": "ca45eb9ebd488276",
    "type": "bin",
    "lat": 37.581461,
    "lng": 126.891709,
    "name": "DMC첨단산업센터 버스정류장(14-355)"
  },
  {
    "id": "2c7d04100ab7e466",
    "type": "bin",
    "lat": 37.577588,
    "lng": 126.896952,
    "name": "디지털미디어시티역 공항철로 9번 출구 앞"
  },
  {
    "id": "c256b443b6082309",
    "type": "bin",
    "lat": 37.564127,
    "lng": 126.906381,
    "name": "마포중앙도서관 버스정류장(14-197)"
  },
  {
    "id": "006c8d2d158c6d56",
    "type": "bin",
    "lat": 37.58361,
    "lng": 126.884416,
    "name": "상암 DMC 버스정류장(14-290)"
  },
  {
    "id": "7456d02bc41e406d",
    "type": "bin",
    "lat": 37.562562,
    "lng": 126.902634,
    "name": "마포구청역 버스정류장(14-195)"
  },
  {
    "id": "d613a93036e3a868",
    "type": "bin",
    "lat": 37.585411,
    "lng": 126.885383,
    "name": "DMC첨단산업센터 버스정류장(14-111)"
  },
  {
    "id": "7996dd55b6eddcaa",
    "type": "bin",
    "lat": 37.584406,
    "lng": 126.883466,
    "name": "서부도로사업소 버스정류장(14-112)"
  },
  {
    "id": "e15679613723bfcf",
    "type": "bin",
    "lat": 37.563025,
    "lng": 126.90467,
    "name": "마포구청역 3번 출구 앞"
  },
  {
    "id": "1d5bed3c15b8492d",
    "type": "bin",
    "lat": 37.563845,
    "lng": 126.906672,
    "name": "마포중앙도서관 버스정류장(14-196)"
  },
  {
    "id": "c0f6667da39b204b",
    "type": "bin",
    "lat": 37.57713,
    "lng": 126.897825,
    "name": "디지털미디어시티역 8번 출구 횡단보도 앞"
  },
  {
    "id": "112b8922f1d3ef30",
    "type": "bin",
    "lat": 37.555782,
    "lng": 126.910729,
    "name": "월드컵로74 올리브영 앞"
  },
  {
    "id": "34ecbbeff09fba28",
    "type": "bin",
    "lat": 37.557621,
    "lng": 126.908998,
    "name": "월드컵로 100 으뜸공인중개사 앞"
  },
  {
    "id": "6fd61f743e65476d",
    "type": "bin",
    "lat": 37.558245,
    "lng": 126.908443,
    "name": "월드컵로 108 시골김치삼겹살 앞"
  },
  {
    "id": "851da23d88b4a70a",
    "type": "bin",
    "lat": 37.565693,
    "lng": 126.912326,
    "name": "버스정류장(14-199)"
  },
  {
    "id": "0d117afa0ea039d6",
    "type": "bin",
    "lat": 37.561963,
    "lng": 126.905207,
    "name": "월드컵로 158 LG베스트샵 앞"
  },
  {
    "id": "3bbdb77a6043a932",
    "type": "bin",
    "lat": 37.573062,
    "lng": 126.901048,
    "name": "버스정류장(14-162)"
  },
  {
    "id": "cc32003b37676023",
    "type": "bin",
    "lat": 37.564826,
    "lng": 126.911662,
    "name": "월드컵북로 137 CS타워 앞"
  },
  {
    "id": "6b865f7a6b1b2c84",
    "type": "bin",
    "lat": 37.57888,
    "lng": 126.891961,
    "name": "버스정류장(14-286)"
  },
  {
    "id": "443f41d66dc9ab09",
    "type": "bin",
    "lat": 37.559931,
    "lng": 126.916343,
    "name": "월드컵북로 69 바다약국 앞"
  },
  {
    "id": "4cd0a2888c5d651a",
    "type": "bin",
    "lat": 37.574668,
    "lng": 126.895713,
    "name": "월드컵북로43길 11 세븐일레븐 앞"
  },
  {
    "id": "84b90cf76e922dad",
    "type": "bin",
    "lat": 37.565444,
    "lng": 126.900803,
    "name": "월드컵로 213 마포장애인복지회관 앞"
  },
  {
    "id": "5cf3637704fbd40d",
    "type": "bin",
    "lat": 37.565048,
    "lng": 126.9015,
    "name": "월드컵로 205 마포구청역 8번 출구 앞 버스정류장(14-102)"
  },
  {
    "id": "81b6ecb6752bfa23",
    "type": "bin",
    "lat": 37.574235,
    "lng": 126.898388,
    "name": "버스정류장(14-274)"
  },
  {
    "id": "5b22f0849cf8d27b",
    "type": "bin",
    "lat": 37.493289,
    "lng": 126.858419,
    "name": "도로변(개봉로20길 74)"
  },
  {
    "id": "f95ba48774ce5311",
    "type": "bin",
    "lat": 37.483873,
    "lng": 126.886325,
    "name": "대동의류 앞"
  },
  {
    "id": "7a443334f701015c",
    "type": "bin",
    "lat": 37.48444,
    "lng": 126.885991,
    "name": "남구로역 3번출구"
  },
  {
    "id": "6413fa4087a64d32",
    "type": "bin",
    "lat": 37.547654,
    "lng": 126.927227,
    "name": "독막로 래미안밤섬아파트 서강육교 앞 버스정류장(14-126)"
  },
  {
    "id": "7303a3187eb705eb",
    "type": "bin",
    "lat": 37.554628,
    "lng": 126.922483,
    "name": "어울마당로 107 AA플레이스 앞"
  },
  {
    "id": "ccd6bf1f9b7166b5",
    "type": "bin",
    "lat": 37.554975,
    "lng": 126.922914,
    "name": "어울마당로 113 양꼬치 앞"
  },
  {
    "id": "bc6f8b7ab1ae1bed",
    "type": "bin",
    "lat": 37.551959,
    "lng": 126.919338,
    "name": "gs마트 앞"
  },
  {
    "id": "4290b7386549e4f8",
    "type": "bin",
    "lat": 37.553762,
    "lng": 126.923694,
    "name": "홍익로 10 서교푸르지오아파트 앞"
  },
  {
    "id": "76a31e180314fd1d",
    "type": "bin",
    "lat": 37.553504,
    "lng": 126.923286,
    "name": "홍익로 11 프리스비빌딩 앞(코닥서울쇼룸)"
  },
  {
    "id": "44f545e536007491",
    "type": "bin",
    "lat": 37.55422,
    "lng": 126.92301,
    "name": "홍익로 18 국민은행 앞"
  },
  {
    "id": "b3b6cf4ae2b1f422",
    "type": "bin",
    "lat": 37.554012,
    "lng": 126.922633,
    "name": "홍익로 19 세븐일레븐 앞"
  },
  {
    "id": "c7c69c005b1bc68c",
    "type": "bin",
    "lat": 37.554383,
    "lng": 126.922819,
    "name": "홍익로 20 걷고관광초소 옆"
  },
  {
    "id": "aeab96fa005ccde1",
    "type": "bin",
    "lat": 37.554293,
    "lng": 126.922241,
    "name": "홍익로 23 나이키홍대점 앞"
  },
  {
    "id": "b6d2e246819d7fd8",
    "type": "bin",
    "lat": 37.553114,
    "lng": 126.923764,
    "name": "홍익로 5"
  },
  {
    "id": "840b71a41e87d937",
    "type": "bin",
    "lat": 37.553298,
    "lng": 126.924051,
    "name": "홍익로 6 CU편의점 앞"
  },
  {
    "id": "b093ca74bb7db21d",
    "type": "bin",
    "lat": 37.545119,
    "lng": 126.950886,
    "name": "공덕역 2번 출구 앞 횡단보도 옆"
  },
  {
    "id": "7d013cb63784465e",
    "type": "bin",
    "lat": 37.553194,
    "lng": 126.933286,
    "name": "서강로 111-1 파리바게트 근처 전봇대앞"
  },
  {
    "id": "bdac267f5a9babc1",
    "type": "bin",
    "lat": 37.553975,
    "lng": 126.934777,
    "name": "서강로 127-1 버스정류장(14-204)"
  },
  {
    "id": "47eba4bd93d45e72",
    "type": "bin",
    "lat": 37.550958,
    "lng": 126.921063,
    "name": "홍대상상마당 부근(뷰티플레이 앞)"
  },
  {
    "id": "f58169a4850c4e6e",
    "type": "bin",
    "lat": 37.55057,
    "lng": 126.921626,
    "name": "한신포차 앞"
  },
  {
    "id": "c6e5d532813199cc",
    "type": "bin",
    "lat": 37.550909,
    "lng": 126.922525,
    "name": "토리엔비어 앞"
  },
  {
    "id": "a549847b28fbeb35",
    "type": "bin",
    "lat": 37.570269,
    "lng": 126.894524,
    "name": "월드컵경기장 서측(문화비축기지) 버스정류장(14-106)"
  },
  {
    "id": "d08231ad49fa1c71",
    "type": "bin",
    "lat": 37.569732,
    "lng": 126.903136,
    "name": "성산아파트 버스정류장(14-163)"
  },
  {
    "id": "c846b9d7186eb17b",
    "type": "bin",
    "lat": 37.569278,
    "lng": 126.904325,
    "name": "월드컵북로 221 자전거대여소 옆"
  },
  {
    "id": "223eada3955c8b59",
    "type": "bin",
    "lat": 37.567905,
    "lng": 126.908259,
    "name": "성산2동주민센터 버스정류장(14-158)"
  },
  {
    "id": "5b001f173061bbae",
    "type": "bin",
    "lat": 37.556015,
    "lng": 126.910469,
    "name": "망원역 1번 출구, 택시승강장"
  },
  {
    "id": "958ed4438929c0ff",
    "type": "bin",
    "lat": 37.556474,
    "lng": 126.909241,
    "name": "망원역 하나은행 앞 배전함"
  },
  {
    "id": "2c80373e75cdec63",
    "type": "bin",
    "lat": 37.560482,
    "lng": 126.905632,
    "name": "버스정류장(14-253)"
  },
  {
    "id": "23523d70b9fcd9d0",
    "type": "bin",
    "lat": 37.554654,
    "lng": 126.911064,
    "name": "버스정류장(14-249)"
  },
  {
    "id": "4cab6f9d9b231b5f",
    "type": "bin",
    "lat": 37.573623,
    "lng": 126.887301,
    "name": "디지털미디어시티입구 교차로, 버스정류장(14-509)"
  },
  {
    "id": "833915eb65618282",
    "type": "bin",
    "lat": 37.57853,
    "lng": 126.894285,
    "name": "버스정류장 14-361"
  },
  {
    "id": "eb36d8f124f0024d",
    "type": "bin",
    "lat": 37.57711,
    "lng": 126.891404,
    "name": "DMC홍보관 방향 횡단보도 앞"
  },
  {
    "id": "5e3516bc279ac00b",
    "type": "bin",
    "lat": 37.556057,
    "lng": 126.910034,
    "name": "망원역2번 출구 안쪽"
  },
  {
    "id": "18e575fd0bd5a9de",
    "type": "bin",
    "lat": 37.553979,
    "lng": 126.940809,
    "name": "고산2길 61 노고산체육공원"
  },
  {
    "id": "c1f740538901e7a7",
    "type": "bin",
    "lat": 37.551739,
    "lng": 126.921615,
    "name": "빈티지플러스 홍대점 앞"
  },
  {
    "id": "3d16c46b9a24e2d2",
    "type": "bin",
    "lat": 37.550886,
    "lng": 126.922285,
    "name": "홍대 어썸 앞"
  },
  {
    "id": "7f87f10832f2449b",
    "type": "bin",
    "lat": 37.499834,
    "lng": 126.882616,
    "name": "버스정류장"
  },
  {
    "id": "372d2243d8723e64",
    "type": "bin",
    "lat": 37.517408,
    "lng": 127.018733,
    "name": "오르셀의원 앞"
  },
  {
    "id": "5481fda09a683d08",
    "type": "bin",
    "lat": 37.515555,
    "lng": 127.019471,
    "name": "신사역4번출구 옆"
  },
  {
    "id": "d5dea40d7fb7138a",
    "type": "bin",
    "lat": 37.512394,
    "lng": 127.020069,
    "name": "대도식당 앞"
  },
  {
    "id": "f0197352406e907a",
    "type": "bin",
    "lat": 37.507014,
    "lng": 127.022703,
    "name": "고도일병원 앞"
  },
  {
    "id": "f12c2a2c55767531",
    "type": "bin",
    "lat": 37.505325,
    "lng": 127.023649,
    "name": "스타벅스 앞"
  },
  {
    "id": "115aa21fd2034af6",
    "type": "bin",
    "lat": 37.504919,
    "lng": 127.024041,
    "name": "신논현역2번출구 뒤"
  },
  {
    "id": "e49ce527a15b7700",
    "type": "bin",
    "lat": 37.502192,
    "lng": 127.025097,
    "name": "자라 앞"
  },
  {
    "id": "f04f3304e3ebacff",
    "type": "bin",
    "lat": 37.501736,
    "lng": 127.025278,
    "name": "유화빌딩 앞"
  },
  {
    "id": "5b788d278eda0403",
    "type": "bin",
    "lat": 37.50031,
    "lng": 127.025815,
    "name": "이니스프리 앞"
  },
  {
    "id": "8b1876abe4713b8b",
    "type": "bin",
    "lat": 37.49956,
    "lng": 127.02634,
    "name": "대동빌딩 앞"
  },
  {
    "id": "49ee1cdf4a9bf914",
    "type": "bin",
    "lat": 37.495983,
    "lng": 127.02801,
    "name": "던킨도너츠 앞"
  },
  {
    "id": "a0add9efe7efc166",
    "type": "bin",
    "lat": 37.495323,
    "lng": 127.028349,
    "name": "도씨에빛 1 앞"
  },
  {
    "id": "892e7d6dc1176f91",
    "type": "bin",
    "lat": 37.494799,
    "lng": 127.02861,
    "name": "티월드 앞"
  },
  {
    "id": "7fc024e55822a306",
    "type": "bin",
    "lat": 37.49352,
    "lng": 127.029241,
    "name": "신한금융투자 강남중앙지점 앞"
  },
  {
    "id": "38af6db6c4702bd2",
    "type": "bin",
    "lat": 37.489753,
    "lng": 127.030983,
    "name": "지하철 환풍구 옆"
  },
  {
    "id": "14295ce41274e677",
    "type": "bin",
    "lat": 37.483935,
    "lng": 127.034544,
    "name": "양재역 1번출구 옆"
  },
  {
    "id": "f31f58b0f8b7da19",
    "type": "bin",
    "lat": 37.482767,
    "lng": 127.03495,
    "name": "맥도널드 앞"
  },
  {
    "id": "7a962df40dcc9506",
    "type": "bin",
    "lat": 37.477888,
    "lng": 127.03918,
    "name": "상록빌딩 앞"
  },
  {
    "id": "9e4f7a776ef0ecad",
    "type": "bin",
    "lat": 37.478592,
    "lng": 127.038431,
    "name": "일동제약사거리 버스정류장(22-291)"
  },
  {
    "id": "f2de39586b1b8032",
    "type": "bin",
    "lat": 37.469282,
    "lng": 127.039909,
    "name": "양재시민의 숲 3번출구"
  },
  {
    "id": "d4b1a84800906474",
    "type": "bin",
    "lat": 37.468604,
    "lng": 127.03959,
    "name": "양재시민의 숲 1번출구 앞 버스정류장(222-98)"
  },
  {
    "id": "c65327a162b44336",
    "type": "bin",
    "lat": 37.477387,
    "lng": 126.987482,
    "name": "버스정류장 앞"
  },
  {
    "id": "5e7e64c5a1aa361f",
    "type": "bin",
    "lat": 37.480162,
    "lng": 126.994597,
    "name": "버스정류장 앞"
  },
  {
    "id": "962cdfd7c20dd649",
    "type": "bin",
    "lat": 37.483547,
    "lng": 127.015111,
    "name": "남부터미널 역 5번출구 옆"
  },
  {
    "id": "dbf1b2223c8ae64f",
    "type": "bin",
    "lat": 37.486573,
    "lng": 127.032633,
    "name": "페이토호텔 앞"
  },
  {
    "id": "ddf10d8a68cde2f4",
    "type": "bin",
    "lat": 37.468279,
    "lng": 127.039136,
    "name": "양재시민의 숲 4번출구"
  },
  {
    "id": "f961e246c2e562c6",
    "type": "bin",
    "lat": 37.486026,
    "lng": 127.020989,
    "name": "버스정류장 앞"
  },
  {
    "id": "7c7314e333125b20",
    "type": "bin",
    "lat": 37.488611,
    "lng": 127.029589,
    "name": "버스정류장 앞"
  },
  {
    "id": "2861040532dc2951",
    "type": "bin",
    "lat": 37.48664,
    "lng": 127.021315,
    "name": "버스정류장 앞"
  },
  {
    "id": "83a06ebf424069c7",
    "type": "bin",
    "lat": 37.483895,
    "lng": 127.011921,
    "name": "와라와라 앞"
  },
  {
    "id": "15776a18aebacbb0",
    "type": "bin",
    "lat": 37.48423,
    "lng": 127.010841,
    "name": "서초고용센터 앞"
  },
  {
    "id": "9cf0c5311a7dc978",
    "type": "bin",
    "lat": 37.486929,
    "lng": 127.010587,
    "name": "한독모터스 앞"
  },
  {
    "id": "263c0aabc22d1a84",
    "type": "bin",
    "lat": 37.491577,
    "lng": 127.008343,
    "name": "서초역 2번출구 앞"
  },
  {
    "id": "9b00ddf09eff239e",
    "type": "bin",
    "lat": 37.490922,
    "lng": 127.007913,
    "name": "서초역 3번출구 앞"
  },
  {
    "id": "d0c16010f50bb2d4",
    "type": "bin",
    "lat": 37.488685,
    "lng": 127.00874,
    "name": "버스정류장 앞"
  },
  {
    "id": "fadd5992173e28f2",
    "type": "bin",
    "lat": 37.481083,
    "lng": 126.997421,
    "name": "방배역 3번출구 옆"
  },
  {
    "id": "87258fd09936e8b3",
    "type": "bin",
    "lat": 37.488711,
    "lng": 127.009584,
    "name": "버스정류장 앞"
  },
  {
    "id": "ffe438763c6bc6b5",
    "type": "bin",
    "lat": 37.481365,
    "lng": 126.998918,
    "name": "방배역 1번출구 옆"
  },
  {
    "id": "bf8b0a7828fd7a48",
    "type": "bin",
    "lat": 37.496686,
    "lng": 126.988421,
    "name": "버스정류장 앞(22223),서래초근처"
  },
  {
    "id": "af5df780bbcc44cc",
    "type": "bin",
    "lat": 37.489008,
    "lng": 126.992242,
    "name": "방배열린문화센터 앞"
  },
  {
    "id": "73677981cc5fdcf5",
    "type": "bin",
    "lat": 37.487158,
    "lng": 126.99356,
    "name": "내방역 3번출구 앞"
  },
  {
    "id": "20c6bd812304813d",
    "type": "bin",
    "lat": 37.487902,
    "lng": 126.993196,
    "name": "내방역 5번출구 뒤"
  },
  {
    "id": "99c0f886eb10f012",
    "type": "bin",
    "lat": 37.476523,
    "lng": 127.001244,
    "name": "버스정류장 앞"
  },
  {
    "id": "e38dd42e44c05b95",
    "type": "bin",
    "lat": 37.501139,
    "lng": 126.986184,
    "name": "구반포역 2번출구 앞"
  },
  {
    "id": "33c739a527e822c5",
    "type": "bin",
    "lat": 37.50622,
    "lng": 127.005052,
    "name": "고속터미널 역 8-1번 출구 앞"
  },
  {
    "id": "69df8a4a804c6461",
    "type": "bin",
    "lat": 37.50239,
    "lng": 126.995965,
    "name": "버스정류장 옆"
  },
  {
    "id": "d5879834bd952463",
    "type": "bin",
    "lat": 37.510261,
    "lng": 127.006971,
    "name": "킴스클럽 앞"
  },
  {
    "id": "d25f172d7f95b702",
    "type": "bin",
    "lat": 37.509949,
    "lng": 127.007776,
    "name": "버스정류장 앞"
  },
  {
    "id": "27449e24740b8cbc",
    "type": "bin",
    "lat": 37.514519,
    "lng": 127.006996,
    "name": "버스정류장 앞"
  },
  {
    "id": "3b97400ad4f985f4",
    "type": "bin",
    "lat": 37.475117,
    "lng": 126.991091,
    "name": "버스정류장 앞"
  },
  {
    "id": "b1546a7fec45b8af",
    "type": "bin",
    "lat": 37.48024,
    "lng": 127.014215,
    "name": "예술의 전당 앞"
  },
  {
    "id": "fd67181653464090",
    "type": "bin",
    "lat": 37.498853,
    "lng": 126.990516,
    "name": "버스정류장 앞"
  },
  {
    "id": "7a0073eb4534d243",
    "type": "bin",
    "lat": 37.498652,
    "lng": 126.995456,
    "name": "골프존마켓 앞"
  },
  {
    "id": "39f6ee17e8422ede",
    "type": "bin",
    "lat": 37.499767,
    "lng": 126.998352,
    "name": "버스정류장 앞"
  },
  {
    "id": "fb2dea9c37e79592",
    "type": "bin",
    "lat": 37.500373,
    "lng": 127.00106,
    "name": "버스정류장 앞"
  },
  {
    "id": "44683f5da39ca7fe",
    "type": "bin",
    "lat": 37.497897,
    "lng": 126.991837,
    "name": "버스정류장 앞"
  },
  {
    "id": "34b48c3f27e9dce8",
    "type": "bin",
    "lat": 37.504916,
    "lng": 127.014417,
    "name": "버스정류장 앞"
  },
  {
    "id": "021ec78de2ef5047",
    "type": "bin",
    "lat": 37.504159,
    "lng": 127.015434,
    "name": "버스정류장 앞"
  },
  {
    "id": "5f9b20b46760762a",
    "type": "bin",
    "lat": 37.488013,
    "lng": 126.982636,
    "name": "이수역 1번 출구 뒤"
  },
  {
    "id": "a7e69b9388e6001f",
    "type": "bin",
    "lat": 37.486091,
    "lng": 126.982617,
    "name": "이수역 4번 출구 앞"
  },
  {
    "id": "4c5c8d2977e83f34",
    "type": "bin",
    "lat": 37.484793,
    "lng": 126.982599,
    "name": "이수역 5번 출구 앞"
  },
  {
    "id": "1dd6f2fb38e391c8",
    "type": "bin",
    "lat": 37.478662,
    "lng": 126.982152,
    "name": "사당역 11번 출구 앞"
  },
  {
    "id": "734a952ee18f9fa4",
    "type": "bin",
    "lat": 37.477701,
    "lng": 126.982236,
    "name": "사당역 12번 출구 앞"
  },
  {
    "id": "20569668679a6c43",
    "type": "bin",
    "lat": 37.498293,
    "lng": 126.984829,
    "name": "이수교차로 교통섬"
  },
  {
    "id": "fccdc15b4105c44f",
    "type": "bin",
    "lat": 37.502962,
    "lng": 127.012071,
    "name": "신한은행 반포남금융센터 앞"
  },
  {
    "id": "f9ee87e9a854bb2e",
    "type": "bin",
    "lat": 37.489243,
    "lng": 127.004825,
    "name": "버스정류장 앞(22922),세란병원앞"
  },
  {
    "id": "c79ee7c8a1ed6498",
    "type": "bin",
    "lat": 37.502487,
    "lng": 127.012513,
    "name": "버스정류장 앞"
  },
  {
    "id": "817536ef63590cc3",
    "type": "bin",
    "lat": 37.490746,
    "lng": 127.004678,
    "name": "서리풀문화광장 앞"
  },
  {
    "id": "98875f6e021950c3",
    "type": "bin",
    "lat": 37.493416,
    "lng": 127.026491,
    "name": "버스정류장 앞"
  },
  {
    "id": "a37675b4169d36b3",
    "type": "bin",
    "lat": 37.493007,
    "lng": 127.025453,
    "name": "버스정류장 앞"
  },
  {
    "id": "2da2f3f578faa170",
    "type": "bin",
    "lat": 37.501325,
    "lng": 127.020127,
    "name": "버스정류장 앞"
  },
  {
    "id": "5901c27c23c8c43a",
    "type": "bin",
    "lat": 37.501858,
    "lng": 127.022423,
    "name": "버스정류장 앞"
  },
  {
    "id": "926cda812db5056b",
    "type": "bin",
    "lat": 37.459764,
    "lng": 127.025361,
    "name": "버스정류장 앞"
  },
  {
    "id": "2f28d3938c758281",
    "type": "bin",
    "lat": 37.457605,
    "lng": 127.017571,
    "name": "서초힐스아파트 앞"
  },
  {
    "id": "f073ea89443e620e",
    "type": "bin",
    "lat": 37.463439,
    "lng": 127.035526,
    "name": "버스정류장 앞"
  },
  {
    "id": "905b109821fd964d",
    "type": "bin",
    "lat": 37.469979,
    "lng": 127.038326,
    "name": "양재시민의 숲 5번 출구 앞"
  },
  {
    "id": "af363484fceb9310",
    "type": "bin",
    "lat": 37.465123,
    "lng": 127.044751,
    "name": "버스정류장 앞"
  },
  {
    "id": "e5b572249ef36007",
    "type": "bin",
    "lat": 37.447538,
    "lng": 127.05532,
    "name": "청계산입구 역 2번 출구"
  },
  {
    "id": "4f0de75bfa10f50e",
    "type": "bin",
    "lat": 37.517934,
    "lng": 127.014143,
    "name": "버스정류장"
  },
  {
    "id": "b67f4012d5c8cfa8",
    "type": "bin",
    "lat": 37.506436,
    "lng": 127.006834,
    "name": "버스정류장"
  },
  {
    "id": "d0b1dc4ac0afd83f",
    "type": "bin",
    "lat": 37.487613,
    "lng": 127.026189,
    "name": "버스정류장"
  },
  {
    "id": "5286838a151bd602",
    "type": "bin",
    "lat": 37.484338,
    "lng": 127.035179,
    "name": "양재역 5번 출구뒤"
  },
  {
    "id": "e3309a347ca735b1",
    "type": "bin",
    "lat": 37.507506,
    "lng": 126.999653,
    "name": "원베일리정류장"
  },
  {
    "id": "92322e31b3c1b52c",
    "type": "bin",
    "lat": 37.639876,
    "lng": 127.064284,
    "name": "브라운스톤 앞 버스정류장"
  },
  {
    "id": "f50b28791a355f8a",
    "type": "bin",
    "lat": 37.5925,
    "lng": 126.997789,
    "name": "성북역사문화공원 앞"
  },
  {
    "id": "e91643f45f577e2f",
    "type": "bin",
    "lat": 37.669857,
    "lng": 127.058746,
    "name": "상계주공14단지(1403동) 앞 버스정류장"
  },
  {
    "id": "2e3ee7a39e30d3c6",
    "type": "bin",
    "lat": 37.580218,
    "lng": 127.022611,
    "name": "보문동주민센터 버스정류장(08-184)"
  },
  {
    "id": "379982b96e5c55e6",
    "type": "bin",
    "lat": 37.485848,
    "lng": 126.876157,
    "name": "한일유앤아이아파트"
  },
  {
    "id": "dbf2ceb32245b207",
    "type": "bin",
    "lat": 37.491777,
    "lng": 126.874364,
    "name": "구일어린이집 옆"
  },
  {
    "id": "88c3492ed9397593",
    "type": "bin",
    "lat": 37.489758,
    "lng": 126.877081,
    "name": "구일우성아파트"
  },
  {
    "id": "2dca298a2faf6a85",
    "type": "bin",
    "lat": 37.588406,
    "lng": 127.006487,
    "name": "성북천 분수광장 평화의소녀상 앞"
  },
  {
    "id": "aa3991cb947968b9",
    "type": "bin",
    "lat": 37.588899,
    "lng": 127.00747,
    "name": "삼선교.한성대학교.조소앙활동터 버스정류장(08-010)"
  },
  {
    "id": "dc4e837884db0a4f",
    "type": "bin",
    "lat": 37.589954,
    "lng": 127.009784,
    "name": "삼선교.한성대학교.조소앙활동터 버스정류장(08-009)"
  },
  {
    "id": "4366d4de91dd98d9",
    "type": "bin",
    "lat": 37.588624,
    "lng": 127.00553,
    "name": "한성대입구역 5번 출구"
  },
  {
    "id": "ba8331ad659b2fdb",
    "type": "bin",
    "lat": 37.594035,
    "lng": 127.018532,
    "name": "돈암사거리.성신여대입구 버스정류장(08-007)"
  },
  {
    "id": "a72d365e6c5ed57f",
    "type": "bin",
    "lat": 37.593052,
    "lng": 127.017335,
    "name": "돈암사거리.성신여대입구 버스정류장(08-008)"
  },
  {
    "id": "e06050c92455a7f7",
    "type": "bin",
    "lat": 37.593608,
    "lng": 127.016666,
    "name": "성신여대입구역 버스정류장(08-270), 아리랑힐호텔 동대문 앞"
  },
  {
    "id": "57336f3709d671af",
    "type": "bin",
    "lat": 37.593471,
    "lng": 127.016123,
    "name": "성신필약국 앞"
  },
  {
    "id": "de53512e2c754330",
    "type": "bin",
    "lat": 37.601881,
    "lng": 127.024467,
    "name": "돈암동삼성아파트입구 버스정류장(08-123)"
  },
  {
    "id": "062a5d42eecf8a9d",
    "type": "bin",
    "lat": 37.598314,
    "lng": 127.021585,
    "name": "미아리고개.미아리예술극장 버스정류장(08-005)"
  },
  {
    "id": "f8338c83af604dc3",
    "type": "bin",
    "lat": 37.598406,
    "lng": 127.021962,
    "name": "미아리고개.미아리예술극장 버스정류장(08-006)"
  },
  {
    "id": "3a30f18daac2e380",
    "type": "bin",
    "lat": 37.594384,
    "lng": 126.991777,
    "name": "서울다원학교.한용운활동터 버스정류장(08-223)"
  },
  {
    "id": "a28cb504571c5368",
    "type": "bin",
    "lat": 37.603875,
    "lng": 127.015369,
    "name": "숭덕초교 버스정류장(08-120)"
  },
  {
    "id": "14d23f570208c6ee",
    "type": "bin",
    "lat": 37.603128,
    "lng": 127.014511,
    "name": "숭덕초교 버스정류장(08-119)"
  },
  {
    "id": "810774e0ed471642",
    "type": "bin",
    "lat": 37.604465,
    "lng": 127.011129,
    "name": "정릉2동주민센터 버스정류장(08-117)"
  },
  {
    "id": "370916af577b009a",
    "type": "bin",
    "lat": 37.605284,
    "lng": 127.01138,
    "name": "정릉우체국앞 버스정류장(08-169)"
  },
  {
    "id": "9b91317217b78038",
    "type": "bin",
    "lat": 37.607955,
    "lng": 127.002402,
    "name": "고려대사범대학부속고등학교 버스정류장(08-114)"
  },
  {
    "id": "b75ca3536f1f9fb2",
    "type": "bin",
    "lat": 37.608364,
    "lng": 127.000717,
    "name": "청덕초교 버스정류장(08-112)"
  },
  {
    "id": "999aa99b23d11c66",
    "type": "bin",
    "lat": 37.610947,
    "lng": 126.993582,
    "name": "국민대앞 버스정류장(08-107)"
  },
  {
    "id": "48db3c89295695e9",
    "type": "bin",
    "lat": 37.610905,
    "lng": 126.994344,
    "name": "국민대학교앞 버스정류장(08-110)"
  },
  {
    "id": "6fb46d4882517851",
    "type": "bin",
    "lat": 37.609912,
    "lng": 126.998355,
    "name": "국민대앞 버스정류장(08-108)"
  },
  {
    "id": "5164c6b34ab8b803",
    "type": "bin",
    "lat": 37.607303,
    "lng": 127.003061,
    "name": "북악중학교 버스정류장(08-113)"
  },
  {
    "id": "287e35f4204abfb5",
    "type": "bin",
    "lat": 37.616045,
    "lng": 127.008106,
    "name": "정릉동풍림아파트.청소년문화의집 버스정류장(08-262)"
  },
  {
    "id": "291d027dfd17373d",
    "type": "bin",
    "lat": 37.613578,
    "lng": 127.006265,
    "name": "정릉4동주민센터.경국사 버스정류장(08-163)"
  },
  {
    "id": "4d2837c283a4cbbf",
    "type": "bin",
    "lat": 37.611267,
    "lng": 127.056567,
    "name": "돌곶이역 2번출구"
  },
  {
    "id": "3fc00029cb614a4e",
    "type": "bin",
    "lat": 37.610631,
    "lng": 127.05612,
    "name": "돌곶이역 버스정류장(08-142)"
  },
  {
    "id": "cd4ce4d06db425bc",
    "type": "bin",
    "lat": 37.606031,
    "lng": 127.04768,
    "name": "월곡중학교 버스정류장(08-353)"
  },
  {
    "id": "f935939e0e47a930",
    "type": "bin",
    "lat": 37.605725,
    "lng": 127.046387,
    "name": "상월곡역 버스정류장(08-136)"
  },
  {
    "id": "ec1f369eb0b8fe47",
    "type": "bin",
    "lat": 37.601562,
    "lng": 127.041581,
    "name": "월곡역 버스정류장(08-132)"
  },
  {
    "id": "f8cae9f2b0dd43db",
    "type": "bin",
    "lat": 37.604552,
    "lng": 127.025173,
    "name": "길음역 9번출구"
  },
  {
    "id": "f5fcb15d1f90475f",
    "type": "bin",
    "lat": 37.601937,
    "lng": 127.033532,
    "name": "서울종암경찰서"
  },
  {
    "id": "098272a35f44be0d",
    "type": "bin",
    "lat": 37.604594,
    "lng": 127.034545,
    "name": "월곡동신아파트 버스정류장(08-403)"
  },
  {
    "id": "ab528b9bc9b66fa6",
    "type": "bin",
    "lat": 37.609678,
    "lng": 127.032022,
    "name": "숭곡초교입구 버스정류장(08-101)"
  },
  {
    "id": "03cb29221a457d30",
    "type": "bin",
    "lat": 37.605961,
    "lng": 127.031637,
    "name": "성가복지병원 버스정류장(08-149)"
  },
  {
    "id": "6b2f7abd75d1eedc",
    "type": "bin",
    "lat": 37.58041,
    "lng": 127.021729,
    "name": "보문동주민센터 버스정류장(08-183)"
  },
  {
    "id": "4d41801ae29b79ee",
    "type": "bin",
    "lat": 37.582381,
    "lng": 127.020687,
    "name": "보문동성당 버스정류장(08-181)"
  },
  {
    "id": "6df864d2b5efc127",
    "type": "bin",
    "lat": 37.586123,
    "lng": 127.019206,
    "name": "보문역 버스정류장(08-326)"
  },
  {
    "id": "ad0fb1c8c8d5e1ed",
    "type": "bin",
    "lat": 37.586522,
    "lng": 127.030237,
    "name": "안암전철역 버스정류장(08-302)"
  },
  {
    "id": "0c5d24443d5dec03",
    "type": "bin",
    "lat": 37.586172,
    "lng": 127.030421,
    "name": "안암역 버스정류장(08-301)"
  },
  {
    "id": "a38fd4edebb900dd",
    "type": "bin",
    "lat": 37.613868,
    "lng": 127.048737,
    "name": "국민은행장위동지점 버스정류장(08-282)"
  },
  {
    "id": "caac6bf466499beb",
    "type": "bin",
    "lat": 37.617621,
    "lng": 127.04772,
    "name": "영어의 힘 앞"
  },
  {
    "id": "10beff3e0e50df4a",
    "type": "bin",
    "lat": 37.622918,
    "lng": 127.048397,
    "name": "장월초교.참누리아파트 버스정류장(08-450)"
  },
  {
    "id": "99e4dcff7d1552e7",
    "type": "bin",
    "lat": 37.600059,
    "lng": 127.013924,
    "name": "아리랑고개.아리랑시네미디어센터 버스정류장(08-266)"
  },
  {
    "id": "42e9f9f7a65c0507",
    "type": "bin",
    "lat": 37.600733,
    "lng": 127.013617,
    "name": "아리랑고개.아리랑시네미디어센터 버스정류장(08-265)"
  },
  {
    "id": "0fd673ebf3dd72e3",
    "type": "bin",
    "lat": 37.592514,
    "lng": 127.002794,
    "name": "경신중고입구 버스정류장(08-233)"
  },
  {
    "id": "ea8452bb7aad7d8a",
    "type": "bin",
    "lat": 37.593525,
    "lng": 127.001406,
    "name": "홍익대부속중고등학교입구 버스정류장(08-231)"
  },
  {
    "id": "291a6e81942aabc1",
    "type": "bin",
    "lat": 37.607562,
    "lng": 127.029209,
    "name": "현대백화점별관주차장 버스정류장(08-874)"
  },
  {
    "id": "1913d3b0fecdafb2",
    "type": "bin",
    "lat": 37.614165,
    "lng": 127.064926,
    "name": "우리은행 앞 광장"
  },
  {
    "id": "cd3b0cb4852127c4",
    "type": "bin",
    "lat": 37.59065,
    "lng": 127.036213,
    "name": "고려대역 1번출구"
  },
  {
    "id": "dc7be037f3b4d204",
    "type": "bin",
    "lat": 37.60145,
    "lng": 127.032724,
    "name": "종암사거리입구 버스정류장(08-150)"
  },
  {
    "id": "510c8def0d1874a7",
    "type": "bin",
    "lat": 37.60929,
    "lng": 127.021034,
    "name": "길음1동주민센터.길음중앙새마을금고앞 버스정류장(08-786)"
  },
  {
    "id": "502fc15a9d1f666d",
    "type": "bin",
    "lat": 37.607246,
    "lng": 127.021634,
    "name": "길음시장입구 버스정류장(08-662)"
  },
  {
    "id": "f87de9248f270c52",
    "type": "bin",
    "lat": 37.606606,
    "lng": 127.021716,
    "name": "래미안821동앞 버스정류장(08-529)"
  },
  {
    "id": "9f3692a64f4523e4",
    "type": "bin",
    "lat": 37.585869,
    "lng": 127.0188,
    "name": "보문역 버스정류장(08-179)"
  },
  {
    "id": "4d083ae53669bc13",
    "type": "bin",
    "lat": 37.585109,
    "lng": 127.031429,
    "name": "우신향병원 버스정류장(08-157)"
  },
  {
    "id": "6ab55d2d2b1abee9",
    "type": "bin",
    "lat": 37.594179,
    "lng": 127.036206,
    "name": "숭례초등학교 버스정류장(08-155)"
  },
  {
    "id": "dc7b2b25d4db8e8f",
    "type": "bin",
    "lat": 37.608697,
    "lng": 126.998974,
    "name": "청덕초등학교 버스정류장(08-111)"
  },
  {
    "id": "78a9dce08fc761a4",
    "type": "bin",
    "lat": 37.611763,
    "lng": 127.035952,
    "name": "창문여고 버스정류장(08-102)"
  },
  {
    "id": "599f895a090698ff",
    "type": "bin",
    "lat": 37.602274,
    "lng": 127.024066,
    "name": "길음역 버스정류장(08-124)"
  },
  {
    "id": "306185eebdd932d1",
    "type": "bin",
    "lat": 37.605813,
    "lng": 127.027388,
    "name": "월곡뉴타운 버스정류장(08-002)"
  },
  {
    "id": "87b5c5b389021164",
    "type": "bin",
    "lat": 37.606752,
    "lng": 127.027864,
    "name": "월곡뉴타운 버스정류장(08-001)"
  },
  {
    "id": "a9f8b8fe43cf78ad",
    "type": "bin",
    "lat": 37.603756,
    "lng": 127.024224,
    "name": "길음뉴타운 버스정류장(08-003)"
  },
  {
    "id": "d3c3f8f02efcf935",
    "type": "bin",
    "lat": 37.603288,
    "lng": 127.02374,
    "name": "길음뉴타운 버스정류장(08-004)"
  },
  {
    "id": "e860920cd707e0fb",
    "type": "bin",
    "lat": 37.602493,
    "lng": 127.041151,
    "name": "월곡역 2번출구"
  },
  {
    "id": "443ecbf19059f34c",
    "type": "bin",
    "lat": 37.602124,
    "lng": 127.019152,
    "name": "정릉길음시장 버스정류장(08-121)"
  },
  {
    "id": "4ff6666028bb4c99",
    "type": "bin",
    "lat": 37.599339,
    "lng": 127.034048,
    "name": "종암동주민센터 버스정류장(08-152)"
  },
  {
    "id": "8fd1f6bffa4292b4",
    "type": "bin",
    "lat": 37.59503,
    "lng": 127.036199,
    "name": "청진동해장국 앞"
  },
  {
    "id": "23d2291ac5278730",
    "type": "bin",
    "lat": 37.58947,
    "lng": 127.00522,
    "name": "삼선교.성북문화원 버스정류장(08-237)"
  },
  {
    "id": "6b5760b6cc210211",
    "type": "bin",
    "lat": 37.602441,
    "lng": 127.01342,
    "name": "정릉입구 버스정류장(08-263)"
  },
  {
    "id": "db4074bd39cd1e65",
    "type": "bin",
    "lat": 37.602918,
    "lng": 127.013689,
    "name": "정릉입구 버스정류장(08-264)"
  },
  {
    "id": "56f500d67dce7a0c",
    "type": "bin",
    "lat": 37.60422,
    "lng": 127.037684,
    "name": "생명의전화 버스정류장(08-290)"
  },
  {
    "id": "eabf680bc302365c",
    "type": "bin",
    "lat": 37.604936,
    "lng": 127.03162,
    "name": "성가복지병원 버스정류장(08-148)"
  },
  {
    "id": "5d4e4248523c9f75",
    "type": "bin",
    "lat": 37.615095,
    "lng": 127.066719,
    "name": "석계역 버스정류장(08-147)"
  },
  {
    "id": "c01c77af8a4d6e58",
    "type": "bin",
    "lat": 37.596396,
    "lng": 127.015751,
    "name": "돈암2동주민센터입구.흥천사 버스정류장(08-268)"
  },
  {
    "id": "2fcf7e7927e31be6",
    "type": "bin",
    "lat": 37.605546,
    "lng": 127.047424,
    "name": "한국과학기술연구원입구 버스정류장(08-135)"
  },
  {
    "id": "6ddf433a2381b5ab",
    "type": "bin",
    "lat": 37.595079,
    "lng": 127.016162,
    "name": "명쭈3 앞"
  },
  {
    "id": "70746e08226483fa",
    "type": "bin",
    "lat": 37.585045,
    "lng": 127.0193,
    "name": "배스킨라빈스 앞"
  },
  {
    "id": "8ed9205cdebfc63a",
    "type": "bin",
    "lat": 37.602035,
    "lng": 127.037477,
    "name": "종암SK아파트 버스정류장(08-130)"
  },
  {
    "id": "e7dadbf3417e5c1c",
    "type": "bin",
    "lat": 37.606206,
    "lng": 127.066437,
    "name": "석관동코오롱아파트 버스정류장(08-197)"
  },
  {
    "id": "c6988673150feeb8",
    "type": "bin",
    "lat": 37.602435,
    "lng": 127.034667,
    "name": "KT월곡지사 버스정류장(08-128)"
  },
  {
    "id": "c3ddff7d1d0e6fc9",
    "type": "bin",
    "lat": 37.612895,
    "lng": 127.007058,
    "name": "솔샘사거리 버스정류장(08-324)"
  },
  {
    "id": "c64d9775c8e8604b",
    "type": "bin",
    "lat": 37.614849,
    "lng": 127.066847,
    "name": "석계역 4번 출구"
  },
  {
    "id": "197f44e2f2862bbf",
    "type": "bin",
    "lat": 37.594521,
    "lng": 127.035297,
    "name": "숭례초교 버스정류장(08-154)"
  },
  {
    "id": "603b006bcacd50dc",
    "type": "bin",
    "lat": 37.60382,
    "lng": 127.013291,
    "name": "숭덕초교 버스정류장(08-257)"
  },
  {
    "id": "229dea2e09923094",
    "type": "bin",
    "lat": 37.617699,
    "lng": 127.049802,
    "name": "장곡초교사거리 버스정류장(08-222)"
  },
  {
    "id": "0f4328f649b96d94",
    "type": "bin",
    "lat": 37.589468,
    "lng": 127.016822,
    "name": "성북구청 바람마당"
  },
  {
    "id": "ec7212c7c676f9d2",
    "type": "bin",
    "lat": 37.603751,
    "lng": 127.022464,
    "name": "서울·성북 미디어문화마루 앞"
  },
  {
    "id": "5dab1497af0e0b53",
    "type": "bin",
    "lat": 37.60504,
    "lng": 127.011356,
    "name": "정릉2동주민센터 버스정류장(08-118)"
  },
  {
    "id": "0be58055b8444a64",
    "type": "bin",
    "lat": 37.598152,
    "lng": 127.03261,
    "name": "문화공간 이육사 앞 공원"
  },
  {
    "id": "fa1a0297fb924855",
    "type": "bin",
    "lat": 37.601421,
    "lng": 127.041185,
    "name": "월곡역 교통섬"
  },
  {
    "id": "84c6c6e936dfd855",
    "type": "bin",
    "lat": 37.599373,
    "lng": 127.039227,
    "name": "래미안라센트아파트 103동 외부 서울자전거 따릉이 대여소"
  },
  {
    "id": "3bd40894b8a0b4fc",
    "type": "bin",
    "lat": 37.612113,
    "lng": 127.008592,
    "name": "북한산보국문역 1번출구"
  },
  {
    "id": "d4b684858d2cb080",
    "type": "bin",
    "lat": 37.618661,
    "lng": 127.048959,
    "name": "꿈의숲아이파크아파트 702동, 703동 사이 외부 인도"
  },
  {
    "id": "adc87b49ef6af1af",
    "type": "bin",
    "lat": 37.618002,
    "lng": 127.053308,
    "name": "래미안장위포레카운티아파트 110동 외부 쉼터"
  },
  {
    "id": "9d1c50679cabd1cb",
    "type": "bin",
    "lat": 37.620056,
    "lng": 127.051435,
    "name": "장위래미안퍼스트하이 상가 앞"
  },
  {
    "id": "0cc4b5cfccd8636c",
    "type": "bin",
    "lat": 37.606704,
    "lng": 127.066436,
    "name": "시온아트빌 앞"
  },
  {
    "id": "ab4e3456d8c593a3",
    "type": "bin",
    "lat": 37.610395,
    "lng": 127.005287,
    "name": "삼덕단지 버스정류장 앞"
  },
  {
    "id": "7471d5d388780076",
    "type": "bin",
    "lat": 37.609058,
    "lng": 127.015366,
    "name": "롯데캐슬 아파트 건너편 버스정류장"
  },
  {
    "id": "7fccd0282b86374c",
    "type": "bin",
    "lat": 37.619034,
    "lng": 127.045615,
    "name": "코오롱 하늘채 아파트 앞 버스정류장"
  },
  {
    "id": "720fbf898bc47d14",
    "type": "bin",
    "lat": 37.605049,
    "lng": 127.022009,
    "name": "길음뉴타운 8단지 앞"
  },
  {
    "id": "7030e213200bc22e",
    "type": "bin",
    "lat": 37.605445,
    "lng": 127.022222,
    "name": "길음뉴타운 우리은행 앞 버스정류장"
  },
  {
    "id": "88333f97794bd1cd",
    "type": "bin",
    "lat": 37.59377,
    "lng": 127.016453,
    "name": "아리랑호텔 동대문 앞 버스정류장"
  },
  {
    "id": "ca70aecec6a43b75",
    "type": "bin",
    "lat": 37.606507,
    "lng": 127.028219,
    "name": "힐스테이트 입구 버스 정류장"
  },
  {
    "id": "fe1ce684fb38bc6c",
    "type": "bin",
    "lat": 37.495173,
    "lng": 126.872676,
    "name": "구일우성아파트"
  },
  {
    "id": "f077d086113237fd",
    "type": "bin",
    "lat": 37.607313,
    "lng": 127.029312,
    "name": "성북 우체국 앞 인도"
  },
  {
    "id": "208937bcf7a394bc",
    "type": "bin",
    "lat": 37.587111,
    "lng": 127.026357,
    "name": "고대병원 버스정류장"
  },
  {
    "id": "59b27d276ffdf9d7",
    "type": "bin",
    "lat": 37.585638,
    "lng": 127.020008,
    "name": "보문역 버스정류장"
  },
  {
    "id": "ed2a90b701d32d61",
    "type": "bin",
    "lat": 37.585505,
    "lng": 127.020195,
    "name": "보문역 버스정류장"
  },
  {
    "id": "0e1f4c898befd97a",
    "type": "bin",
    "lat": 37.588698,
    "lng": 127.017294,
    "name": "성북구청 버스정류장"
  },
  {
    "id": "13f16f3baf729c3f",
    "type": "bin",
    "lat": 37.588165,
    "lng": 127.017289,
    "name": "성북구청 버스정류장"
  },
  {
    "id": "66c95d2c119e0070",
    "type": "bin",
    "lat": 37.588242,
    "lng": 127.00922,
    "name": "삼선시장 버스정류장"
  },
  {
    "id": "7ab9a94e9d245c17",
    "type": "bin",
    "lat": 37.591259,
    "lng": 127.02015,
    "name": "보문로34길 88 앞 인도"
  },
  {
    "id": "5549e10a172b1c2f",
    "type": "bin",
    "lat": 37.590659,
    "lng": 127.017025,
    "name": "동소문로20길 43 앞 인도"
  },