[
  {
    "id": "43d5485370e9b5d8",
    "type": "toilet",
    "lat": 37.57346,
    "lng": 126.98512,
    "name": "인사동마루 본관"
  },
  {
    "id": "791c407031498de1",
    "type": "toilet",
    "lat": 37.57616,
    "lng": 126.99479,
    "name": "동대문"
  },
  {
    "id": "eaf42161ba48358e",
    "type": "toilet",
    "lat": 37.57023,
    "lng": 127.00495,
    "name": "신진시장(만남의 장소)"
  },
  {
    "id": "4fdca16917561cb6",
    "type": "toilet",
    "lat": 37.57076,
    "lng": 126.96884,
    "name": "경희궁공원"
  },
  {
    "id": "b7274fb787506649",
    "type": "toilet",
    "lat": 37.57229,
    "lng": 126.99707,
    "name": "세운스퀘어(주얼리관)"
  },
  {
    "id": "197abc89c3548cc8",
    "type": "toilet",
    "lat": 37.58591,
    "lng": 126.98162,
    "name": "삼청동공중화장실"
  },
  {
    "id": "2537500b78e7730c",
    "type": "toilet",
    "lat": 37.57606,
    "lng": 127.01755,
    "name": "숭인공원"
  },
  {
    "id": "a51c5e6100961df2",
    "type": "toilet",
    "lat": 37.56836,
    "lng": 126.96749,
    "name": "강북삼성병원"
  },
  {
    "id": "12e62caafa27df20",
    "type": "toilet",
    "lat": 37.5739,
    "lng": 126.9921,
    "name": "한국색동박물관"
  },
  {
    "id": "ed70416a34abc534",
    "type": "toilet",
    "lat": 37.59633,
    "lng": 126.96435,
    "name": "자하문주유소"
  },
  {
    "id": "b3c2bc9c4fb5ae87",
    "type": "toilet",
    "lat": 37.5963,
    "lng": 126.97289,
    "name": "청운대안내소 공중화장실(청운대 안내소 앞)"
  },
  {
    "id": "018d79f283eb485f",
    "type": "toilet",
    "lat": 37.57496,
    "lng": 127.00929,
    "name": "성터교회"
  },
  {
    "id": "9f48587cd73ac528",
    "type": "toilet",
    "lat": 37.57352,
    "lng": 127.01449,
    "name": "종로구민회관"
  },
  {
    "id": "57d9e65d8a589ebd",
    "type": "toilet",
    "lat": 37.57558,
    "lng": 127.01241,
    "name": "산마루놀이터"
  },
  {
    "id": "0b9108462d311bcc",
    "type": "toilet",
    "lat": 37.57451,
    "lng": 126.96661,
    "name": "㈜대양씨앤씨 사직주유소"
  },
  {
    "id": "263677e0e16a049c",
    "type": "toilet",
    "lat": 37.56952,
    "lng": 126.9874,
    "name": "계원빌딩"
  },
  {
    "id": "84501ee731cdbcc9",
    "type": "toilet",
    "lat": 37.57741,
    "lng": 126.96114,
    "name": "인왕산등산로입구 공중화장실"
  },
  {
    "id": "5f98e8f8863a922f",
    "type": "toilet",
    "lat": 37.58968,
    "lng": 126.96542,
    "name": "인왕산 청운지구(3)(청운공원 어린이놀이터 화장실)"
  },
  {
    "id": "15ebaa9207890597",
    "type": "toilet",
    "lat": 37.57092,
    "lng": 127.00784,
    "name": "JW 매리어트 호텔"
  },
  {
    "id": "0ac93a4ed725d656",
    "type": "toilet",
    "lat": 37.59271,
    "lng": 126.98179,
    "name": "삼청테니스장"
  },
  {
    "id": "703f75dd126b5577",
    "type": "toilet",
    "lat": 37.57594,
    "lng": 126.96727,
    "name": "사직동 주민센터화장실"
  },
  {
    "id": "8121981aa2476b7e",
    "type": "toilet",
    "lat": 37.571563,
    "lng": 126.991876,
    "name": "종로3가역"
  },
  {
    "id": "1792ecd27d7533aa",
    "type": "toilet",
    "lat": 37.56997,
    "lng": 126.98278,
    "name": "SK본사"
  },
  {
    "id": "3b52652c586cd843",
    "type": "toilet",
    "lat": 37.57841,
    "lng": 126.98316,
    "name": "안동교회"
  },
  {
    "id": "a564adc96ec46f2e",
    "type": "toilet",
    "lat": 37.58237,
    "lng": 126.98421,
    "name": "락고재 북촌빈관(서울공공한옥)"
  },
  {
    "id": "f0a61a5f745f106b",
    "type": "toilet",
    "lat": 37.56925,
    "lng": 126.96545,
    "name": "서대문교회"
  },
  {
    "id": "de29f8e43fb2abf8",
    "type": "toilet",
    "lat": 37.57359,
    "lng": 126.9721,
    "name": "경희궁의 아침 3단지"
  },
  {
    "id": "5309c4814d0dbc80",
    "type": "toilet",
    "lat": 37.60637,
    "lng": 126.96834,
    "name": "평창동주민센터"
  },
  {
    "id": "5714db716cb57314",
    "type": "toilet",
    "lat": 37.57209,
    "lng": 126.98544,
    "name": "하나로빌딩"
  },
  {
    "id": "7f966dbbfc2f9a98",
    "type": "toilet",
    "lat": 37.58499,
    "lng": 126.98188,
    "name": "삼청동 주민센터"
  },
  {
    "id": "c7b507e71f5f94b0",
    "type": "toilet",
    "lat": 37.5743,
    "lng": 126.98269,
    "name": "우정총국시민광장"
  },
  {
    "id": "fff90679561a9ebe",
    "type": "toilet",
    "lat": 37.57315,
    "lng": 127.01512,
    "name": "맥도날드 서울동묘앞역점"
  },
  {
    "id": "3b9d01b74c9e4ac9",
    "type": "toilet",
    "lat": 37.57009,
    "lng": 126.99608,
    "name": "광장시장 1층 청과부"
  },
  {
    "id": "fa1e1879089f550c",
    "type": "toilet",
    "lat": 37.58009,
    "lng": 127.00299,
    "name": "맥도날드(대학로)"
  },
  {
    "id": "30bc7dcc8d1b4485",
    "type": "toilet",
    "lat": 37.58019,
    "lng": 127.008,
    "name": "낙산공원 정상"
  },
  {
    "id": "8a9b0c1bbec8caed",
    "type": "toilet",
    "lat": 37.58011,
    "lng": 126.96367,
    "name": "누상동체육시설 공중화장실"
  },
  {
    "id": "68207cd4f4fba34b",
    "type": "toilet",
    "lat": 37.57428,
    "lng": 126.96468,
    "name": "종로문화체육센터"
  },
  {
    "id": "17f17a7cf8e9ff14",
    "type": "toilet",
    "lat": 37.58077,
    "lng": 126.96995,
    "name": "통인시장 고객만족센터"
  },
  {
    "id": "8fa38f8627b573a4",
    "type": "toilet",
    "lat": 37.58177,
    "lng": 126.96926,
    "name": "보건소"
  },
  {
    "id": "b9d57439e23867ae",
    "type": "toilet",
    "lat": 37.57042,
    "lng": 126.99938,
    "name": "광장시장(합동,화창빌딩)"
  },
  {
    "id": "057c9635bbbd6c56",
    "type": "toilet",
    "lat": 37.561159,
    "lng": 126.994398,
    "name": "동대문역"
  },
  {
    "id": "9ac20fc0dbba8515",
    "type": "toilet",
    "lat": 37.566412,
    "lng": 126.994185,
    "name": "안국역"
  },
  {
    "id": "dd18b9fe6003e8e2",
    "type": "toilet",
    "lat": 37.573281,
    "lng": 127.016649,
    "name": "동묘앞역"
  },
  {
    "id": "8e38e50c2f630759",
    "type": "toilet",
    "lat": 37.56994,
    "lng": 126.98811,
    "name": "버거킹(종로점)"
  },
  {
    "id": "fe8bca11cc619f10",
    "type": "toilet",
    "lat": 37.59103,
    "lng": 126.96627,
    "name": "인왕산 청운지구(2)(청운공원 화장실)"
  },
  {
    "id": "ec948e6e3cf59a6c",
    "type": "toilet",
    "lat": 37.57258,
    "lng": 126.98781,
    "name": "허리우드극장(낙원상가4층)"
  },
  {
    "id": "343a0b84bda5dc64",
    "type": "toilet",
    "lat": 37.568666,
    "lng": 126.969794,
    "name": "광화문역"
  },
  {
    "id": "dde8e9d1aad906ed",
    "type": "toilet",
    "lat": 37.57206,
    "lng": 127.00503,
    "name": "종로5-6가동주민센터"
  },
  {
    "id": "86ac927d11127901",
    "type": "toilet",
    "lat": 37.58049,
    "lng": 127.00272,
    "name": "마로니에공원(지하1층)"
  },
  {
    "id": "363e0e7dfacc0b34",
    "type": "toilet",
    "lat": 37.61164,
    "lng": 126.96861,
    "name": "참샘골공원 공중화장실"
  },
  {
    "id": "13bae855cf1195cd",
    "type": "toilet",
    "lat": 37.57061,
    "lng": 127.00735,
    "name": "종합시장D동상가 본관지하1층"
  },
  {
    "id": "4c58c3bfaf6a17ed",
    "type": "toilet",
    "lat": 37.582044,
    "lng": 127.01945,
    "name": "혜화역"
  },
  {
    "id": "928c3329f117964a",
    "type": "toilet",
    "lat": 37.57338,
    "lng": 126.97592,
    "name": "세종로공영주차장"
  },
  {
    "id": "5bff4e79423c6ce8",
    "type": "toilet",
    "lat": 37.57446,
    "lng": 127.01086,
    "name": "창신2동 주민센터"
  },
  {
    "id": "c8c540e31711988c",
    "type": "toilet",
    "lat": 37.58241,
    "lng": 126.98586,
    "name": "동림매듭박물관"
  },
  {
    "id": "ed05b22af0e01c2a",
    "type": "toilet",
    "lat": 37.57473,
    "lng": 126.98656,
    "name": "라이온스 빌딩"
  },
  {
    "id": "29536866bef702f9",
    "type": "toilet",
    "lat": 37.56881,
    "lng": 126.96854,
    "name": "돈의문박물관마을안내소"
  },
  {
    "id": "03180804cf801b23",
    "type": "toilet",
    "lat": 37.58301,
    "lng": 126.96376,
    "name": "인왕산수목원약수터 공중화장실"
  },
  {
    "id": "29ef0d91dc59e5fc",
    "type": "toilet",
    "lat": 37.57224,
    "lng": 126.98814,
    "name": "경동빌딩(스타이발관)"
  },
  {
    "id": "1aa8bfb9ab57eaea",
    "type": "toilet",
    "lat": 37.57698,
    "lng": 127.00435,
    "name": "이화동주민센터"
  },
  {
    "id": "66b616ab3cea4afe",
    "type": "toilet",
    "lat": 37.57402,
    "lng": 126.98412,
    "name": "한국공예문화진흥원"
  },
  {
    "id": "0fb919e00ec17ffe",
    "type": "toilet",
    "lat": 37.57593,
    "lng": 126.95814,
    "name": "무악동주민센터"
  },
  {
    "id": "d5640f82bc01200f",
    "type": "toilet",
    "lat": 37.57008,
    "lng": 126.99046,
    "name": "맥도날드(종로3가)"
  },
  {
    "id": "a976b50447154e00",
    "type": "toilet",
    "lat": 37.57397,
    "lng": 126.97129,
    "name": "경희궁의아침 2단지"
  },
  {
    "id": "5d2cefa52abef2ad",
    "type": "toilet",
    "lat": 37.57166,
    "lng": 126.97534,
    "name": "변호사회관"
  },
  {
    "id": "ed34e9456d89671f",
    "type": "toilet",
    "lat": 37.58347,
    "lng": 126.99985,
    "name": "CGV 대학로점 2F"
  },
  {
    "id": "2e8b4fa282aff919",
    "type": "toilet",
    "lat": 37.60439,
    "lng": 126.95799,
    "name": "동익상가(상명대후문쪽)"
  },
  {
    "id": "d2d638c9877b64d2",
    "type": "toilet",
    "lat": 37.56986,
    "lng": 126.98147,
    "name": "서울글로벌센터"
  },
  {
    "id": "16889a61cd081426",
    "type": "toilet",
    "lat": 37.57697,
    "lng": 127.0099,
    "name": "동부여성문화센터"
  },
  {
    "id": "80d891dc8f2f7dc1",
    "type": "toilet",
    "lat": 37.57449,
    "lng": 126.99024,
    "name": "종로1234가동 주민센터"
  },
  {
    "id": "3e785b942f3b82f5",
    "type": "toilet",
    "lat": 37.59921,
    "lng": 126.95915,
    "name": "안풍주유소"
  },
  {
    "id": "38f560dd754c25c9",
    "type": "toilet",
    "lat": 37.57385,
    "lng": 126.98561,
    "name": "㈜인사아트프라자"
  },
  {
    "id": "cc92427053be910c",
    "type": "toilet",
    "lat": 37.57224,
    "lng": 126.97594,
    "name": "세종문화회관 화장실"
  },
  {
    "id": "9868c2341b496591",
    "type": "toilet",
    "lat": 37.57909,
    "lng": 126.98642,
    "name": "북촌문화센터"
  },
  {
    "id": "c1d9dbac26f48637",
    "type": "toilet",
    "lat": 37.571196,
    "lng": 126.991959,
    "name": "경복궁역"
  },
  {
    "id": "d350826066488aef",
    "type": "toilet",
    "lat": 37.59118,
    "lng": 126.99196,
    "name": "와룡공원 주변 공중화장실"
  },
  {
    "id": "2620a94a7355223f",
    "type": "toilet",
    "lat": 37.5712,
    "lng": 126.98836,
    "name": "탑골공원"
  },
  {
    "id": "b5e17261cd4e67a4",
    "type": "toilet",
    "lat": 37.5715,
    "lng": 126.99505,
    "name": "종묘공영주차장(주차시설운영처)"
  },
  {
    "id": "60d9504ec21ea12d",
    "type": "toilet",
    "lat": 37.60962,
    "lng": 126.95642,
    "name": "구기동공중화장실"
  },
  {
    "id": "0b846ca5c8753352",
    "type": "toilet",
    "lat": 37.56958,
    "lng": 126.98214,
    "name": "영풍빌딩"
  },
  {
    "id": "cd10654fbb43276c",
    "type": "toilet",
    "lat": 37.57258,
    "lng": 126.98048,
    "name": "버거킹(수송동점)"
  },
  {
    "id": "e974c5d4540d0518",
    "type": "toilet",
    "lat": 37.57629,
    "lng": 126.98928,
    "name": "주식회사 대양씨앤씨 경복궁주유소"
  },
  {
    "id": "3d52ff87cf18c043",
    "type": "toilet",
    "lat": 37.57111,
    "lng": 126.98139,
    "name": "월드그랑서울"
  },
  {
    "id": "308ef5cc0af4c010",
    "type": "toilet",
    "lat": 37.571743,
    "lng": 127.011169,
    "name": "종로5가역"
  },
  {
    "id": "10272bc569cd6d9e",
    "type": "toilet",
    "lat": 37.57046,
    "lng": 127.00108,
    "name": "광장전통시장 기부채납건물 1층"
  },
  {
    "id": "7d69b56573a6b46a",
    "type": "toilet",
    "lat": 37.57895,
    "lng": 126.98423,
    "name": "홍염장 공방"
  },
  {
    "id": "62e1da182da19372",
    "type": "toilet",
    "lat": 37.57293,
    "lng": 126.99947,
    "name": "여전도회관"
  },
  {
    "id": "523e6bc1079a2bf7",
    "type": "toilet",
    "lat": 37.59158,
    "lng": 126.99236,
    "name": "와룡공원(배드민턴장)"
  },
  {
    "id": "a0f00cdda894dcd5",
    "type": "toilet",
    "lat": 37.58609,
    "lng": 127.00107,
    "name": "㈜중앙에너비스 혜화지점"
  },
  {
    "id": "9c0669e048019fcf",
    "type": "toilet",
    "lat": 37.58322,
    "lng": 127.0044,
    "name": "대학로예술극장"
  },
  {
    "id": "7575ce5196757681",
    "type": "toilet",
    "lat": 37.57822,
    "lng": 126.96044,
    "name": "인왕산 무악지구 공중화장실(인왕사 화장실)"
  },
  {
    "id": "051394eafcc1c498",
    "type": "toilet",
    "lat": 37.59135,
    "lng": 126.97183,
    "name": "창의문안내소 공중화장실(창의문 안내소 앞)"
  },
  {
    "id": "8801a0d7312596c7",
    "type": "toilet",
    "lat": 37.5715,
    "lng": 126.989059,
    "name": "종로3가역"
  },
  {
    "id": "20b21a95e1232daa",
    "type": "toilet",
    "lat": 37.58683,
    "lng": 127.00053,
    "name": "혜화동공중화장실(한옥청사)"
  },
  {
    "id": "28748a634acae27b",
    "type": "toilet",
    "lat": 37.60974,
    "lng": 126.97452,
    "name": "㈜지에스이앤알 평창주유소"
  },
  {
    "id": "ac6c886c83e9c4db",
    "type": "toilet",
    "lat": 37.57042,
    "lng": 126.992153,
    "name": "종로3가역"
  },
  {
    "id": "bd56a5f5a0c16774",
    "type": "toilet",
    "lat": 37.57423,
    "lng": 126.98601,
    "name": "인창빌딩"
  },
  {
    "id": "dc8599c86fbd048b",
    "type": "toilet",
    "lat": 37.57643,
    "lng": 126.98585,
    "name": "SK네트웍스㈜재동주유소"
  },
  {
    "id": "b75f47195f76e4ff",
    "type": "toilet",
    "lat": 37.578,
    "lng": 127.0147,
    "name": "창신3동 주민센터"
  },
  {
    "id": "df2993183e977f5a",
    "type": "toilet",
    "lat": 37.57172,
    "lng": 126.98608,
    "name": "남인사마당 공중화장실"
  },
  {
    "id": "5bca1ce58a14026a",
    "type": "toilet",
    "lat": 37.58256,
    "lng": 126.96299,
    "name": "수성동계곡 공중화장실"
  },
  {
    "id": "f7ebabbcfede0df5",
    "type": "toilet",
    "lat": 37.57866,
    "lng": 127.01739,
    "name": "숭인2지역 공중화장실"
  },
  {
    "id": "bff9f37ea4ee5db6",
    "type": "toilet",
    "lat": 37.58001,
    "lng": 126.96323,
    "name": "인왕산 누상지구 공중화장실(인왕 배드민턴장)"
  },
  {
    "id": "d27f0849b394f5f6",
    "type": "toilet",
    "lat": 37.57488,
    "lng": 127.01998,
    "name": "숭인2동 주민센터"
  },
  {
    "id": "692e1d54a2ae34a5",
    "type": "toilet",
    "lat": 37.57187,
    "lng": 126.96198,
    "name": "교남동주민센터"
  },
  {
    "id": "12c593e1379bf402",
    "type": "toilet",
    "lat": 37.5784,
    "lng": 126.98862,
    "name": "원서공원"
  },
  {
    "id": "106eb28f3ea54d53",
    "type": "toilet",
    "lat": 37.58011,
    "lng": 126.9848,
    "name": "가회동 주민센터화장실"
  },
  {
    "id": "8fbe45d55a4f39fd",
    "type": "toilet",
    "lat": 37.57698,
    "lng": 126.96486,
    "name": "사직경로당 옆 공중화장실"
  },
  {
    "id": "e9c6cf13b60edd93",
    "type": "toilet",
    "lat": 37.57865,
    "lng": 127.01761,
    "name": "숭인1지역 공중화장실"
  },
  {
    "id": "b1757add551d6710",
    "type": "toilet",
    "lat": 37.57013,
    "lng": 127.01554,
    "name": "동대문신발상가 B동, 3층"
  },
  {
    "id": "be61bf738a3287fb",
    "type": "toilet",
    "lat": 37.56577,
    "lng": 126.964461,
    "name": "서대문역"
  },
  {
    "id": "8e8f1f6b9805ecb0",
    "type": "toilet",
    "lat": 37.57264,
    "lng": 127.00128,
    "name": "종각"
  },
  {
    "id": "3f7ba02b1b127f43",
    "type": "toilet",
    "lat": 37.570175,
    "lng": 126.983226,
    "name": "종각역"
  },
  {
    "id": "8172bf5f5b056c74",
    "type": "toilet",
    "lat": 37.57298,
    "lng": 127.01833,
    "name": "동묘공원"
  },
  {
    "id": "008ec35b410151dc",
    "type": "toilet",
    "lat": 37.60669,
    "lng": 126.9711,
    "name": "구도일주유소(특종)"
  },
  {
    "id": "9e33bf08c577a4e6",
    "type": "toilet",
    "lat": 37.57613,
    "lng": 126.98713,
    "name": "운현궁 화장실"
  },
  {
    "id": "5eec87bfdb47c643",
    "type": "toilet",
    "lat": 37.56958,
    "lng": 126.99799,
    "name": "광장골목시장 수도직물(3층)"
  },
  {
    "id": "9bd15a302ed63b9f",
    "type": "toilet",
    "lat": 37.57522,
    "lng": 126.98598,
    "name": "수운회관"
  },
  {
    "id": "1078819d79caf2bc",
    "type": "toilet",
    "lat": 37.60169,
    "lng": 126.95562,
    "name": "GS25 상명대점"
  },
  {
    "id": "58f5a52ee01b2c4b",
    "type": "toilet",
    "lat": 37.5702,
    "lng": 127.00167,
    "name": "광장시장 동문 앞 공중화장실"
  },
  {
    "id": "ea737cedcbe23db9",
    "type": "toilet",
    "lat": 37.579361,
    "lng": 127.013092,
    "name": "창신역"
  },
  {
    "id": "1f2066494a80fb19",
    "type": "toilet",
    "lat": 37.58414,
    "lng": 126.9706,
    "name": "청운효자동주민센터"
  },
  {
    "id": "96eeceb1e57e4284",
    "type": "toilet",
    "lat": 37.57077,
    "lng": 127.01367,
    "name": "동대문 신발상가 A동  3층, 6층"
  },
  {
    "id": "34ce57377370c8d4",
    "type": "toilet",
    "lat": 37.58228,
    "lng": 126.98405,
    "name": "직물놀이공방"
  },
  {
    "id": "9336cd3463948f78",
    "type": "toilet",
    "lat": 37.57726,
    "lng": 127.00711,
    "name": "이화동한복(김영희 한복대여)"
  },
  {
    "id": "d093e577b0494e7c",
    "type": "toilet",
    "lat": 37.58869,
    "lng": 126.99554,
    "name": "명륜와룡공영주차장"
  },
  {
    "id": "984fc2d48c1d3519",
    "type": "toilet",
    "lat": 37.5912,
    "lng": 126.96619,
    "name": "인왕산 청운지구(1)(서시정 화장실)"
  },
  {
    "id": "8faec1f0d4a92552",
    "type": "toilet",
    "lat": 37.5694,
    "lng": 126.96998,
    "name": "신문로빌딩"
  },
  {
    "id": "10cdab52765709a2",
    "type": "toilet",
    "lat": 37.57356,
    "lng": 126.98493,
    "name": "인사동마루 신관"
  },
  {
    "id": "ef8a9a44f7cedcd8",
    "type": "toilet",
    "lat": 37.58101,
    "lng": 126.98666,
    "name": "계동교회"
  },
  {
    "id": "2a35192589e97e1c",
    "type": "toilet",
    "lat": 37.57405,
    "lng": 126.98432,
    "name": "토포하우스"
  },
  {
    "id": "5bdf686630c77e42",
    "type": "toilet",
    "lat": 37.57364,
    "lng": 126.98358,
    "name": "인사동홍보관"
  },
  {
    "id": "0899432b109a986b",
    "type": "toilet",
    "lat": 37.57884,
    "lng": 127.00855,
    "name": "창이놀이터"
  },
  {
    "id": "2ba16cf468a8e5e6",
    "type": "toilet",
    "lat": 37.59257,
    "lng": 126.96416,
    "name": "부암동 주민센터화장실"
  },
  {
    "id": "490a4d445c6de688",
    "type": "toilet",
    "lat": 37.58078,
    "lng": 126.98305,
    "name": "북촌마을안내소공중화장실"
  },
  {
    "id": "e0eb5507fddd9eb0",
    "type": "toilet",
    "lat": 37.58692,
    "lng": 127.00504,
    "name": "와룡공원(관리실옆)"
  },
  {
    "id": "98184fdebb8f5618",
    "type": "toilet",
    "lat": 37.57952,
    "lng": 126.99935,
    "name": "종로4가"
  },
  {
    "id": "a2287b3447f20b9e",
    "type": "toilet",
    "lat": 37.60154,
    "lng": 126.98006,
    "name": "북악팔각정 공중화장실"
  },
  {
    "id": "94eed3ef53b4dab8",
    "type": "toilet",
    "lat": 37.58188,
    "lng": 127.0023,
    "name": "KFC대학로점"
  },
  {
    "id": "c034dd1990ff76a5",
    "type": "toilet",
    "lat": 37.57198,
    "lng": 127.02006,
    "name": "숭인빌딩"
  },
  {
    "id": "6faaa21f6fbb9993",
    "type": "toilet",
    "lat": 37.57243,
    "lng": 127.01896,
    "name": "동묘시장공중화장실"
  },
  {
    "id": "6a5b44c889e30040",
    "type": "toilet",
    "lat": 37.57884,
    "lng": 127.00105,
    "name": "서울대학교 외래암센터내"
  },
  {
    "id": "b6e281c2e03f5c0e",
    "type": "toilet",
    "lat": 37.58235,
    "lng": 126.98551,
    "name": "북촌발효공방(빚담)"
  },
  {
    "id": "65bc2929ded655d2",
    "type": "toilet",
    "lat": 37.57843,
    "lng": 127.01254,
    "name": "창신동공중화장실"
  },
  {
    "id": "550588e791e31d34",
    "type": "toilet",
    "lat": 37.57888,
    "lng": 127.01463,
    "name": "지봉골어린이공원"
  },
  {
    "id": "cb91f9ce674a9e01",
    "type": "toilet",
    "lat": 37.57292,
    "lng": 126.97927,
    "name": "종로구청화장실"
  },
  {
    "id": "c2d053e0d992ebf7",
    "type": "toilet",
    "lat": 37.60987,
    "lng": 126.9749,
    "name": "SK북악주유소"
  },
  {
    "id": "cd6d1eacc5798ec7",
    "type": "toilet",
    "lat": 37.57795,
    "lng": 126.95691,
    "name": "무악동배드민턴장 공중화장실"
  },
  {
    "id": "e69d1613772fc88c",
    "type": "toilet",
    "lat": 37.57012,
    "lng": 127.00305,
    "name": "한일빌딩"
  },
  {
    "id": "143021feb862ce74",
    "type": "toilet",
    "lat": 37.572729,
    "lng": 127.013819,
    "name": "동묘앞역"
  },
  {
    "id": "752b12d93d0b953f",
    "type": "toilet",
    "lat": 37.5675,
    "lng": 126.9677,
    "name": "4.19도서관"
  },
  {
    "id": "f9b2aef6ec7c948a",
    "type": "toilet",
    "lat": 37.57674,
    "lng": 127.0046,
    "name": "베드로빌딩"
  },
  {
    "id": "3a7ba7742fb9666c",
    "type": "toilet",
    "lat": 37.57433,
    "lng": 126.98521,
    "name": "쌈지길(지상1,2층)"
  },
  {
    "id": "a9f2000ca30aa672",
    "type": "toilet",
    "lat": 37.58425,
    "lng": 126.97235,
    "name": "무궁화동산"
  },
  {
    "id": "8f136d8d0c0f04c4",
    "type": "toilet",
    "lat": 37.57498,
    "lng": 127.00984,
    "name": "창2공중화장실(창신1지역)"
  },
  {
    "id": "2a12291d9959e10f",
    "type": "toilet",
    "lat": 37.57672,
    "lng": 126.97154,
    "name": "서울생활문화센터 체부"
  },
  {
    "id": "3ae38741db7b0408",
    "type": "toilet",
    "lat": 37.576087,
    "lng": 127.02456,
    "name": "동대문역"
  },
  {
    "id": "33bda3be305b0cc7",
    "type": "toilet",
    "lat": 37.57201,
    "lng": 126.98857,
    "name": "원각사화장실"
  },
  {
    "id": "97ee07905ad9dfe5",
    "type": "toilet",
    "lat": 37.5858,
    "lng": 126.99574,
    "name": "유림회관(성균관)"
  },
  {
    "id": "ecb010649d6d72cc",
    "type": "toilet",
    "lat": 37.57799,
    "lng": 126.99219,
    "name": "창덕공원"
  },
  {
    "id": "0c296cc7dcaf6351",
    "type": "toilet",
    "lat": 37.59036,
    "lng": 126.99885,
    "name": "올림픽기념국민생활관"
  },
  {
    "id": "590e8e82b4e2ff90",
    "type": "toilet",
    "lat": 37.57016,
    "lng": 127.00126,
    "name": "광장시장 나들이 쉼터"
  },
  {
    "id": "c2ddc7a38497237d",
    "type": "toilet",
    "lat": 37.57137,
    "lng": 126.96591,
    "name": "서울자유시민대학 화장실"
  },
  {
    "id": "b5c40077265f18ab",
    "type": "toilet",
    "lat": 37.58304,
    "lng": 126.98933,
    "name": "북촌단청공방"
  },
  {
    "id": "cdf0ea107e874521",
    "type": "toilet",
    "lat": 37.57786,
    "lng": 127.00794,
    "name": "이화동 마을박물관"
  },
  {
    "id": "398d05259747bde3",
    "type": "toilet",
    "lat": 37.57307,
    "lng": 127.01378,
    "name": "백남준기념관"
  },
  {
    "id": "640f763d1a36703b",
    "type": "toilet",
    "lat": 37.58391,
    "lng": 127.00305,
    "name": "흥사단"
  },
  {
    "id": "8dbcaad42b6e16f7",
    "type": "toilet",
    "lat": 37.57077,
    "lng": 127.01632,
    "name": "창신1동 주민센터"
  },
  {
    "id": "f218f9e10310002a",
    "type": "toilet",
    "lat": 37.60262,
    "lng": 126.96194,
    "name": "신영동 빗물저류조 내 공중화장실"
  },
  {
    "id": "74435abc11f5c257",
    "type": "toilet",
    "lat": 37.57694,
    "lng": 126.9911,
    "name": "서울무형문화재교육전시장 화장실"
  },
  {
    "id": "a68cd00d9c61c566",
    "type": "toilet",
    "lat": 37.5828,
    "lng": 126.9873,
    "name": "목공예공방"
  },
  {
    "id": "ed4fa326ea4b891e",
    "type": "toilet",
    "lat": 37.58066,
    "lng": 127.00717,
    "name": "낙산공원 중앙광장"
  },
  {
    "id": "e7870c255914fd3e",
    "type": "toilet",
    "lat": 37.5686,
    "lng": 126.99225,
    "name": "관수교북단 공중화장실"
  },
  {
    "id": "2b823b7c50eea60b",
    "type": "toilet",
    "lat": 37.57784,
    "lng": 127.01564,
    "name": "숭인1동 주민센터"
  },
  {
    "id": "c60ede90ffc0c416",
    "type": "toilet",
    "lat": 37.58568,
    "lng": 126.96657,
    "name": "신교공영주차장"
  },
  {
    "id": "7f79974735792424",
    "type": "toilet",
    "lat": 37.57069,
    "lng": 126.98896,
    "name": "장애인통합회관 화장실"
  },
  {
    "id": "c907605a3bb55236",
    "type": "toilet",
    "lat": 37.57029,
    "lng": 127.0144,
    "name": "창신동쪽방상담소 화장실"
  },
  {
    "id": "2417310b19e9e9c8",
    "type": "toilet",
    "lat": 37.57216,
    "lng": 126.99116,
    "name": "돈의동쪽방상담소 화장실"
  },
  {
    "id": "f770da1c0aa09844",
    "type": "toilet",
    "lat": 37.58409,
    "lng": 126.96982,
    "name": "장애인복지관 화장실"
  },
  {
    "id": "2be75ffc1d9152b1",
    "type": "toilet",
    "lat": 37.57416,
    "lng": 127.00146,
    "name": "종로구립장애인근로사업장(더해봄)"
  },
  {
    "id": "3c7f1c9ac9db443c",
    "type": "toilet",
    "lat": 37.566055,
    "lng": 126.978786,
    "name": "시청A 지하상가"
  },
  {
    "id": "df8cb595e6fd4336",
    "type": "toilet",
    "lat": 37.55213,
    "lng": 126.988033,
    "name": "목멱산방화장실"
  },
  {
    "id": "14106ca879a20d9d",
    "type": "toilet",
    "lat": 37.560928,
    "lng": 126.969684,
    "name": "서소문역사공원"
  },
  {
    "id": "55d9cfb0704bd57d",
    "type": "toilet",
    "lat": 37.561052,
    "lng": 126.985366,
    "name": "명동역"
  },
  {
    "id": "0aeac261682c9cde",
    "type": "toilet",
    "lat": 37.568702,
    "lng": 127.019355,
    "name": "신당C 지하상가"
  },
  {
    "id": "9474a811c047d23a",
    "type": "toilet",
    "lat": 37.558376,
    "lng": 127.006582,
    "name": "장충체육관A"
  },
  {
    "id": "1c1cc6d19fe67303",
    "type": "toilet",
    "lat": 37.566371,
    "lng": 126.998492,
    "name": "을지로4가역(5) 화장실"
  },
  {
    "id": "09d7d4a39cd4198e",
    "type": "toilet",
    "lat": 37.567519,
    "lng": 127.003722,
    "name": "훈련원공원주차장 지하 2층 중앙"
  },
  {
    "id": "86b2f8e252e4705d",
    "type": "toilet",
    "lat": 37.552113,
    "lng": 126.988108,
    "name": "팔각정 입구"
  },
  {
    "id": "6d203bac065f82b9",
    "type": "toilet",
    "lat": 37.567388,
    "lng": 127.002771,
    "name": "훈련원공원주차장 지하 1층 중앙"
  },
  {
    "id": "da6c7044706292ff",
    "type": "toilet",
    "lat": 37.566684,
    "lng": 126.994217,
    "name": "을지3구역 지하상가"
  },
  {
    "id": "4e1278f3f7da7840",
    "type": "toilet",
    "lat": 37.565102,
    "lng": 127.005576,
    "name": "동대문역사문화공원역(5) 화장실"
  },
  {
    "id": "2f62843cf2d9871d",
    "type": "toilet",
    "lat": 37.566749,
    "lng": 127.00303,
    "name": "훈련원공원주차장 지하 1층 동측"
  },
  {
    "id": "8253826a349605ec",
    "type": "toilet",
    "lat": 37.555043,
    "lng": 127.016869,
    "name": "응봉근린공원(동산초교위)"
  },
  {
    "id": "4d9afde3b01f989b",
    "type": "toilet",
    "lat": 37.566718,
    "lng": 126.99655,
    "name": "을지로4가역(2) 화장실"
  },
  {
    "id": "5b9f8ac6978394d7",
    "type": "toilet",
    "lat": 37.554978,
    "lng": 126.98128,
    "name": "잠두체육회화장실"
  },
  {
    "id": "924156077872179a",
    "type": "toilet",
    "lat": 37.559406,
    "lng": 126.976208,
    "name": "남대문시장 공중화장실"
  },
  {
    "id": "db708f24ea7d0ff5",
    "type": "toilet",
    "lat": 37.566383,
    "lng": 126.990213,
    "name": "을지로3가역(2) 화장실"
  },
  {
    "id": "6542377f817bf293",
    "type": "toilet",
    "lat": 37.563727,
    "lng": 126.975438,
    "name": "시청역(2)(지하2층) 화장실"
  },
  {
    "id": "bb73056d10dab6a3",
    "type": "toilet",
    "lat": 37.565956,
    "lng": 127.008496,
    "name": "동대문역사문화공원역(2) 화장실"
  },
  {
    "id": "485b638e5652d4a2",
    "type": "toilet",
    "lat": 37.553465,
    "lng": 127.009158,
    "name": "약수역(6) 화장실"
  },
  {
    "id": "9a11e57da00b8ec5",
    "type": "toilet",
    "lat": 37.567543,
    "lng": 127.018122,
    "name": "황학동 공중화장실"
  },
  {
    "id": "779fa3b225ed9b19",
    "type": "toilet",
    "lat": 37.559051,
    "lng": 126.99404,
    "name": "남산골한옥마을 중앙화장실"
  },
  {
    "id": "185f1015fe57dcd4",
    "type": "toilet",
    "lat": 37.564433,
    "lng": 126.974669,
    "name": "시립미술관 서소문본관"
  },
  {
    "id": "a133127fdd4b538f",
    "type": "toilet",
    "lat": 37.561365,
    "lng": 126.982237,
    "name": "서울중앙우체국(포스트타워)"
  },
  {
    "id": "c2c5ce0aa8d1906b",
    "type": "toilet",
    "lat": 37.566991,
    "lng": 127.003366,
    "name": "을지4구역B 지하상가"
  },
  {
    "id": "b03aaddfea9d86c4",
    "type": "toilet",
    "lat": 37.5619,
    "lng": 127.007869,
    "name": "장충동주민센터"
  },
  {
    "id": "4e53ffa26f7dc822",
    "type": "toilet",
    "lat": 37.561378,
    "lng": 127.013799,
    "name": "신당2호 공중화장실"
  },
  {
    "id": "7d40e89fa9ab0944",
    "type": "toilet",
    "lat": 37.565144,
    "lng": 127.007915,
    "name": "동대문역사문화공원역"
  },
  {
    "id": "035b585cf49fc2d7",
    "type": "toilet",
    "lat": 37.558576,
    "lng": 127.003846,
    "name": "장충단공원"
  },
  {
    "id": "c76cd12f9eb1c6ba",
    "type": "toilet",
    "lat": 37.568049,
    "lng": 126.971562,
    "name": "정동근린공원"
  },
  {
    "id": "b2ad79d98e26bb9d",
    "type": "toilet",
    "lat": 37.561195,
    "lng": 126.977935,
    "name": "남대문지하상가"
  },
  {
    "id": "21d59dbfda77d18c",
    "type": "toilet",
    "lat": 37.560128,
    "lng": 126.995555,
    "name": "필동주민센터"
  },
  {
    "id": "b67f0e863c6f90a2",
    "type": "toilet",
    "lat": 37.566609,
    "lng": 126.977726,
    "name": "서울시청 본관 B1층 시민청 외부"
  },
  {
    "id": "4ef098f8e0c022e4",
    "type": "toilet",
    "lat": 37.554663,
    "lng": 126.98129,
    "name": "호현당화장실"
  },
  {
    "id": "eafae380bbc79059",
    "type": "toilet",
    "lat": 37.569172,
    "lng": 127.002089,
    "name": "청계5가 지하상가"
  },
  {
    "id": "36c8bf46231084f8",
    "type": "toilet",
    "lat": 37.566829,
    "lng": 127.002819,
    "name": "훈련원공원주차장 지하 2층 동측"
  },
  {
    "id": "70fbb7d761637a14",
    "type": "toilet",
    "lat": 37.553538,
    "lng": 127.002934,
    "name": "서울특별시 중부수도사업소"
  },
  {
    "id": "c438d3e3dbb70ed4",
    "type": "toilet",
    "lat": 37.55949,
    "lng": 127.005297,
    "name": "동대입구역(3) 화장실"
  },
  {
    "id": "40a6d2f53a8d0348",
    "type": "toilet",
    "lat": 37.561389,
    "lng": 126.994398,
    "name": "충무로역(4) 화장실"
  },
  {
    "id": "4f623207b46090ad",
    "type": "toilet",
    "lat": 37.563949,
    "lng": 126.98126,
    "name": "소공지하상가C"
  },
  {
    "id": "81ff4ebafe9d65f5",
    "type": "toilet",
    "lat": 37.567755,
    "lng": 127.016101,
    "name": "신당역(6) 화장실"
  },
  {
    "id": "c075f043bdf1a5b2",
    "type": "toilet",
    "lat": 37.559554,
    "lng": 127.012039,
    "name": "새싹마을마당"
  },
  {
    "id": "0b9d72cb3ca79633",
    "type": "toilet",
    "lat": 37.563969,
    "lng": 127.013366,
    "name": "신당1호 공중화장실"
  },
  {
    "id": "3919c546d5b211af",
    "type": "toilet",
    "lat": 37.565818,
    "lng": 126.976817,
    "name": "시청역(1) 화장실"
  },
  {
    "id": "fd56e037cd6c364b",
    "type": "toilet",
    "lat": 37.556178,
    "lng": 126.963789,
    "name": "봉래초등학교"
  },
  {
    "id": "7f554ee7ba41423d",
    "type": "toilet",
    "lat": 37.549009,
    "lng": 126.993313,
    "name": "석호정"
  },
  {
    "id": "52bbb2bde1696464",
    "type": "toilet",
    "lat": 37.556878,
    "lng": 126.972578,
    "name": "서울역(1) 화장실"
  },
  {
    "id": "2783250039379bd3",
    "type": "toilet",
    "lat": 37.560035,
    "lng": 126.988705,
    "name": "남산예장공영주차장 화장실"
  },
  {
    "id": "f88431bfcbe27bec",
    "type": "toilet",
    "lat": 37.534394,
    "lng": 126.973014,
    "name": "회현역"
  },
  {
    "id": "df5abee0492ac173",
    "type": "toilet",
    "lat": 37.557424,
    "lng": 127.009814,
    "name": "청구역(6) 화장실"
  },
  {
    "id": "33fa123922609ebc",
    "type": "toilet",
    "lat": 37.552088,
    "lng": 126.988086,
    "name": "1호터널"
  },
  {
    "id": "d059999c15564bf0",
    "type": "toilet",
    "lat": 37.566279,
    "lng": 126.982001,
    "name": "을지로입구역(2) 화장실"
  },
  {
    "id": "966223577fb5f8e8",
    "type": "toilet",
    "lat": 37.560813,
    "lng": 127.013293,
    "name": "청구역 공중화장실"
  },
  {
    "id": "ebabb1b3b569780f",
    "type": "toilet",
    "lat": 37.567397,
    "lng": 127.00354,
    "name": "훈련원근린공원"
  },
  {
    "id": "447c27bb4eaf8210",
    "type": "toilet",
    "lat": 37.569744,
    "lng": 127.046945,
    "name": "약수역(3) 화장실"
  },
  {
    "id": "3d8680420746240e",
    "type": "toilet",
    "lat": 37.564307,
    "lng": 127.006391,
    "name": "광희동 공중화장실"
  },
  {
    "id": "c8326655f99cbda9",
    "type": "toilet",
    "lat": 37.554856,
    "lng": 127.01435,
    "name": "청구어린이공원"
  },
  {
    "id": "2d62d6d330aa08f3",
    "type": "toilet",
    "lat": 37.556875,
    "lng": 126.964401,
    "name": "충정녹지대"
  },
  {
    "id": "cf643eb3c051fde9",
    "type": "toilet",
    "lat": 37.561094,
    "lng": 126.985291,
    "name": "명동역지하상가"
  },
  {
    "id": "61b3a2ff4ab22bfd",
    "type": "toilet",
    "lat": 37.563781,
    "lng": 126.999801,
    "name": "묵정어린이공원"
  },
  {
    "id": "e2abea8c7a78d5b4",
    "type": "toilet",
    "lat": 37.550425,
    "lng": 127.013402,
    "name": "응봉근린공원(관리실 옆)"
  },
  {
    "id": "93bc7335bfcddf9a",
    "type": "toilet",
    "lat": 37.566343,
    "lng": 126.983963,
    "name": "을지입구 지하상가"
  },
  {
    "id": "ac9b0db0bf80fb0f",
    "type": "toilet",
    "lat": 37.569369,
    "lng": 127.009612,
    "name": "청계6가 지하상가"
  },
  {
    "id": "1a4265bddcd7ea53",
    "type": "toilet",
    "lat": 37.554646,
    "lng": 126.99977,
    "name": "장충체육회"
  },
  {
    "id": "85629973313df1e5",
    "type": "toilet",
    "lat": 37.547892,
    "lng": 127.004934,
    "name": "버티고개역(6) 화장실"
  },
  {
    "id": "bc1f475540a806a1",
    "type": "toilet",
    "lat": 37.56665,
    "lng": 126.994228,
    "name": "을지로3가역(3) 화장실"
  },
  {
    "id": "ac10bab3a4a4610f",
    "type": "toilet",
    "lat": 37.563882,
    "lng": 127.018751,
    "name": "다산어린이공원"
  },
  {
    "id": "2e8e3a8d742b618f",
    "type": "toilet",
    "lat": 37.560687,
    "lng": 126.98264,
    "name": "회현지하상가"
  },
  {
    "id": "056399595f84f5f7",
    "type": "toilet",
    "lat": 37.564484,
    "lng": 126.974719,
    "name": "서울시청 서소문청사 1층 로비"
  },
  {
    "id": "894e4d4019c48aed",
    "type": "toilet",
    "lat": 37.565553,
    "lng": 127.016672,
    "name": "신당역(2) 화장실"
  },
  {
    "id": "281fd466c6104eac",
    "type": "toilet",
    "lat": 37.567792,
    "lng": 126.98052,
    "name": "다동소공원"
  },
  {
    "id": "998d9bbda0274379",
    "type": "toilet",
    "lat": 37.557779,
    "lng": 126.969559,
    "name": "서울역(1) 화장실"
  },
  {
    "id": "e762567fb420cc40",
    "type": "toilet",
    "lat": 37.563281,
    "lng": 127.019825,
    "name": "한일유치원"
  },
  {
    "id": "2e8eca53d0017ffe",
    "type": "toilet",
    "lat": 37.553116,
    "lng": 126.833177,
    "name": "덕수중학교"
  },
  {
    "id": "80107510548561a6",
    "type": "toilet",
    "lat": 37.568929,
    "lng": 127.017233,
    "name": "성동공업고등학교"
  },
  {
    "id": "13c05f19a546f6d4",
    "type": "toilet",
    "lat": 37.564778,
    "lng": 127.006211,
    "name": "동대문역사문화공원역(5) 화장실"
  },
  {
    "id": "2e40c20a47ceddca",
    "type": "toilet",
    "lat": 37.548337,
    "lng": 127.006989,
    "name": "버티고개역(6) 화장실"
  },
  {
    "id": "b30992fcd4c83d22",
    "type": "toilet",
    "lat": 37.559276,
    "lng": 126.977241,
    "name": "회현역"
  },
  {
    "id": "55a68f7749fe8123",
    "type": "toilet",
    "lat": 37.560523,
    "lng": 127.013875,
    "name": "청구역(6) 화장실"
  },
  {
    "id": "8bc74162f7a53042",
    "type": "toilet",
    "lat": 37.55523,
    "lng": 127.010336,
    "name": "약수역(6) 화장실"
  },
  {
    "id": "529dac353f1d9eb8",
    "type": "toilet",
    "lat": 37.560425,
    "lng": 127.0143,
    "name": "흥인초등학교"
  },
  {
    "id": "e8b223f42966ec22",
    "type": "toilet",
    "lat": 37.564971,
    "lng": 126.988849,
    "name": "서울백병원"
  },
  {
    "id": "e0d761e642337f98",
    "type": "toilet",
    "lat": 37.554601,
    "lng": 127.011038,
    "name": "약수역(3) 화장실"
  },
  {
    "id": "7febe2c4abd3b4d5",
    "type": "toilet",
    "lat": 37.555396,
    "lng": 127.011928,
    "name": "신일유치원"
  },
  {
    "id": "03ebffb561ae4c26",
    "type": "toilet",
    "lat": 37.543128,
    "lng": 126.990189,
    "name": "이태원2 공중화장실"
  },
  {
    "id": "324d346b98fbd2a4",
    "type": "toilet",
    "lat": 37.534319,
    "lng": 126.988845,
    "name": "이태원1 공중화장실"
  },
  {
    "id": "0632d80bc2dc8891",
    "type": "toilet",
    "lat": 37.550424,
    "lng": 126.976134,
    "name": "후암4 공중화장실"
  },
  {
    "id": "242f3c4b6869e268",
    "type": "toilet",
    "lat": 37.534075,
    "lng": 126.992243,
    "name": "이태원3 공중화장실"
  },
  {
    "id": "385d3df487b086f5",
    "type": "toilet",
    "lat": 37.533931,
    "lng": 126.97033,
    "name": "삼각지차고 옆 공중화장실"
  },
  {
    "id": "dc1a132a11608654",
    "type": "toilet",
    "lat": 37.531029,
    "lng": 126.967869,
    "name": "삼영연립 공중화장실"
  },
  {
    "id": "ccdc2f8518b96fea",
    "type": "toilet",
    "lat": 37.523065,
    "lng": 126.961212,
    "name": "이촌로 공중화장실"
  },
  {
    "id": "0a23b3cd5306eac1",
    "type": "toilet",
    "lat": 37.531676,
    "lng": 126.968679,
    "name": "철길담장 옆 공중화장실"
  },
  {
    "id": "5f3c726319634e89",
    "type": "toilet",
    "lat": 37.533821,
    "lng": 126.963396,
    "name": "신계동 공중화장실"
  },
  {
    "id": "4a4e95c7eb96a7da",
    "type": "toilet",
    "lat": 37.545431,
    "lng": 126.9839,
    "name": "모자원 공중화장실"
  },
  {
    "id": "c64dee8942313e18",
    "type": "toilet",
    "lat": 37.554143,
    "lng": 127.050056,
    "name": "살곶이체육공원"
  },
  {
    "id": "8d8ebdcb74196577",
    "type": "toilet",
    "lat": 37.566304,
    "lng": 127.045729,
    "name": "마장어린이공원"
  },
  {
    "id": "25a3159bdfb0d867",
    "type": "toilet",
    "lat": 37.552707,
    "lng": 127.06647,
    "name": "송정농구장"
  },
  {
    "id": "482127c6d1393f15",
    "type": "toilet",
    "lat": 37.32405,
    "lng": 127.03215,
    "name": "경수중학교 화장실"
  },
  {
    "id": "6ab5944596681dfb",
    "type": "toilet",
    "lat": 37.554,
    "lng": 127.0468,
    "name": "살곶이 인라인스케이트장"
  },
  {
    "id": "2fe725b467655f36",
    "type": "toilet",
    "lat": 37.554352,
    "lng": 127.047948,
    "name": "살곶이 진입부"
  },
  {
    "id": "4bea9d4b2657fb5d",
    "type": "toilet",
    "lat": 37.552506,
    "lng": 127.028568,
    "name": "대현산관리사무소"
  },
  {
    "id": "4cc99a1fca9cd973",
    "type": "toilet",
    "lat": 37.540416,
    "lng": 127.051585,
    "name": "성수공업고등학교 화장실"
  },
  {
    "id": "0614106e1e4e7f3d",
    "type": "toilet",
    "lat": 37.54609,
    "lng": 127.021846,
    "name": "서울옥수초등학교 화장실"
  },
  {
    "id": "ed30ee75175130c7",
    "type": "toilet",
    "lat": 37.553099,
    "lng": 127.017867,
    "name": "금호산(부대입구)"
  },
  {
    "id": "2681e2d2c3490af1",
    "type": "toilet",
    "lat": 37.553217,
    "lng": 127.029627,
    "name": "대현산자율방범초소뒤(간)"
  },
  {
    "id": "d9940c47024f230d",
    "type": "toilet",
    "lat": 37.545779,
    "lng": 127.00877,
    "name": "매봉산 지하수 옆"
  },
  {
    "id": "bd225c54c9d1caee",
    "type": "toilet",
    "lat": 37.550851,
    "lng": 127.029211,
    "name": "독서당공원"
  },
  {
    "id": "359628af234b00c7",
    "type": "toilet",
    "lat": 37.553132,
    "lng": 127.028349,
    "name": "새말빗물펌프장"
  },
  {
    "id": "228b0101938572fd",
    "type": "toilet",
    "lat": 37.557712,
    "lng": 127.02479,
    "name": "대림공원(논골새싹)"
  },
  {
    "id": "e161865ae85a08ce",
    "type": "toilet",
    "lat": 37.548964,
    "lng": 127.022424,
    "name": "금남시장뒤"
  },
  {
    "id": "ce69ef9bc4c5a334",
    "type": "toilet",
    "lat": 37.546404,
    "lng": 127.017636,
    "name": "서울금옥초등학교 화장실"
  },
  {
    "id": "79f239d8cc4d265b",
    "type": "toilet",
    "lat": 37.550067,
    "lng": 127.03477,
    "name": "응봉교아래"
  },
  {
    "id": "72997910e2ce913a",
    "type": "toilet",
    "lat": 37.55363,
    "lng": 127.042105,
    "name": "살곶이 궁터장"
  },
  {
    "id": "695d47baedbeeff4",
    "type": "toilet",
    "lat": 37.553969,
    "lng": 127.046822,
    "name": "자전거체험학습장"
  },
  {
    "id": "eb15f7733e85976d",
    "type": "toilet",
    "lat": 37.548604,
    "lng": 127.030995,
    "name": "응봉 자전거대여소"
  },
  {
    "id": "82ff572bb7cfc61a",
    "type": "toilet",
    "lat": 37.54729,
    "lng": 127.0386,
    "name": "성수중학교 본관 1층  화장실"
  },
  {
    "id": "03700dc3c73d2d02",
    "type": "toilet",
    "lat": 37.569826,
    "lng": 127.044108,
    "name": "송정제방"
  },
  {
    "id": "893b8ad7f99e1c34",
    "type": "toilet",
    "lat": 37.569702,
    "lng": 127.045151,
    "name": "마장체육공원"
  },
  {
    "id": "99e4168fdc6adb3a",
    "type": "toilet",
    "lat": 37.54306,
    "lng": 127.05044,
    "name": "서울경동초등학교 화장실"
  },
  {
    "id": "1691bf513982b020",
    "type": "toilet",
    "lat": 37.5449,
    "lng": 127.052516,
    "name": "성수근린공원"
  },
  {
    "id": "3d36ec793d60e869",
    "type": "toilet",
    "lat": 37.550149,
    "lng": 127.033742,
    "name": "서울응봉초등학교 화장실"
  },
  {
    "id": "f667fc3ceca95524",
    "type": "toilet",
    "lat": 37.55736,
    "lng": 127.03323,
    "name": "무학여자고등학교"
  },
  {
    "id": "abe9720bf65ae618",
    "type": "toilet",
    "lat": 37.562063,
    "lng": 127.043227,
    "name": "한양대학교사범대학부속고등학교 다목적강당 화장실"
  },
  {
    "id": "e8fcc186cd42bddd",
    "type": "toilet",
    "lat": 37.544083,
    "lng": 127.048053,
    "name": "경일고등학교화장실 화장실"
  },
  {
    "id": "108b07954c416ced",
    "type": "toilet",
    "lat": 37.551077,
    "lng": 127.033885,
    "name": "광희중학교 본관 1층 화장실"
  },
  {
    "id": "e9d0ca73053d141a",
    "type": "toilet",
    "lat": 37.565659,
    "lng": 127.046798,
    "name": "마장기사식당앞"
  },
  {
    "id": "8e33894f62bb041a",
    "type": "toilet",
    "lat": 37.561233,
    "lng": 127.042799,
    "name": "한양대학교사범대학부속고등학교 정보관 화장실"
  },
  {
    "id": "f40b23dc62574d70",
    "type": "toilet",
    "lat": 37.548409,
    "lng": 127.04063,
    "name": "뚝섬유수지 체육공원"
  },
  {
    "id": "110d039faef051b6",
    "type": "toilet",
    "lat": 37.563054,
    "lng": 127.056119,
    "name": "용답꽃공원"
  },
  {
    "id": "6dd5d6e8b5632130",
    "type": "toilet",
    "lat": 37.5531,
    "lng": 127.029,
    "name": "대현산자율방범초소뒤"
  },
  {
    "id": "14dac442eed68873",
    "type": "toilet",
    "lat": 37.553083,
    "lng": 127.023645,
    "name": "금호고등학교 화장실"
  },
  {
    "id": "61262adb6a9e7431",
    "type": "toilet",
    "lat": 37.551341,
    "lng": 127.037243,
    "name": "응봉테니스장"
  },
  {
    "id": "4ba6a2fe7ab69d0f",
    "type": "toilet",
    "lat": 37.548457,
    "lng": 127.03193,
    "name": "응봉산팔각정"
  },
  {
    "id": "0939396e12ba38d3",
    "type": "toilet",
    "lat": 37.568021,
    "lng": 127.042684,
    "name": "마장초등학교 화장실"
  },
  {
    "id": "d68ab92256509d51",
    "type": "toilet",
    "lat": 37.567789,
    "lng": 127.039427,
    "name": "마장축산물 한전뒤"
  },
  {
    "id": "9c24d885e0522648",
    "type": "toilet",
    "lat": 37.551557,
    "lng": 127.037294,
    "name": "응봉체육공원"
  },
  {
    "id": "4bdedc28b2763bb1",
    "type": "toilet",
    "lat": 37.542099,
    "lng": 127.060192,
    "name": "성삼공원"
  },
  {
    "id": "be17208d104dd4a2",
    "type": "toilet",
    "lat": 37.570982,
    "lng": 127.041164,
    "name": "마장축산물시장"
  },
  {
    "id": "275654776101307a",
    "type": "toilet",
    "lat": 37.553973,
    "lng": 127.046327,
    "name": "살곶이 인라인스케이트장"
  },
  {
    "id": "806edcfacf683a39",
    "type": "toilet",
    "lat": 37.545436,
    "lng": 127.020383,
    "name": "달맞이봉"
  },
  {
    "id": "a32fd3fc6d0ad5a0",
    "type": "toilet",
    "lat": 37.561556,
    "lng": 127.043597,
    "name": "한양대학교사범대학부속중학교(3관) 화장실"
  },
  {
    "id": "05eba265ab31dae7",
    "type": "toilet",
    "lat": 37.555343,
    "lng": 127.042158,
    "name": "덕수고등학교 본관 화장실"
  },
  {
    "id": "ee342608f8e3e3ef",
    "type": "toilet",
    "lat": 37.548157,
    "lng": 127.021337,
    "name": "금호3가경로당"
  },
  {
    "id": "4524661a95e9b568",
    "type": "toilet",
    "lat": 37.553588,
    "lng": 127.041916,
    "name": "왕십리문화공원"
  },
  {
    "id": "82623e4364ac3bf7",
    "type": "toilet",
    "lat": 37.548622,
    "lng": 127.030848,
    "name": "응봉암벽공원"
  },
  {
    "id": "33e5fb9625a128cf",
    "type": "toilet",
    "lat": 37.56177,
    "lng": 127.042687,
    "name": "한양대학교사범대학부속고등학교 본관 화장실"
  },
  {
    "id": "51308ddd3feef674",
    "type": "toilet",
    "lat": 37.544482,
    "lng": 127.063211,
    "name": "서울성수초등학교 화장실"
  },
  {
    "id": "1278a41897317757",
    "type": "toilet",
    "lat": 37.562011,
    "lng": 127.042884,
    "name": "한양대학교사범대학부속고등학교 애지관 화장실"
  },
  {
    "id": "88ed8d1c5ed9b618",
    "type": "toilet",
    "lat": 37.548154,
    "lng": 127.020507,
    "name": "금호4가(얼음가게)"
  },
  {
    "id": "1465891cf92888dc",
    "type": "toilet",
    "lat": 37.555715,
    "lng": 127.050325,
    "name": "살곶이 진출부"
  },
  {
    "id": "b6e8b84bc4caa8a7",
    "type": "toilet",
    "lat": 37.541634,
    "lng": 127.011938,
    "name": "옥정중학교  화장실"
  },
  {
    "id": "2e9ae2fded0ec32f",
    "type": "toilet",
    "lat": 37.5447,
    "lng": 127.0349,
    "name": "서울숲 커뮤니티센터(1층) 화장실"
  },
  {
    "id": "2d121ea2ff78ed95",
    "type": "toilet",
    "lat": 37.559276,
    "lng": 127.035994,
    "name": "소월아트홀광장"
  },
  {
    "id": "1cefea069a771bd0",
    "type": "toilet",
    "lat": 37.566104,
    "lng": 127.045757,
    "name": "한양대 앞"
  },
  {
    "id": "80bde437ed0cfe98",
    "type": "toilet",
    "lat": 37.561949,
    "lng": 127.027079,
    "name": "무학봉공원"
  },
  {
    "id": "ebb80b61735f1aea",
    "type": "toilet",
    "lat": 37.5591,
    "lng": 127.0358,
    "name": "소월아트홀광장"
  },
  {
    "id": "f45ab94783bdff4a",
    "type": "toilet",
    "lat": 37.554834,
    "lng": 127.069575,
    "name": "송정동주민센터"
  },
  {
    "id": "59356d2c2b765010",
    "type": "toilet",
    "lat": 37.55416,
    "lng": 127.029917,
    "name": "대현산체육관"
  },
  {
    "id": "7e2cf047b82cc7e6",
    "type": "toilet",
    "lat": 37.5537,
    "lng": 127.042,
    "name": "살곶이 궁터장"
  },
  {
    "id": "0bec32ea77f533eb",
    "type": "toilet",
    "lat": 37.569153,
    "lng": 127.045475,
    "name": "청계천 1호 화장실"
  },
  {
    "id": "f677b0e11c6ba84e",
    "type": "toilet",
    "lat": 37.537121,
    "lng": 127.007822,
    "name": "옥수종합사회복지관"
  },
  {
    "id": "959e5bfc20bacf35",
    "type": "toilet",
    "lat": 37.5482,
    "lng": 127.0318,
    "name": "응봉개나리어린이공원"
  },
  {
    "id": "6aca547e4d7332f0",
    "type": "toilet",
    "lat": 37.561732,
    "lng": 127.031183,
    "name": "왕십리제2동주민센터"
  },
  {
    "id": "fc8019a661b9f627",
    "type": "toilet",
    "lat": 37.5445,
    "lng": 127.0377,
    "name": "서울숲 수변휴게실 화장실"
  },
  {
    "id": "d6112896dc430f16",
    "type": "toilet",
    "lat": 37.54951,
    "lng": 127.018994,
    "name": "금호공원체육관"
  },
  {
    "id": "89fb74893ca54ce9",
    "type": "toilet",
    "lat": 37.5422,
    "lng": 127.06,
    "name": "성삼공원"
  },
  {
    "id": "945ffa64440e4a1b",
    "type": "toilet",
    "lat": 37.5527,
    "lng": 127.0665,
    "name": "송정농구장"
  },
  {
    "id": "ade83a4bc3aa1751",
    "type": "toilet",
    "lat": 37.5517,
    "lng": 127.0172,
    "name": "금호정"
  },
  {
    "id": "338dad2bd600a4e8",
    "type": "toilet",
    "lat": 37.54648,
    "lng": 127.044215,
    "name": "성수1가제2동공공복합청사(동주민센터)"
  },
  {
    "id": "52ae8107e2877b08",
    "type": "toilet",
    "lat": 37.5518,
    "lng": 127.0491,
    "name": "송정제방길"
  },
  {
    "id": "a96ad6ef6d325f29",
    "type": "toilet",
    "lat": 37.553194,
    "lng": 127.03346,
    "name": "응봉동주민센터 화장실"
  },
  {
    "id": "8f2399d262322a12",
    "type": "toilet",
    "lat": 37.5484,
    "lng": 127.0391,
    "name": "서울숲 습지생태원 화장실"
  },
  {
    "id": "b244e16803f22e98",
    "type": "toilet",
    "lat": 37.561862,
    "lng": 127.056777,
    "name": "성동구립용답체육센터"
  },
  {
    "id": "c1617e36ea8f9922",
    "type": "toilet",
    "lat": 37.5414,
    "lng": 127.0392,
    "name": "서울숲 곤충식물원(내부) 화장실"
  },
  {
    "id": "12280b7e5bf8df08",
    "type": "toilet",
    "lat": 37.554,
    "lng": 127.0504,
    "name": "살곶이체육공원"
  },
  {
    "id": "8989970d6353da4c",
    "type": "toilet",
    "lat": 37.5559,
    "lng": 127.0697,
    "name": "새말빗물펌프장"
  },
  {
    "id": "0b61d9ee7cb6bbd2",
    "type": "toilet",
    "lat": 37.562,
    "lng": 127.0272,
    "name": "무학봉근린공원"
  },
  {
    "id": "f166afd95742b2ec",
    "type": "toilet",
    "lat": 37.5539,
    "lng": 127.0273,
    "name": "대현산관리사무소"
  },
  {
    "id": "30f574044d85a010",
    "type": "toilet",
    "lat": 37.5463,
    "lng": 127.0305,
    "name": "용비쉼터"
  },
  {
    "id": "3f0aa12ff7034c87",
    "type": "toilet",
    "lat": 37.562277,
    "lng": 127.049344,
    "name": "청계천 3호 화장실"
  },
  {
    "id": "54b0b0df892b80ac",
    "type": "toilet",
    "lat": 37.5489,
    "lng": 127.0224,
    "name": "금남시장뒤"
  },
  {
    "id": "523b95d7ea937589",
    "type": "toilet",
    "lat": 37.5711,
    "lng": 127.0411,
    "name": "마장축산물시장"
  },
  {
    "id": "f99384b28d077df6",
    "type": "toilet",
    "lat": 37.543565,
    "lng": 127.013418,
    "name": "옥수동주민센터"
  },
  {
    "id": "0be3780ba0f3af64",
    "type": "toilet",
    "lat": 37.552537,
    "lng": 127.01966,
    "name": "열린금호교육문화관"
  },
  {
    "id": "bfb013cbec683a86",
    "type": "toilet",
    "lat": 37.56788,
    "lng": 127.025453,
    "name": "성동구립청계도서관(왕십리도선동복합청사)"
  },
  {
    "id": "35addc1ab1ead118",
    "type": "toilet",
    "lat": 37.546121,
    "lng": 127.025294,
    "name": "독서당인문아카데미센터"
  },
  {
    "id": "d3aea30eb827c69b",
    "type": "toilet",
    "lat": 37.5557,
    "lng": 127.0502,
    "name": "살곶이 진출부"
  },
  {
    "id": "e966e11239c688cb",
    "type": "toilet",
    "lat": 37.545574,
    "lng": 127.046936,
    "name": "성수문화복지회관"
  },
  {
    "id": "fa699c0dacefacb7",
    "type": "toilet",
    "lat": 37.542149,
    "lng": 127.049621,
    "name": "성수1가제1동주민센터"
  },
  {
    "id": "76890c6bdac00913",
    "type": "toilet",
    "lat": 37.54823,
    "lng": 127.05515,
    "name": "성수2가3동주민센터 화장실"
  },
  {
    "id": "da4cdf85497f4907",
    "type": "toilet",
    "lat": 37.5481,
    "lng": 127.0296,
    "name": "응봉산팔각정"
  },
  {
    "id": "261ef8600a5a9d28",
    "type": "toilet",
    "lat": 37.5432,
    "lng": 127.0399,
    "name": "서울숲 숲속놀이터 화장실"
  },
  {
    "id": "357021d05f3b7e5a",
    "type": "toilet",
    "lat": 37.578719,
    "lng": 126.813658,
    "name": "마장동주민센터"
  },
  {
    "id": "bbda968c8e34e3ae",
    "type": "toilet",
    "lat": 37.5573,
    "lng": 127.025,
    "name": "대림공원(논골새싹)"
  },
  {
    "id": "25fd777bfb970ece",
    "type": "toilet",
    "lat": 37.551,
    "lng": 127.0348,
    "name": "응봉 자전거대여소"
  },
  {
    "id": "96375151deeef202",
    "type": "toilet",
    "lat": 37.5656,
    "lng": 127.0468,
    "name": "마장기사식당앞"
  },
  {
    "id": "e02a1b7be92533b3",
    "type": "toilet",
    "lat": 37.5482,
    "lng": 127.0205,
    "name": "금호4가(얼음가게)"
  },
  {
    "id": "0840fc8a925d4cf6",
    "type": "toilet",
    "lat": 37.562032,
    "lng": 127.035469,
    "name": "왕십리119안전센터"
  },
  {
    "id": "1791417a2aebc933",
    "type": "toilet",
    "lat": 37.559235,
    "lng": 127.03495,
    "name": "성동구립도서관"
  },
  {
    "id": "5bb8eba84923ffe7",
    "type": "toilet",
    "lat": 37.5659,
    "lng": 127.0472,
    "name": "자전거체험학습장"
  },
  {
    "id": "362fd1523a63082b",
    "type": "toilet",
    "lat": 37.5509,
    "lng": 127.0292,
    "name": "독서당공원"
  },
  {
    "id": "0a9a3c21d887db22",
    "type": "toilet",
    "lat": 37.5606,
    "lng": 127.0644,
    "name": "용답어린이공원(매매센터)"
  },
  {
    "id": "69946fa40a00af04",
    "type": "toilet",
    "lat": 37.563319,
    "lng": 127.03686,
    "name": "서울특별시 성동구청사"
  },
  {
    "id": "6e4fceef586c13ad",
    "type": "toilet",
    "lat": 37.5461,
    "lng": 127.0414,
    "name": "서울숲 체육공원(시계탑) 화장실"
  },
  {
    "id": "90df46c5b2a3d519",
    "type": "toilet",
    "lat": 37.5544,
    "lng": 127.0479,
    "name": "살곶이 진입부"
  },
  {
    "id": "bfd79009cd764452",
    "type": "toilet",
    "lat": 37.543,
    "lng": 127.0416,
    "name": "서울숲 방문자센터 화장실"
  },
  {
    "id": "7835e36fdf6753bb",
    "type": "toilet",
    "lat": 37.567053,
    "lng": 127.033199,
    "name": "성동구보건소"
  },
  {
    "id": "6d643cb4356161f2",
    "type": "toilet",
    "lat": 37.549582,
    "lng": 127.041097,
    "name": "서울숲복합문화체육센터"
  },
  {
    "id": "1c579010ac6b2280",
    "type": "toilet",
    "lat": 37.5618,
    "lng": 127.0352,
    "name": "왕십리문화공원"
  },
  {
    "id": "4c0959b380738429",
    "type": "toilet",
    "lat": 37.5582,
    "lng": 127.0395,
    "name": "한양대 앞"
  },
  {
    "id": "9bd4dbff26413497",
    "type": "toilet",
    "lat": 37.5663,
    "lng": 127.0457,
    "name": "동마장어린이공원"
  },
  {
    "id": "7b66530693efe388",
    "type": "toilet",
    "lat": 37.5486,
    "lng": 127.0309,
    "name": "응봉암벽공원"
  },
  {
    "id": "f95b19da70df67f9",
    "type": "toilet",
    "lat": 37.55857,
    "lng": 127.03607,
    "name": "행당제1동주민센터"
  },
  {
    "id": "dd2ee17ab4e87614",
    "type": "toilet",
    "lat": 37.5605,
    "lng": 127.0549,
    "name": "용답꽃공원"
  },
  {
    "id": "2481c542b3ddffc4",
    "type": "toilet",
    "lat": 37.5491,
    "lng": 127.0595,
    "name": "송정제방"
  },
  {
    "id": "4c95db79dafe45f7",
    "type": "toilet",
    "lat": 37.5427,
    "lng": 127.0349,
    "name": "서울숲 생태숲 화장실"
  },
  {
    "id": "9705db409dc3dcb7",
    "type": "toilet",
    "lat": 37.5532,
    "lng": 127.0172,
    "name": "금호산(부대입구)"
  },
  {
    "id": "555a146ff15ad3ee",
    "type": "toilet",
    "lat": 37.55931,
    "lng": 127.0361,
    "name": "성동문화회관"
  },
  {
    "id": "3ebbe178d06db16b",
    "type": "toilet",
    "lat": 37.5512,
    "lng": 127.0369,
    "name": "응봉테니스장"
  },
  {
    "id": "f338c9b9502a5928",
    "type": "toilet",
    "lat": 37.554065,
    "lng": 127.024901,
    "name": "성동구립금호도서관"
  },
  {
    "id": "43b6dbabb5c6c45b",
    "type": "toilet",
    "lat": 37.554676,
    "lng": 127.04045,
    "name": "4차산업혁명체험센터"
  },
  {
    "id": "397a5da99b8bcb78",
    "type": "toilet",
    "lat": 37.5521,
    "lng": 127.0386,
    "name": "응봉체육공원"
  },
  {
    "id": "e41e805dd17260c2",
    "type": "toilet",
    "lat": 37.5414,
    "lng": 127.0399,
    "name": "서울숲 곤충식물원 화장실"
  },
  {
    "id": "03db66cc1ceacc87",
    "type": "toilet",
    "lat": 37.5457,
    "lng": 127.0109,
    "name": "매봉산 숲속도서관"
  },
  {
    "id": "5beafa9d5da6e62e",
    "type": "toilet",
    "lat": 37.54811,
    "lng": 127.0533,
    "name": "성동안심상가 화장실"
  },
  {
    "id": "c78384113748fc41",
    "type": "toilet",
    "lat": 37.5508,
    "lng": 127.0611,
    "name": "중량물재생센터 앞"
  },
  {
    "id": "5ce30402906e63ac",
    "type": "toilet",
    "lat": 37.5415,
    "lng": 127.0435,
    "name": "서울숲 주차장 화장실"
  },
  {
    "id": "c9770ed9af6d9ced",
    "type": "toilet",
    "lat": 37.537151,
    "lng": 127.060657,
    "name": "성수119안전센터"
  },
  {
    "id": "fa756f237940e396",
    "type": "toilet",
    "lat": 37.5458,
    "lng": 127.0087,
    "name": "매봉산 지하수 옆"
  },
  {
    "id": "9e84752270e1261e",
    "type": "toilet",
    "lat": 37.567881,
    "lng": 127.025529,
    "name": "왕십리도선동주민센터"
  },
  {
    "id": "2fe0881a65183a48",
    "type": "toilet",
    "lat": 37.5488,
    "lng": 127.0214,
    "name": "금호3가복지관(경로당)"
  },
  {
    "id": "928ececca0a0b92d",
    "type": "toilet",
    "lat": 37.545387,
    "lng": 127.046953,
    "name": "성수종합사회복지관"
  },
  {
    "id": "4102caab647b66e6",
    "type": "toilet",
    "lat": 37.559231,
    "lng": 127.035436,
    "name": "동부수도사업소 화장실"
  },
  {
    "id": "389ceef305dca718",
    "type": "toilet",
    "lat": 37.553836,
    "lng": 127.039505,
    "name": "성동소방서"
  },
  {
    "id": "a3dde257c94aecd0",
    "type": "toilet",
    "lat": 37.566684,
    "lng": 127.051332,
    "name": "성동구립용답도서관"
  },
  {
    "id": "6d95e82d1e0c27b2",
    "type": "toilet",
    "lat": 37.5541,
    "lng": 127.0284,
    "name": "대현산공원(간)"
  },
  {
    "id": "e6a9e61e7c8bbea5",
    "type": "toilet",
    "lat": 37.5452,
    "lng": 127.0204,
    "name": "달맞이봉(공원)"
  },
  {
    "id": "fb0c100b2dd1b6f9",
    "type": "toilet",
    "lat": 37.5431,
    "lng": 127.0419,
    "name": "서울숲 방문자센터(2층) 화장실"
  },
  {
    "id": "f652bb11082d2910",
    "type": "toilet",
    "lat": 37.545596,
    "lng": 127.025066,
    "name": "금호스포츠센터"
  },
  {
    "id": "bc129d6511ab3e22",
    "type": "toilet",
    "lat": 37.5445,
    "lng": 127.0523,
    "name": "성수근린공원"
  },
  {
    "id": "385cde2ccc1f7528",
    "type": "toilet",
    "lat": 37.571899,
    "lng": 127.038726,
    "name": "청계천 4호 화장실"
  },
  {
    "id": "15c00904c5da4b8f",
    "type": "toilet",
    "lat": 37.557,
    "lng": 127.039,
    "name": "행당6구역근린공원"
  },
  {
    "id": "a610d2cd48b2cdbe",
    "type": "toilet",
    "lat": 37.571614,
    "lng": 127.03604,
    "name": "서울시설공단 청사 1층화장실"
  },
  {
    "id": "081d41c0d14e38df",
    "type": "toilet",
    "lat": 37.5656,
    "lng": 127.0318,
    "name": "도선공영주차장"
  },
  {
    "id": "4e8a224ecb937d2d",
    "type": "toilet",
    "lat": 37.54565,
    "lng": 127.04442,
    "name": "성동구민종합체육센터 화장실"
  },
  {
    "id": "ffe64d4885e48858",
    "type": "toilet",
    "lat": 37.562118,
    "lng": 127.040765,
    "name": "마장국민체육센터"
  },
  {
    "id": "2f1ab726d3741c89",
    "type": "toilet",
    "lat": 37.554002,
    "lng": 127.024361,
    "name": "금호119안전센터"
  },
  {
    "id": "cfbbd5d6505bbb3f",
    "type": "toilet",
    "lat": 37.5702,
    "lng": 127.0472,
    "name": "용답휴식공원(신답역)"
  },
  {
    "id": "cb218df6b77a0cca",
    "type": "toilet",
    "lat": 37.5686,
    "lng": 127.0391,
    "name": "마장축산물 한전뒤"
  },
  {
    "id": "f9de8112a37cdc82",
    "type": "toilet",
    "lat": 37.545368,
    "lng": 127.047063,
    "name": "성동구립성수도서관(성수문화복지회관)"
  },
  {
    "id": "12bc63ae8fd04b03",
    "type": "toilet",
    "lat": 37.584382,
    "lng": 127.073839,
    "name": "중랑천 제3체육공원"
  },
  {
    "id": "c76ff9a46d1c2b91",
    "type": "toilet",
    "lat": 37.58411,
    "lng": 127.034212,
    "name": "장안종합사회복지관"
  },
  {
    "id": "292fd0eb884b7f3d",
    "type": "toilet",
    "lat": 37.569172,
    "lng": 127.076404,
    "name": "중랑천 제1체육공원"
  },
  {
    "id": "b5cd0b37069d8b45",
    "type": "toilet",
    "lat": 37.575393,
    "lng": 127.077446,
    "name": "중랑천 제2체육공원"
  },
  {
    "id": "0e38e37bafbfab58",
    "type": "toilet",
    "lat": 37.563521,
    "lng": 127.073471,
    "name": "중랑천 파크골프장"
  },
  {
    "id": "9d75e88c545dec6d",
    "type": "toilet",
    "lat": 37.602301,
    "lng": 127.071756,
    "name": "중랑천 제5체육공원"
  },
  {
    "id": "2752e7197d60f5cc",
    "type": "toilet",
    "lat": 37.58416,
    "lng": 127.03423,
    "name": "동대문종합사회복지관"
  },
  {
    "id": "9edda53b4b3da4a7",
    "type": "toilet",
    "lat": 37.592793,
    "lng": 127.06964,
    "name": "중랑천 제4체육공원"
  },
  {
    "id": "62353bdba1eb1302",
    "type": "toilet",
    "lat": 37.582908,
    "lng": 127.054821,
    "name": "동대문구 보훈회관"
  },
  {
    "id": "de6270f265eb464c",
    "type": "toilet",
    "lat": 37.58583,
    "lng": 127.1076,
    "name": "사색의길 화장실"
  },
  {
    "id": "4dea107aec4fb7cc",
    "type": "toilet",
    "lat": 37.5988,
    "lng": 127.1145,
    "name": "망우카페 화장실"
  },
  {
    "id": "dfd9cf5237867d56",
    "type": "toilet",
    "lat": 37.59856,
    "lng": 127.1146,
    "name": "제1주차장 화장실"
  },
  {
    "id": "7b53fd246fd3d9b6",
    "type": "toilet",
    "lat": 35.18848,
    "lng": 128.9904,
    "name": "고동바위공원"
  },
  {
    "id": "c83ad0f1a4ce4ec5",
    "type": "toilet",
    "lat": 37.61069,
    "lng": 127.040338,
    "name": "월곡청소년센터"
  },
  {
    "id": "b1b5f73be7188441",
    "type": "toilet",
    "lat": 37.610171,
    "lng": 127.06778,
    "name": "성북종합레포츠타운"
  },
  {
    "id": "b8472a1f44606c26",
    "type": "toilet",
    "lat": 37.614839,
    "lng": 127.050719,
    "name": "알뜰원천주유소 개방화장실"
  },
  {
    "id": "b4bc99383f7faa06",
    "type": "toilet",
    "lat": 37.603668,
    "lng": 127.040847,
    "name": "정평빌딩 개방화장실"
  },
  {
    "id": "a808ff6237c07849",
    "type": "toilet",
    "lat": 37.583113,
    "lng": 127.01957,
    "name": "광덕주유소 개방화장실"
  },
  {
    "id": "67de7a8e8f777e84",
    "type": "toilet",
    "lat": 37.612821,
    "lng": 127.070769,
    "name": "중랑천 이동식 공중화장실"
  },
  {
    "id": "6805dcf34a634496",
    "type": "toilet",
    "lat": 37.583928,
    "lng": 127.01899,
    "name": "육아종합지원센터(보문)"
  },
  {
    "id": "9768bf4086fb3174",
    "type": "toilet",
    "lat": 37.606715,
    "lng": 127.026344,
    "name": "길음종합사회복지관"
  },
  {
    "id": "ec4093281f7acfd5",
    "type": "toilet",
    "lat": 37.615538,
    "lng": 127.008281,
    "name": "성북청소년문화의집"
  },
  {
    "id": "76398218bf2f78d2",
    "type": "toilet",
    "lat": 37.616033,
    "lng": 127.0064,
    "name": "정릉파출소"
  },
  {
    "id": "51d6c18322aacee5",
    "type": "toilet",
    "lat": 37.619901,
    "lng": 127.03464,
    "name": "오동근린 공원화장실"
  },
  {
    "id": "29648857cbd77264",
    "type": "toilet",
    "lat": 37.585582,
    "lng": 127.031517,
    "name": "신방주유소 개방화장실"
  },
  {
    "id": "ab9afab3f3cf1552",
    "type": "toilet",
    "lat": 37.59101,
    "lng": 127.00134,
    "name": "성북동 주민센터"
  },
  {
    "id": "0c2f9b8e4e245c86",
    "type": "toilet",
    "lat": 37.618859,
    "lng": 127.005531,
    "name": "정릉1호 공중화장실"
  },
  {
    "id": "a09a1ef4c98a86da",
    "type": "toilet",
    "lat": 37.605431,
    "lng": 127.007893,
    "name": "북악주유소 개방화장실"
  },
  {
    "id": "95371edae53c588f",
    "type": "toilet",
    "lat": 37.589549,
    "lng": 127.022279,
    "name": "안암교회 개방화장실"
  },
  {
    "id": "ce65125f259fe5ee",
    "type": "toilet",
    "lat": 37.604396,
    "lng": 127.048893,
    "name": "서울국유림관리소"
  },
  {
    "id": "93a1a6a51f9bb907",
    "type": "toilet",
    "lat": 37.585331,
    "lng": 127.017197,
    "name": "보문역 공중화장실"
  },
  {
    "id": "e3f08915a812226c",
    "type": "toilet",
    "lat": 37.594056,
    "lng": 127.010497,
    "name": "해오름휘트니스센터"
  },
  {
    "id": "39e435f1349b7e5e",
    "type": "toilet",
    "lat": 37.585846,
    "lng": 127.021343,
    "name": "안암동 주민센터"
  },
  {
    "id": "21f463d0b5734f90",
    "type": "toilet",
    "lat": 37.600218,
    "lng": 127.019389,
    "name": "성심빌딩 개방화장실"
  },
  {
    "id": "7e7e57506068bc25",
    "type": "toilet",
    "lat": 37.600417,
    "lng": 127.014177,
    "name": "아리랑주유소 개방화장실"
  },
  {
    "id": "9311f09b0a031805",
    "type": "toilet",
    "lat": 37.61136,
    "lng": 127.013584,
    "name": "서경로꿈마루도서관"
  },
  {
    "id": "2c46343ca4f47e7c",
    "type": "toilet",
    "lat": 37.602699,
    "lng": 127.037347,
    "name": "성북구보건소"
  },
  {
    "id": "a59d68c4748536b4",
    "type": "toilet",
    "lat": 37.604788,
    "lng": 127.050374,
    "name": "성북정보도서관"
  },
  {
    "id": "203d42ef1d42db04",
    "type": "toilet",
    "lat": 37.589394,
    "lng": 127.007043,
    "name": "맥도날드 삼선점 개방화장실"
  },
  {
    "id": "62dda4091f45e311",
    "type": "toilet",
    "lat": 37.608853,
    "lng": 127.055082,
    "name": "석관파출소"
  },
  {
    "id": "c9b7a8426b5dea64",
    "type": "toilet",
    "lat": 37.614072,
    "lng": 127.043547,
    "name": "장위1동 주민센터"
  },
  {
    "id": "0219425094c6d518",
    "type": "toilet",
    "lat": 37.600064,
    "lng": 127.029244,
    "name": "성북구마을사회적경제센터"
  },
  {
    "id": "f28a5a4272c94bdb",
    "type": "toilet",
    "lat": 37.61189,
    "lng": 127.03974,
    "name": "월곡광장 공중화장실"
  },
  {
    "id": "0cf19cdbb14e5012",
    "type": "toilet",
    "lat": 37.602464,
    "lng": 126.997708,
    "name": "북악골프연습장"
  },
  {
    "id": "9939409474d6fc7e",
    "type": "toilet",
    "lat": 37.607276,
    "lng": 127.027157,
    "name": "성북우체국"
  },
  {
    "id": "3c51c3dd105a7165",
    "type": "toilet",
    "lat": 37.60453,
    "lng": 127.045539,
    "name": "성북장애인복지관"
  },
  {
    "id": "8235bd035d07c2e6",
    "type": "toilet",
    "lat": 37.615582,
    "lng": 127.055958,
    "name": "장위119 안전센터"
  },
  {
    "id": "7d906afa8ec705d7",
    "type": "toilet",
    "lat": 37.599066,
    "lng": 127.018805,
    "name": "정릉2차e아파트 상가개방화장실"
  },
  {
    "id": "f1be155404000cd7",
    "type": "toilet",
    "lat": 37.603245,
    "lng": 127.022765,
    "name": "길음역 공중화장실"
  },
  {
    "id": "30bd88a17b169691",
    "type": "toilet",
    "lat": 37.612807,
    "lng": 127.060659,
    "name": "우리주유소 개방화장실"
  },
  {
    "id": "aec71e738e7eb83a",
    "type": "toilet",
    "lat": 37.595524,
    "lng": 127.035602,
    "name": "에너비스 종암주유소 개방화장실"
  },
  {
    "id": "36a9e3aed8b8e1c6",
    "type": "toilet",
    "lat": 37.609429,
    "lng": 127.045406,
    "name": "상월곡동 공중화장실"
  },
  {
    "id": "f971165defb57e24",
    "type": "toilet",
    "lat": 37.593193,
    "lng": 126.998205,
    "name": "성북선잠박물관"
  },
  {
    "id": "3e1804676b578154",
    "type": "toilet",
    "lat": 37.612364,
    "lng": 127.0523,
    "name": "장위2동 주민센터"
  },
  {
    "id": "72cff03e2dc42e20",
    "type": "toilet",
    "lat": 37.594812,
    "lng": 126.992675,
    "name": "성북구립미술관"
  },
  {
    "id": "fea693d77bf662ad",
    "type": "toilet",
    "lat": 37.613335,
    "lng": 127.006446,
    "name": "정릉4동 주민센터"
  },
  {
    "id": "2a924462c6ab4862",
    "type": "toilet",
    "lat": 37.590829,
    "lng": 127.014687,
    "name": "삼선동 주민센터"
  },
  {
    "id": "8f725d89bc4d3d43",
    "type": "toilet",
    "lat": 37.604102,
    "lng": 127.04174,
    "name": "월곡꿈그림도서관"
  },
  {
    "id": "86cca2b9e20b7631",
    "type": "toilet",
    "lat": 37.604997,
    "lng": 127.030681,
    "name": "달빛마루도서관"
  },
  {
    "id": "25674ea759cf36bf",
    "type": "toilet",
    "lat": 37.612216,
    "lng": 127.00596,
    "name": "북한산보국문역 여객화장실"
  },
  {
    "id": "7c28c312b09d41fe",
    "type": "toilet",
    "lat": 37.603689,
    "lng": 37.603689,
    "name": "물빛수영장 화장실B1층"
  },
  {
    "id": "ff78843e9c99c202",
    "type": "toilet",
    "lat": 37.592847,
    "lng": 127.014271,
    "name": "성신여대입구역 공중화장실"
  },
  {
    "id": "a509ad5e92e45336",
    "type": "toilet",
    "lat": 37.586212,
    "lng": 127.027606,
    "name": "안암역 공중화장실 지하2층"
  },
  {
    "id": "ac65248df949b997",
    "type": "toilet",
    "lat": 37.613369,
    "lng": 127.065357,
    "name": "석관동미리내도서관"
  },
  {
    "id": "9299f2ea81bff3e5",
    "type": "toilet",
    "lat": 37.60442,
    "lng": 127.008943,
    "name": "정릉2동 주민센터"
  },
  {
    "id": "fb79495195d4bb09",
    "type": "toilet",
    "lat": 37.59614,
    "lng": 126.99372,
    "name": "성북2동 공중화장실"
  },
  {
    "id": "2e5b58fff8264499",
    "type": "toilet",
    "lat": 37.612196,
    "lng": 127.005494,
    "name": "정릉도서관"
  },
  {
    "id": "fca1fc3f71713666",
    "type": "toilet",
    "lat": 37.605134,
    "lng": 127.059424,
    "name": "의릉"
  },
  {
    "id": "90c9438a698130fc",
    "type": "toilet",
    "lat": 37.597234,
    "lng": 127.012175,
    "name": "돈암지구대"
  },
  {
    "id": "f2c04b7696402202",
    "type": "toilet",
    "lat": 37.61273,
    "lng": 127.00663,
    "name": "정릉어울림마당 공중화장실"
  },
  {
    "id": "26a6676686839a56",
    "type": "toilet",
    "lat": 37.580358,
    "lng": 127.022479,
    "name": "보문동 주민센터"
  },
  {
    "id": "a6759b4cc1087a9e",
    "type": "toilet",
    "lat": 37.610264,
    "lng": 127.020544,
    "name": "재정제2주유소 개방화장실"
  },
  {
    "id": "2d4998787e46cc22",
    "type": "toilet",
    "lat": 37.605627,
    "lng": 127.037831,
    "name": "육아종합지원센터(월곡)"
  },
  {
    "id": "48c7e506418ce8ef",
    "type": "toilet",
    "lat": 37.603037,
    "lng": 127.012184,
    "name": "정릉교회 개방화장실"
  },
  {
    "id": "fe31b2fc55d6bdc4",
    "type": "toilet",
    "lat": 37.607018,
    "lng": 127.033743,
    "name": "성북청소년미래지원센터"
  },
  {
    "id": "6a115b98ed0b3d9b",
    "type": "toilet",
    "lat": 37.607707,
    "lng": 127.027996,
    "name": "국민건강보험공단 성북지사"
  },
  {
    "id": "b60a538c230b37e4",
    "type": "toilet",
    "lat": 37.597713,
    "lng": 127.034224,
    "name": "성북노인종합복지관"
  },
  {
    "id": "ac384ca7a032caa2",
    "type": "toilet",
    "lat": 37.6014,
    "lng": 127.01442,
    "name": "정릉1동 주민센터"
  },
  {
    "id": "10cd9834a09cea3f",
    "type": "toilet",
    "lat": 37.611746,
    "lng": 127.010789,
    "name": "청수도서관"
  },
  {
    "id": "c620008c21a011ef",
    "type": "toilet",
    "lat": 37.608854,
    "lng": 127.041465,
    "name": "월곡구민운동장"
  },
  {
    "id": "c207b8c4d7e3200f",
    "type": "toilet",
    "lat": 37.610498,
    "lng": 127.033559,
    "name": "월곡1동 주민센터"
  },
  {
    "id": "50bd524a4249858e",
    "type": "toilet",
    "lat": 37.608919,
    "lng": 127.043698,
    "name": "월곡인조잔디구장"
  },
  {
    "id": "d30851f5e45f9cae",
    "type": "toilet",
    "lat": 37.601317,
    "lng": 127.039131,
    "name": "월곡역 공중화장실"
  },
  {
    "id": "a0b0171b12df7614",
    "type": "toilet",
    "lat": 37.600824,
    "lng": 127.010396,
    "name": "일신건영상가 개방화장실"
  },
  {
    "id": "9ff9f86017047a76",
    "type": "toilet",
    "lat": 37.613587,
    "lng": 127.058013,
    "name": "장삼주유소 개방화장실"
  },
  {
    "id": "21b18b954021f931",
    "type": "toilet",
    "lat": 37.609167,
    "lng": 127.007885,
    "name": "강산제2주유소 개방화장실"
  },
  {
    "id": "8c02191a0ae5fb0f",
    "type": "toilet",
    "lat": 37.59088,
    "lng": 127.012333,
    "name": "돈암119안전센터"
  },
  {
    "id": "2d835ae1dfded84c",
    "type": "toilet",
    "lat": 37.603191,
    "lng": 127.033005,
    "name": "종암박스파크"
  },
  {
    "id": "9d183f21258c70b1",
    "type": "toilet",
    "lat": 37.616385,
    "lng": 127.05468,
    "name": "장위3동 주민센터"
  },
  {
    "id": "e3568d6fe06525b8",
    "type": "toilet",
    "lat": 37.605207,
    "lng": 127.011821,
    "name": "정릉아동보건지소"
  },
  {
    "id": "5c3f4940c0c0e419",
    "type": "toilet",
    "lat": 37.597895,
    "lng": 127.021166,
    "name": "돈암마을마당 공중화장실"
  },
  {
    "id": "9a779fee9a6b6fb5",
    "type": "toilet",
    "lat": 37.601718,
    "lng": 127.038264,
    "name": "성북펜싱체육관"
  },
  {
    "id": "5c00388e45985ffa",
    "type": "toilet",
    "lat": 37.608818,
    "lng": 127.007903,
    "name": "청수프라자 1층 개방화장실"
  },
  {
    "id": "9b570e200dd19505",
    "type": "toilet",
    "lat": 37.61027,
    "lng": 127.05684,
    "name": "장위뉴타워 개방화장실"
  },
  {
    "id": "5618c7fdab7e7598",
    "type": "toilet",
    "lat": 37.603371,
    "lng": 127.024168,
    "name": "돈암1동 주민센터"
  },
  {
    "id": "346364b72052c02d",
    "type": "toilet",
    "lat": 37.593676,
    "lng": 127.017644,
    "name": "롯데리아 성신여대점 개방화장실"
  },
  {
    "id": "6d68e5a6938eca8f",
    "type": "toilet",
    "lat": 37.591555,
    "lng": 127.018249,
    "name": "성북구공정무역센터"
  },
  {
    "id": "ee92854da3a24c4b",
    "type": "toilet",
    "lat": 37.577977,
    "lng": 127.022713,
    "name": "강산주유소 개방화장실"
  },
  {
    "id": "48b53b5a25e8924d",
    "type": "toilet",
    "lat": 37.60538,
    "lng": 127.011583,
    "name": "금영빌딩 개방화장실"
  },
  {
    "id": "0ad83e0eb6e24888",
    "type": "toilet",
    "lat": 37.608744,
    "lng": 127.029209,
    "name": "GS세창주유소 개방화장실"
  },
  {
    "id": "f121d120d5edda93",
    "type": "toilet",
    "lat": 37.602368,
    "lng": 127.031602,
    "name": "성북소방서"
  },
  {
    "id": "e65707405148c2d9",
    "type": "toilet",
    "lat": 37.596552,
    "lng": 127.025958,
    "name": "개운산스포츠센터"
  },
  {
    "id": "528ff49f9face5b7",
    "type": "toilet",
    "lat": 37.61056,
    "lng": 127.017074,
    "name": "길음지구대"
  },
  {
    "id": "58cea26aa857de10",
    "type": "toilet",
    "lat": 37.600561,
    "lng": 127.011036,
    "name": "종암파출소"
  },
  {
    "id": "b10657157deccb91",
    "type": "toilet",
    "lat": 37.605217,
    "lng": 127.024491,
    "name": "기린빌딩 개방화장실"
  },
  {
    "id": "a4d586e845a3d450",
    "type": "toilet",
    "lat": 37.582772,
    "lng": 127.020187,
    "name": "동일주유소 개방화장실"
  },
  {
    "id": "04b6f04a4939a24b",
    "type": "toilet",
    "lat": 37.588012,
    "lng": 127.010581,
    "name": "성북세무서"
  },
  {
    "id": "6ed58f3515ff859a",
    "type": "toilet",
    "lat": 37.60153,
    "lng": 127.03899,
    "name": "종암마을마당 공중화장실"
  },
  {
    "id": "e5946510bed7e1f4",
    "type": "toilet",
    "lat": 37.604761,
    "lng": 127.010364,
    "name": "성북아동청소년센터"
  },
  {
    "id": "ceb8d5c01c0a0999",
    "type": "toilet",
    "lat": 37.588374,
    "lng": 127.003713,
    "name": "한성대입구역 공중화장실"
  },
  {
    "id": "8475b29d9d08dd1b",
    "type": "toilet",
    "lat": 37.606231,
    "lng": 127.046124,
    "name": "상월곡역 공중화장실"
  },
  {
    "id": "8c1b374a0fc583f3",
    "type": "toilet",
    "lat": 37.585442,
    "lng": 127.021389,
    "name": "안암동 공중화장실"
  },
  {
    "id": "be8b41556b5bdbf2",
    "type": "toilet",
    "lat": 37.608526,
    "lng": 127.042325,
    "name": "성북구민체육관"
  },
  {
    "id": "e8d7c7938555f1a0",
    "type": "toilet",
    "lat": 37.604044,
    "lng": 127.023641,
    "name": "길음환승주차장"
  },
  {
    "id": "397bad0e9d669363",
    "type": "toilet",
    "lat": 37.598366,
    "lng": 127.034377,
    "name": "롯데리아 종암점 개방화장실"
  },
  {
    "id": "a8eb02632bcbbee0",
    "type": "toilet",
    "lat": 37.618577,
    "lng": 127.045778,
    "name": "장위기사식당 개방화장실"
  },
  {
    "id": "f4d92ec1dc8a5091",
    "type": "toilet",
    "lat": 37.61989,
    "lng": 127.05395,
    "name": "우이천 공중화장실"
  },
  {
    "id": "cc46999b8f38e84b",
    "type": "toilet",
    "lat": 37.586866,
    "lng": 127.016525,
    "name": "안암지구대"
  },
  {
    "id": "7004f8b59c825c62",
    "type": "toilet",
    "lat": 37.610746,
    "lng": 126.993554,
    "name": "북악숲속 공중화장실"
  },
  {
    "id": "117695945fb9f152",
    "type": "toilet",
    "lat": 37.595398,
    "lng": 127.007908,
    "name": "성북구민회관"
  },
  {
    "id": "dbea1a3e3d3d5583",
    "type": "toilet",
    "lat": 37.604926,
    "lng": 127.046291,
    "name": "행복플러스 발달장애인센터"
  },
  {
    "id": "52119b2f6ebc7ba6",
    "type": "toilet",
    "lat": 37.593941,
    "lng": 127.018206,
    "name": "동선동 주민센터"
  },
  {
    "id": "10b9463f2438751d",
    "type": "toilet",
    "lat": 37.606638,
    "lng": 127.034391,
    "name": "월곡1동 공중화장실"
  },
  {
    "id": "290df0133605efaf",
    "type": "toilet",
    "lat": 37.589412,
    "lng": 127.014644,
    "name": "성북구청"
  },
  {
    "id": "95de573a35a251cd",
    "type": "toilet",
    "lat": 37.585703,
    "lng": 127.006963,
    "name": "성북정보화센터"
  },
  {
    "id": "14ac20ec5f7dcd6f",
    "type": "toilet",
    "lat": 37.60206,
    "lng": 127.018229,
    "name": "정릉1동커뮤니티센터"
  },
  {
    "id": "353524b939e3a4c0",
    "type": "toilet",
    "lat": 37.608879,
    "lng": 127.037308,
    "name": "월곡종합사회복지관"
  },
  {
    "id": "a1be740530d5fd60",
    "type": "toilet",
    "lat": 37.587912,
    "lng": 127.003386,
    "name": "삼선주유소 개방화장실"
  },
  {
    "id": "d95a195eb95ce63b",
    "type": "toilet",
    "lat": 37.592651,
    "lng": 126.991235,
    "name": "성북성터 공중화장실"
  },
  {
    "id": "ac88c4f99902a60a",
    "type": "toilet",
    "lat": 37.605778,
    "lng": 127.045873,
    "name": "월곡2동 주민센터"
  },
  {
    "id": "0e8c7a541549987c",
    "type": "toilet",
    "lat": 37.608341,
    "lng": 127.041939,
    "name": "월곡배드민턴체육관"
  },
  {
    "id": "0cd4470a5e18d518",
    "type": "toilet",
    "lat": 37.606861,
    "lng": 127.030269,
    "name": "성가복지병원 개방화장실-코로나"
  },
  {
    "id": "3d72706b913d114c",
    "type": "toilet",
    "lat": 37.586913,
    "lng": 127.026869,
    "name": "고려대학교병원-코로나"
  },
  {
    "id": "c83c83879761d64d",
    "type": "toilet",
    "lat": 37.617552,
    "lng": 127.055637,
    "name": "성북청소년수련관"
  },
  {
    "id": "c3af407902ac0747",
    "type": "toilet",
    "lat": 37.604523,
    "lng": 127.008516,
    "name": "정릉2파출소"
  },
  {
    "id": "c1f52f3225b0614e",
    "type": "toilet",
    "lat": 37.598792,
    "lng": 127.034826,
    "name": "종암동새날도서관"
  },
  {
    "id": "1db6fd9fee8e1ecc",
    "type": "toilet",
    "lat": 37.60423,
    "lng": 127.009168,
    "name": "정릉빌딩 개방화장실"
  },
  {
    "id": "6c6f54c30e9d0179",
    "type": "toilet",
    "lat": 37.596834,
    "lng": 127.024052,
    "name": "성북구의회"
  },
  {
    "id": "166da29f62e9152c",
    "type": "toilet",
    "lat": 37.59264,
    "lng": 127.039659,
    "name": "정릉천 공중화장실"
  },
  {
    "id": "0a55704e1f225a8c",
    "type": "toilet",
    "lat": 37.589999,
    "lng": 127.003923,
    "name": "성북예술창작터"
  },
  {
    "id": "a02140c942921997",
    "type": "toilet",
    "lat": 37.590486,
    "lng": 127.034046,
    "name": "고려대역 공중화장실"
  },
  {
    "id": "06255996d356723a",
    "type": "toilet",
    "lat": 37.599005,
    "lng": 127.033013,
    "name": "종암동 주민센터"
  },
  {
    "id": "cf12681eb484a005",
    "type": "toilet",
    "lat": 37.606691,
    "lng": 127.056069,
    "name": "석관실버복지센터"
  },
  {
    "id": "da2b1ece0ec8af9d",
    "type": "toilet",
    "lat": 37.612834,
    "lng": 127.061087,
    "name": "석관동 주민센터"
  },
  {
    "id": "cfcdc32602112cee",
    "type": "toilet",
    "lat": 37.598003,
    "lng": 127.010386,
    "name": "돈암2동 주민센터"
  },
  {
    "id": "1a49d052a03bef67",
    "type": "toilet",
    "lat": 37.594093,
    "lng": 127.020149,
    "name": "성북학교밖청소년지원센터"
  },
  {
    "id": "702f4f8b7db7ea9c",
    "type": "toilet",
    "lat": 37.593838,
    "lng": 126.996176,
    "name": "성북파출소"
  },
  {
    "id": "13bd7396cde93cb4",
    "type": "toilet",
    "lat": 37.595842,
    "lng": 127.02688,
    "name": "북선 공중화장실"
  },
  {
    "id": "32f135ac7eb61cb0",
    "type": "toilet",
    "lat": 37.604401,
    "lng": 127.030213,
    "name": "월곡지구대"
  },
  {
    "id": "3468a3b199250d47",
    "type": "toilet",
    "lat": 37.606357,
    "lng": 127.034233,
    "name": "제일빌딩 개방화장실"
  },
  {
    "id": "9a9f409ae65294fb",
    "type": "toilet",
    "lat": 37.60999,
    "lng": 127.051305,
    "name": "장위2 치안센터"
  },
  {
    "id": "aca043cf7f810da9",
    "type": "toilet",
    "lat": 37.58763,
    "lng": 127.018207,
    "name": "성북주유소 개방화장실"
  },
  {
    "id": "fbbfd0407fc5ab12",
    "type": "toilet",
    "lat": 37.610446,
    "lng": 127.017253,
    "name": "길음1동 주민센터"
  },
  {
    "id": "1e88ca570f05f369",
    "type": "toilet",
    "lat": 37.611123,
    "lng": 127.000876,
    "name": "정릉종합사회복지관"
  },
  {
    "id": "4e477a57a8b07a41",
    "type": "toilet",
    "lat": 37.608196,
    "lng": 127.004626,
    "name": "정릉실버복지센터"
  },
  {
    "id": "13d6eb5986eff0cd",
    "type": "toilet",
    "lat": 37.606844,
    "lng": 127.026636,
    "name": "길음2동 주민센터"
  },
  {
    "id": "dc70b78670b8a703",
    "type": "toilet",
    "lat": 37.605782,
    "lng": 127.045867,
    "name": "상월곡실버복지센터"
  },
  {
    "id": "1035804f0c04983f",
    "type": "toilet",
    "lat": 37.610497,
    "lng": 127.054214,
    "name": "돌곶이역 공중화장실"
  },
  {
    "id": "7ea851e9e453879b",
    "type": "toilet",
    "lat": 37.593573,
    "lng": 127.013545,
    "name": "동선보건지소"
  },
  {
    "id": "b11dc90e8948a653",
    "type": "toilet",
    "lat": 37.602667,
    "lng": 127.0113,
    "name": "정릉역 여객화장실"
  },
  {
    "id": "541eedf5e3774490",
    "type": "toilet",
    "lat": 37.608907,
    "lng": 127.004065,
    "name": "정릉3동 주민센터"
  },
  {
    "id": "691f7a854f6074b6",
    "type": "toilet",
    "lat": 37.59214,
    "lng": 127.03686,
    "name": "서울예술치유허브"
  },
  {
    "id": "388000a59583e116",
    "type": "toilet",
    "lat": 37.589778,
    "lng": 127.0144,
    "name": "성북경찰서"
  },
  {
    "id": "b69dbeb910b93442",
    "type": "toilet",
    "lat": 37.583875,
    "lng": 127.019866,
    "name": "노동사목빌딩 개방화장실"
  },
  {
    "id": "76cb9761f942af48",
    "type": "toilet",
    "lat": 37.610665,
    "lng": 127.058288,
    "name": "장위종합사회복지관"
  },
  {
    "id": "6e34c4e8740b760f",
    "type": "toilet",
    "lat": 37.584848,
    "lng": 127.030788,
    "name": "우신향병원 개방화장실-코로나"
  },
  {
    "id": "4c695a82e6bf5161",
    "type": "toilet",
    "lat": 37.605644,
    "lng": 127.011408,
    "name": "서울정릉우체국-업무공간보안상"
  },
  {
    "id": "6348d87465f94270",
    "type": "toilet",
    "lat": 37.612039,
    "lng": 127.058789,
    "name": "온누리병원 개방화장실-코로나"
  },
  {
    "id": "bd25990ed77dccce",
    "type": "toilet",
    "lat": 37.613433,
    "lng": 127.037613,
    "name": "신동방주유소 개방화장실"
  },
  {
    "id": "36f9406411bc9438",
    "type": "toilet",
    "lat": 37.609371,
    "lng": 127.052556,
    "name": "성북구벤처창업지원센터"
  },
  {
    "id": "d4740ade51909a6a",
    "type": "toilet",
    "lat": 37.596814,
    "lng": 127.035554,
    "name": "성북중앙병원 개방화장실-코로나"
  },
  {
    "id": "3779c696cf819452",
    "type": "toilet",
    "lat": 37.60278,
    "lng": 127.03789,
    "name": "화랑로 공중화장실"
  },
  {
    "id": "253a29d72249cb12",
    "type": "toilet",
    "lat": 37.595963,
    "lng": 127.035786,
    "name": "서울종암동우체국-업무공간보안"
  },
  {
    "id": "c2724858ce536689",
    "type": "toilet",
    "lat": 37.604154,
    "lng": 127.036404,
    "name": "생명의전화종합사회복지관"
  },
  {
    "id": "70e89de79498fb10",
    "type": "toilet",
    "lat": 37.601963,
    "lng": 127.031487,
    "name": "종암경찰서"
  },
  {
    "id": "f70ba298a22ab03e",
    "type": "toilet",
    "lat": 37.595255,
    "lng": 127.019162,
    "name": "성북시각장애인복지관"
  },
  {
    "id": "218921274c7b9918",
    "type": "toilet",
    "lat": 37.629711,
    "lng": 127.039826,
    "name": "벌말어린이공원 화장실"
  },
  {
    "id": "5a034404f050a7e2",
    "type": "toilet",
    "lat": 37.644789,
    "lng": 127.010503,
    "name": "장애인회관"
  },
  {
    "id": "57c08d07d2ed6716",
    "type": "toilet",
    "lat": 37.639401,
    "lng": 127.012572,
    "name": "인수파출소 화장실"
  },
  {
    "id": "2c1a12605d9c8177",
    "type": "toilet",
    "lat": 37.617837,
    "lng": 127.032678,
    "name": "게이트볼장 앞 화장실"
  },
  {
    "id": "df90e566f37fed4a",
    "type": "toilet",
    "lat": 37.625218,
    "lng": 127.036299,
    "name": "강북문화정보도서관"
  },
  {
    "id": "f3e649b27ba79568",
    "type": "toilet",
    "lat": 37.621119,
    "lng": 127.028695,
    "name": "풍양빌딩 화장실"
  },
  {
    "id": "edc5f7e0086b23e6",
    "type": "toilet",
    "lat": 37.641473,
    "lng": 127.01064,
    "name": "인수동주민센터"
  },
  {
    "id": "19c5635441b05422",
    "type": "toilet",
    "lat": 37.622046,
    "lng": 127.020511,
    "name": "효성요양병원 화장실"
  },
  {
    "id": "405f03e56934774c",
    "type": "toilet",
    "lat": 37.629454,
    "lng": 127.024747,
    "name": "미아역 화장실"
  },
  {
    "id": "5a44b4fbf67e6bad",
    "type": "toilet",
    "lat": 37.637714,
    "lng": 127.0296,
    "name": "강북구가족센터"
  },
  {
    "id": "051d8d4316191f21",
    "type": "toilet",
    "lat": 37.637027,
    "lng": 127.025185,
    "name": "가든타워 개방화장실"
  },
  {
    "id": "3c691c1ad3554276",
    "type": "toilet",
    "lat": 37.629041,
    "lng": 127.041879,
    "name": "번동3단지 종합사회복지관 화장실"
  },
  {
    "id": "6fdc3fb2fcb135b5",
    "type": "toilet",
    "lat": 37.646415,
    "lng": 127.015269,
    "name": "대성석유㈜ 신광주유소"
  },
  {
    "id": "9320f6bb4b753060",
    "type": "toilet",
    "lat": 37.62509,
    "lng": 127.033404,
    "name": "번동U-도서관"
  },
  {
    "id": "b44ea95b83602fac",
    "type": "toilet",
    "lat": 37.635,
    "lng": 127.031296,
    "name": "㈜미래아스팔트 덕릉로주유소"
  },
  {
    "id": "e3ef6075521e034c",
    "type": "toilet",
    "lat": 37.615188,
    "lng": 127.020759,
    "name": "삼각산동주민센터 화장실"
  },
  {
    "id": "787ecaec4445b18d",
    "type": "toilet",
    "lat": 37.637269,
    "lng": 126.996989,
    "name": "영락기도원 입구 화장실"
  },
  {
    "id": "5b22ea56fc24b67e",
    "type": "toilet",
    "lat": 37.621771,
    "lng": 127.041174,
    "name": "북서울꿈의숲(주차장)"
  },
  {
    "id": "f7f761a0fb9277f1",
    "type": "toilet",
    "lat": 37.620262,
    "lng": 127.013042,
    "name": "솔샘역 화장실"
  },
  {
    "id": "889e27e14ba95c0e",
    "type": "toilet",
    "lat": 37.63599,
    "lng": 127.032601,
    "name": "번동파출소 화장실"
  },
  {
    "id": "819a6e5a78b7adb9",
    "type": "toilet",
    "lat": 37.627001,
    "lng": 127.031157,
    "name": "율곡화장실"
  },
  {
    "id": "e3b79aac4864cd90",
    "type": "toilet",
    "lat": 37.637197,
    "lng": 127.027305,
    "name": "서울강북경찰서 본관 화장실"
  },
  {
    "id": "546233627b8973b2",
    "type": "toilet",
    "lat": 37.632292,
    "lng": 127.024139,
    "name": "포근한요양병원 화장실"
  },
  {
    "id": "65797c0e26862b5b",
    "type": "toilet",
    "lat": 37.630052,
    "lng": 127.017559,
    "name": "수유1동주민센터"
  },
  {
    "id": "e5c1a0f5ff5d5e85",
    "type": "toilet",
    "lat": 37.633159,
    "lng": 127.020649,
    "name": "색동어린이공원 화장실"
  },
  {
    "id": "b273f7bb89d243a7",
    "type": "toilet",
    "lat": 37.61832,
    "lng": 127.029976,
    "name": "송중문화정보도서관"
  },
  {
    "id": "afad7a90c8491a2b",
    "type": "toilet",
    "lat": 37.631667,
    "lng": 127.023463,
    "name": "수유프라자 개방화장실"
  },
  {
    "id": "b044e773bd32a201",
    "type": "toilet",
    "lat": 37.633551,
    "lng": 127.01755,
    "name": "화계역 화장실"
  },
  {
    "id": "3d903453c0748ec5",
    "type": "toilet",
    "lat": 37.623027,
    "lng": 127.021659,
    "name": "강북청소년문화정보도서관"
  },
  {
    "id": "3e88bf3d54b1a905",
    "type": "toilet",
    "lat": 37.625574,
    "lng": 127.017718,
    "name": "롯데마트"
  },
  {
    "id": "0605d29c968d838f",
    "type": "toilet",
    "lat": 37.642495,
    "lng": 127.022657,
    "name": "강북우리들병원 화장실"
  },
  {
    "id": "fde7dd323905a608",
    "type": "toilet",
    "lat": 37.640252,
    "lng": 127.028505,
    "name": "대한병원 화장실"
  },
  {
    "id": "5d0a95ff6030d328",
    "type": "toilet",
    "lat": 37.624946,
    "lng": 127.026316,
    "name": "성신병원 화장실"
  },
  {
    "id": "27bb9f0d7091395e",
    "type": "toilet",
    "lat": 37.614216,
    "lng": 127.030526,
    "name": "롯데백화점"
  },
  {
    "id": "55fce50ca632975f",
    "type": "toilet",
    "lat": 37.632609,
    "lng": 127.017957,
    "name": "씨지비수유점 민간 개방화장실"
  },
  {
    "id": "71ecef51071d7992",
    "type": "toilet",
    "lat": 37.633035,
    "lng": 127.02861,
    "name": "장수 배드민턴장 화장실"
  },
  {
    "id": "7bf7441cc9c2add9",
    "type": "toilet",
    "lat": 37.63065,
    "lng": 127.017589,
    "name": "수유1파출소 화장실"
  },
  {
    "id": "9ec9dde2a03c9b31",
    "type": "toilet",
    "lat": 37.63426,
    "lng": 127.037732,
    "name": "SK세원주유소 화장실"
  },
  {
    "id": "65ddc95d889420e1",
    "type": "toilet",
    "lat": 37.616313,
    "lng": 127.03039,
    "name": "솔샘지구대 화장실"
  },
  {
    "id": "0f954f53057f399f",
    "type": "toilet",
    "lat": 37.620112,
    "lng": 127.028269,
    "name": "미아지구대 화장실"
  },
  {
    "id": "69440c7de5447ff6",
    "type": "toilet",
    "lat": 37.624555,
    "lng": 127.011155,
    "name": "삼양체육과학공원 화장실"
  },
  {
    "id": "a16152bda9094bfe",
    "type": "toilet",
    "lat": 37.625858,
    "lng": 127.0465,
    "name": "번3동주민센터"
  },
  {
    "id": "dd4faf856df49d73",
    "type": "toilet",
    "lat": 37.637772,
    "lng": 127.030597,
    "name": "번1동주민센터 화장실"
  },
  {
    "id": "da4f34a633f93686",
    "type": "toilet",
    "lat": 37.644794,
    "lng": 127.027508,
    "name": "강북중학교 옆 공중화장실"
  },
  {
    "id": "465c8b2777d8ef42",
    "type": "toilet",
    "lat": 37.642156,
    "lng": 127.029586,
    "name": "GS칼텍스 수유동주유소 화장실"
  },
  {
    "id": "e1259aa48e730265",
    "type": "toilet",
    "lat": 37.665442,
    "lng": 127.011541,
    "name": "우이동 가족캠핑장"
  },
  {
    "id": "bc6768cdb2d52940",
    "type": "toilet",
    "lat": 37.624825,
    "lng": 127.035541,
    "name": "정보도서관 뒤 화장실"
  },
  {
    "id": "a9d598548cd8e6ff",
    "type": "toilet",
    "lat": 37.652962,
    "lng": 127.012239,
    "name": "솔밭근린공원 공원화장실"
  },
  {
    "id": "cd21e9f940398d41",
    "type": "toilet",
    "lat": 37.639777,
    "lng": 127.025518,
    "name": "강북구청 내부 화장실"
  },
  {
    "id": "29fd3f80f98565b8",
    "type": "toilet",
    "lat": 37.63221,
    "lng": 127.038823,
    "name": "번2동주민센터"
  },
  {
    "id": "f17de48e78e367e6",
    "type": "toilet",
    "lat": 37.612056,
    "lng": 127.030715,
    "name": "트레지오"
  },
  {
    "id": "ae89de47d8dda5ea",
    "type": "toilet",
    "lat": 37.664495,
    "lng": 127.011909,
    "name": "우이동 교통광장 앞 화장실"
  },
  {
    "id": "3ffeaf8fa0b9fe9e",
    "type": "toilet",
    "lat": 37.629522,
    "lng": 127.037523,
    "name": "강북구민운동장"
  },
  {
    "id": "5cde8f9059f7d18d",
    "type": "toilet",
    "lat": 37.63575,
    "lng": 127.01873,
    "name": "시립강북노인종합복지관"
  },
  {
    "id": "f78337f01e0e4c08",
    "type": "toilet",
    "lat": 37.632128,
    "lng": 127.022034,
    "name": "수유1동 공동육아나눔터"
  },
  {
    "id": "9ba03e209571a4c6",
    "type": "toilet",
    "lat": 37.617008,
    "lng": 127.015623,
    "name": "구민건강관리센터"
  },
  {
    "id": "0d4261af6e229e6f",
    "type": "toilet",
    "lat": 37.629856,
    "lng": 127.034077,
    "name": "우정 배드민턴장 화장실"
  },
  {
    "id": "d168435bf7c6727b",
    "type": "toilet",
    "lat": 37.640631,
    "lng": 127.014124,
    "name": "강북구의회 공중화장실"
  },
  {
    "id": "791b68600e34b333",
    "type": "toilet",
    "lat": 37.62177,
    "lng": 127.041174,
    "name": "북서울꿈의숲(관리소1층)"
  },
  {
    "id": "d585b8c70c81fc9a",
    "type": "toilet",
    "lat": 37.624803,
    "lng": 127.018184,
    "name": "삼양파출소 화장실"
  },
  {
    "id": "ad68e0d266328743",
    "type": "toilet",
    "lat": 37.619866,
    "lng": 127.035851,
    "name": "스마일 배드민턴장 화장실"
  },
  {
    "id": "68a55ca107d89420",
    "type": "toilet",
    "lat": 37.625847,
    "lng": 127.026845,
    "name": "강북메디컬센터 개방화장실"
  },
  {
    "id": "9a3dc9de103479db",
    "type": "toilet",
    "lat": 37.633013,
    "lng": 127.032217,
    "name": "오동근린공원 실내배드민턴장"
  },
  {
    "id": "b352f78f553d0131",
    "type": "toilet",
    "lat": 37.634565,
    "lng": 127.034617,
    "name": "번동성당 민간 개방화장실"
  },
  {
    "id": "b9cde6e7ca213f7e",
    "type": "toilet",
    "lat": 37.629043,
    "lng": 127.038723,
    "name": "강북장애인복지관 행복관(별관)"
  },
  {
    "id": "2a52a8de8ae9a349",
    "type": "toilet",
    "lat": 37.631943,
    "lng": 127.01128,
    "name": "수유일공원 화장실"
  },
  {
    "id": "fd50a896df0e228b",
    "type": "toilet",
    "lat": 37.63578,
    "lng": 127.024947,
    "name": "번남어린이공원 화장실"
  },
  {
    "id": "11a56e2165657fb5",
    "type": "toilet",
    "lat": 37.626529,
    "lng": 127.0265,
    "name": "씨엔에스유통㈜ 직영 미아셀프주유소"
  },
  {
    "id": "e140e4fca1bef549",
    "type": "toilet",
    "lat": 37.636202,
    "lng": 127.012822,
    "name": "㈜서울에너지 시민주유소"
  },
  {
    "id": "0e56277c66419354",
    "type": "toilet",
    "lat": 37.638471,
    "lng": 127.026546,
    "name": "교보생명 개방화장실"
  },
  {
    "id": "64d87dcf58a59380",
    "type": "toilet",
    "lat": 37.621015,
    "lng": 127.018063,
    "name": "삼양교회 개방화장실"
  },
  {
    "id": "7346fe4859e325b6",
    "type": "toilet",
    "lat": 37.624709,
    "lng": 127.047114,
    "name": "오현어린이공원 화장실"
  },
  {
    "id": "6d51e35a21e9e80d",
    "type": "toilet",
    "lat": 37.628353,
    "lng": 127.044848,
    "name": "벌리교 공중화장실"
  },
  {
    "id": "c2da4c260de0cf12",
    "type": "toilet",
    "lat": 37.618279,
    "lng": 127.023853,
    "name": "송천동주민센터 화장실"
  },
  {
    "id": "95c1a5c8df6e2a00",
    "type": "toilet",
    "lat": 37.62314,
    "lng": 127.018714,
    "name": "강북구 사회적경제지원센터\n1층 개방화장실"
  },
  {
    "id": "8512385333a80d2a",
    "type": "toilet",
    "lat": 37.622798,
    "lng": 127.019136,
    "name": "SK네트웍스(주) 매일주유소"
  },
  {
    "id": "51a9923aaf1ceecf",
    "type": "toilet",
    "lat": 37.630586,
    "lng": 127.037806,
    "name": "강북웰빙스포츠센터"
  },
  {
    "id": "9114d12eac77f85f",
    "type": "toilet",
    "lat": 37.64076,
    "lng": 127.0123,
    "name": "강북구육아종합지원센터"
  },
  {
    "id": "f0edff3db8bc6fb6",
    "type": "toilet",
    "lat": 37.614993,
    "lng": 127.030033,
    "name": "미아사거리 화장실"
  },
  {
    "id": "61b7fe74ec46afb4",
    "type": "toilet",
    "lat": 37.618328,
    "lng": 127.024605,
    "name": "응달마을어린이공원 화장실"
  },
  {
    "id": "41dcce4e2057f1b1",
    "type": "toilet",
    "lat": 37.632696,
    "lng": 127.03245,
    "name": "오동공원 유아숲체험장화장실"
  },
  {
    "id": "5f887000b02fb5fa",
    "type": "toilet",
    "lat": 37.619996,
    "lng": 127.02903,
    "name": "㈜지에스이엔알 미아주유소"
  },
  {
    "id": "bf49d7912faef460",
    "type": "toilet",
    "lat": 37.634532,
    "lng": 127.036147,
    "name": "강북소방서 앞 공중화장실"
  },
  {
    "id": "c169fe0758ba0127",
    "type": "toilet",
    "lat": 37.632609,
    "lng": 127.007314,
    "name": "화계사 민간 개방화장실"
  },
  {
    "id": "d5a4803d9f1fbd44",
    "type": "toilet",
    "lat": 37.631633,
    "lng": 127.017939,
    "name": "㈜석산에너지"
  },
  {
    "id": "1ec85d48319531aa",
    "type": "toilet",
    "lat": 37.620458,
    "lng": 127.012438,
    "name": "솔샘문화정보도서관"
  },
  {
    "id": "951d2715632c0875",
    "type": "toilet",
    "lat": 37.645048,
    "lng": 127.004135,
    "name": "백련사입구 공중화장실"
  },
  {
    "id": "931da69c80a59ba3",
    "type": "toilet",
    "lat": 37.634048,
    "lng": 127.034285,
    "name": "오얏골어린이공원 화장실"
  },
  {
    "id": "f0a1f374cc7e7768",
    "type": "toilet",
    "lat": 37.630077,
    "lng": 127.017609,
    "name": "수유문화정보도서관"
  },
  {
    "id": "6020bcf1e5b8eceb",
    "type": "toilet",
    "lat": 37.627697,
    "lng": 127.022797,
    "name": "한빛어린이공원 화장실"
  },
  {
    "id": "d04d67b4c97fda6f",
    "type": "toilet",
    "lat": 37.638707,
    "lng": 127.023092,
    "name": "수유3동주민센터 화장실"
  },
  {
    "id": "622907108fd0ac92",
    "type": "toilet",
    "lat": 37.661854,
    "lng": 127.007706,
    "name": "우이동 만남의광장 화장실"
  },
  {
    "id": "697d6a3ebd4dfbc9",
    "type": "toilet",
    "lat": 37.632609,
    "lng": 127.01794,
    "name": "광명빌딩 민간 개방화장실"
  },
  {
    "id": "7e5903e510c4a359",
    "type": "toilet",
    "lat": 37.644346,
    "lng": 127.026571,
    "name": "수유3파출소 화장실"
  },
  {
    "id": "cf46c3b279a62a4a",
    "type": "toilet",
    "lat": 37.640288,
    "lng": 127.024205,
    "name": "수유역 화장실"
  },
  {
    "id": "8d139de5c47169c8",
    "type": "toilet",
    "lat": 37.623585,
    "lng": 127.048155,
    "name": "번3파출소 화장실"
  },
  {
    "id": "8b9821b5b32990b6",
    "type": "toilet",
    "lat": 37.636066,
    "lng": 127.01841,
    "name": "인수동 공영주차장"
  },
  {
    "id": "83f8463fed8ff73b",
    "type": "toilet",
    "lat": 37.640346,
    "lng": 127.021328,
    "name": "수유중앙시장 개방화장실"
  },
  {
    "id": "630bfb497e5391ca",
    "type": "toilet",
    "lat": 37.645726,
    "lng": 127.020412,
    "name": "흰구름어린이공원 화장실"
  },
  {
    "id": "59a920c21992c49c",
    "type": "toilet",
    "lat": 37.62279,
    "lng": 127.036603,
    "name": "오동골프클럽"
  },
  {
    "id": "89add47c01b51c2a",
    "type": "toilet",
    "lat": 37.625976,
    "lng": 127.019405,
    "name": "삼양역 화장실"
  },
  {
    "id": "77f239f9a1452030",
    "type": "toilet",
    "lat": 37.644637,
    "lng": 127.01988,
    "name": "수유2동주민센터 화장실"
  },
  {
    "id": "30f0fc7203fb0256",
    "type": "toilet",
    "lat": 37.642046,
    "lng": 127.016643,
    "name": "가오리역 화장실"
  },
  {
    "id": "12718718231670e4",
    "type": "toilet",
    "lat": 37.616087,
    "lng": 127.03377,
    "name": "송중동주민센터 화장실"
  },
  {
    "id": "c101857b0217166d",
    "type": "toilet",
    "lat": 37.624994,
    "lng": 127.019855,
    "name": "삼양동주민센터"
  },
  {
    "id": "13e583ec07de7f13",
    "type": "toilet",
    "lat": 37.63261,
    "lng": 127.0257,
    "name": "미아공동육아방"
  },
  {
    "id": "37f4c450a5d34a37",
    "type": "toilet",
    "lat": 37.630781,
    "lng": 127.022948,
    "name": "수유시장"
  },
  {
    "id": "3ae43b6a669d4e98",
    "type": "toilet",
    "lat": 37.622921,
    "lng": 127.018531,
    "name": "삼양동종합복지센터"
  },
  {
    "id": "7959d406b0b96a50",
    "type": "toilet",
    "lat": 37.63934,
    "lng": 127.032989,
    "name": "샛강어린이공원 화장실"
  },
  {
    "id": "51d08dcfb41e18c0",
    "type": "toilet",
    "lat": 37.635587,
    "lng": 127.033049,
    "name": "현대오일뱅크(주)직영 번동셀프주유소 화장실"
  },
  {
    "id": "d77f61d28ace66b1",
    "type": "toilet",
    "lat": 37.647424,
    "lng": 127.017326,
    "name": "강북청년창업마루 건물 화장실"
  },
  {
    "id": "d3e8fe1798165410",
    "type": "toilet",
    "lat": 37.640145,
    "lng": 127.017205,
    "name": "북서울고속주유소"
  },
  {
    "id": "c479e38631551311",
    "type": "toilet",
    "lat": 37.61316,
    "lng": 127.029516,
    "name": "숭인시장"
  },
  {
    "id": "da20d0f776055a24",
    "type": "toilet",
    "lat": 37.627062,
    "lng": 127.026967,
    "name": "미아동복합청사 화장실"
  },
  {
    "id": "d5468c0b185ee162",
    "type": "toilet",
    "lat": 37.647925,
    "lng": 127.011912,
    "name": "우이동 주민센터"
  },
  {
    "id": "a8e94da9ad21e27b",
    "type": "toilet",
    "lat": 37.623269,
    "lng": 127.027689,
    "name": "신일교회"
  },
  {
    "id": "6cc886de520e9cb8",
    "type": "toilet",
    "lat": 37.621951,
    "lng": 127.020261,
    "name": "삼양사거리역 화장실"
  },
  {
    "id": "26c2b3fca0aeb396",
    "type": "toilet",
    "lat": 37.662849,
    "lng": 127.013178,
    "name": "우이동 교통광장 공중화장실"
  },
  {
    "id": "28959b2d83b6efcf",
    "type": "toilet",
    "lat": 37.621793,
    "lng": 127.027586,
    "name": "강명빌딩 민간 개방화장실"
  },
  {
    "id": "8dd5277916f20f82",
    "type": "toilet",
    "lat": 37.642644,
    "lng": 127.021738,
    "name": "수유동성당 개방화장실"
  },
  {
    "id": "4d55817a2c8a70d4",
    "type": "toilet",
    "lat": 37.628768,
    "lng": 127.039043,
    "name": "강북장애인복지관"
  },
  {
    "id": "bb7b19a49ac1ee82",
    "type": "toilet",
    "lat": 37.633415,
    "lng": 127.037518,
    "name": "강북소방서"
  },
  {
    "id": "cb28202fbf729753",
    "type": "toilet",
    "lat": 37.629176,
    "lng": 127.035502,
    "name": "꽃샘길 화장실"
  },
  {
    "id": "a56ef07edf198b1d",
    "type": "toilet",
    "lat": 37.634621,
    "lng": 127.021821,
    "name": "신일병원 화장실"
  },
  {
    "id": "49e06cd4c57d12ce",
    "type": "toilet",
    "lat": 37.646423,
    "lng": 127.010898,
    "name": "윤극영가옥 1층 화장실"
  },