[{"id": "toilet:7ef8185fc286fe27", "type": "toilet", "name": "인사동마루 본관", "lat": 37.57346, "lng": 126.98512}, {"id": "toilet:550661dfc42a2c40", "type": "toilet", "name": "동대문", "lat": 37.57616, "lng": 126.99479}, {"id": "toilet:f811ef2f3208e10d", "type": "toilet", "name": "신진시장(만남의 장소)", "lat": 37.57023, "lng": 127.00495}, {"id": "toilet:ed5e644d15c07d68", "type": "toilet", "name": "경희궁공원", "lat": 37.57076, "lng": 126.96884}, {"id": "toilet:025a8dd271c5420e", "type": "toilet", "name": "세운스퀘어(주얼리관)", "lat": 37.57229, "lng": 126.99707}, {"id": "toilet:1fc88ee3c324f772", "type": "toilet", "name": "삼청동공중화장실", "lat": 37.58591, "lng": 126.98162}, {"id": "toilet:3d15f65839635ca2", "type": "toilet", "name": "숭인공원", "lat": 37.57606, "lng": 127.01755}, {"id": "toilet:71143c477a5a12ae", "type": "toilet", "name": "강북삼성병원", "lat": 37.56836, "lng": 126.96749}, {"id": "toilet:a53f10f58c9bf6c7", "type": "toilet", "name": "한국색동박물관", "lat": 37.5739, "lng": 126.9921}, {"id": "toilet:8da4126704205edd", "type": "toilet", "name": "자하문주유소", "lat": 37.59633, "lng": 126.96435}, {"id": "toilet:3d243958a61f6021", "type": "toilet", "name": "청운대안내소 공중화장실(청운대 안내소 앞)", "lat": 37.5963, "lng": 126.97289}, {"id": "toilet:e07b9070e659dca7", "type": "toilet", "name": "성터교회", "lat": 37.57496, "lng": 127.00929}, {"id": "toilet:177d95f266806ef3", "type": "toilet", "name": "종로구민회관", "lat": 37.57352, "lng": 127.01449}, {"id": "toilet:55137239ee049025", "type": "toilet", "name": "산마루놀이터", "lat": 37.57558, "lng": 127.01241}, {"id": "toilet:d9802762c751aefd", "type": "toilet", "name": "㈜대양씨앤씨 사직주유소", "lat": 37.57451, "lng": 126.96661}, {"id": "toilet:1143bf5e22c3f7d4", "type": "toilet", "name": "계원빌딩", "lat": 37.56952, "lng": 126.9874}, {"id": "toilet:5bc91d3a85eb76b0", "type": "toilet", "name": "인왕산등산로입구 공중화장실", "lat": 37.57741, "lng": 126.96114}, {"id": "toilet:e77af452b3d07966", "type": "toilet", "name": "인왕산 청운지구(3)(청운공원 어린이놀이터 화장실)", "lat": 37.58968, "lng": 126.96542}, {"id": "toilet:df6c1ea073892b69", "type": "toilet", "name": "JW 매리어트 호텔", "lat": 37.57092, "lng": 127.00784}, {"id": "toilet:b3d2d845a46db437", "type": "toilet", "name": "삼청테니스장", "lat": 37.59271, "lng": 126.98179}, {"id": "toilet:0dd8bfe779cb9234", "type": "toilet", "name": "사직동 주민센터화장실", "lat": 37.57594, "lng": 126.96727}, {"id": "toilet:6b8b60ed637039db", "type": "toilet", "name": "종로3가역(3)", "lat": 37.571563, "lng": 126.991876}, {"id": "toilet:e822a9eaa5837195", "type": "toilet", "name": "SK본사", "lat": 37.56997, "lng": 126.98278}, {"id": "toilet:0a9fb6be7b5cac58", "type": "toilet", "name": "안동교회", "lat": 37.57841, "lng": 126.98316}, {"id": "toilet:dd759f942ebc8400", "type": "toilet", "name": "락고재 북촌빈관(서울공공한옥)", "lat": 37.58237, "lng": 126.98421}, {"id": "toilet:edb4784539b26b2a", "type": "toilet", "name": "서대문교회", "lat": 37.56925, "lng": 126.96545}, {"id": "toilet:1e57a94807cbd876", "type": "toilet", "name": "경희궁의 아침 3단지", "lat": 37.57359, "lng": 126.9721}, {"id": "toilet:7b1d789a1803a804", "type": "toilet", "name": "평창동주민센터", "lat": 37.60637, "lng": 126.96834}, {"id": "toilet:6d9f52cc95c74b6e", "type": "toilet", "name": "하나로빌딩", "lat": 37.57209, "lng": 126.98544}, {"id": "toilet:353e97b9cbe3817e", "type": "toilet", "name": "삼청동 주민센터", "lat": 37.58499, "lng": 126.98188}, {"id": "toilet:0c726375954df66d", "type": "toilet", "name": "우정총국시민광장", "lat": 37.5743, "lng": 126.98269}, {"id": "toilet:befd8e79e6ec6c2a", "type": "toilet", "name": "맥도날드 서울동묘앞역점", "lat": 37.57315, "lng": 127.01512}, {"id": "toilet:1f0f08b484e4712a", "type": "toilet", "name": "광장시장 1층 청과부", "lat": 37.57009, "lng": 126.99608}, {"id": "toilet:23c3b0c8c8754146", "type": "toilet", "name": "맥도날드(대학로)", "lat": 37.58009, "lng": 127.00299}, {"id": "toilet:730d7dbbab9c1357", "type": "toilet", "name": "청운대쉼터 공중화장실", "lat": 37.59271, "lng": 126.98179}, {"id": "toilet:a4991a1cc8e62fb1", "type": "toilet", "name": "누상동체육시설 공중화장실", "lat": 37.58011, "lng": 126.96367}, {"id": "toilet:486d229fae96f84e", "type": "toilet", "name": "종로문화체육센터", "lat": 37.57428, "lng": 126.96468}, {"id": "toilet:ba86e6db52040336", "type": "toilet", "name": "통인시장 고객만족센터", "lat": 37.58077, "lng": 126.96995}, {"id": "toilet:fad889a384a85a9b", "type": "toilet", "name": "보건소", "lat": 37.58177, "lng": 126.96926}, {"id": "toilet:2f84bbf6c7a94585", "type": "toilet", "name": "광장시장(합동,화창빌딩)", "lat": 37.57042, "lng": 126.99938}, {"id": "toilet:1969b88d59186fed", "type": "toilet", "name": "동대문역(4)", "lat": 37.561159, "lng": 126.994398}, {"id": "toilet:b73b2ed1190cbb9f", "type": "toilet", "name": "안국역(3)", "lat": 37.566412, "lng": 126.994185}, {"id": "toilet:8c10e4c8c248d301", "type": "toilet", "name": "동묘앞역(1)", "lat": 37.573281, "lng": 127.016649}, {"id": "toilet:d28229004588e60c", "type": "toilet", "name": "버거킹(종로점)", "lat": 37.56994, "lng": 126.98811}, {"id": "toilet:244289b35b32461b", "type": "toilet", "name": "인왕산 청운지구(2)(청운공원 화장실)", "lat": 37.59103, "lng": 126.96627}, {"id": "toilet:01abef6be6c0f2ec", "type": "toilet", "name": "허리우드극장(낙원상가4층)", "lat": 37.57258, "lng": 126.98781}, {"id": "toilet:33b858836f5cf76a", "type": "toilet", "name": "광화문역(5)", "lat": 37.568666, "lng": 126.969794}, {"id": "toilet:2fb6a4a1954cf3bd", "type": "toilet", "name": "종로5-6가동주민센터", "lat": 37.57206, "lng": 127.00503}, {"id": "toilet:dfb7055996d45db0", "type": "toilet", "name": "마로니에공원(지하1층)", "lat": 37.58049, "lng": 127.00272}, {"id": "toilet:b4e7a1705fa908de", "type": "toilet", "name": "참샘골공원 공중화장실", "lat": 37.61164, "lng": 126.96861}, {"id": "toilet:00a22679ce3e66e5", "type": "toilet", "name": "종합시장D동상가 본관지하1층", "lat": 37.57061, "lng": 127.00735}, {"id": "toilet:b02b5bf5bba7fc57", "type": "toilet", "name": "혜화역(4)", "lat": 37.582044, "lng": 127.01945}, {"id": "toilet:3e031c7bcf7d1cf2", "type": "toilet", "name": "세종로공영주차장", "lat": 37.57338, "lng": 126.97592}, {"id": "toilet:07f81ec121ae2acf", "type": "toilet", "name": "창신2동 주민센터", "lat": 37.57446, "lng": 127.01086}, {"id": "toilet:4fee3a4c504f39b2", "type": "toilet", "name": "동림매듭박물관", "lat": 37.58241, "lng": 126.98586}, {"id": "toilet:277b4c10b3090bdb", "type": "toilet", "name": "동대문종합시장 D동상가 2층", "lat": 37.57061, "lng": 127.00735}, {"id": "toilet:7f9fb8e7a5ccad96", "type": "toilet", "name": "라이온스 빌딩", "lat": 37.57473, "lng": 126.98656}, {"id": "toilet:5d4af80fa3e06344", "type": "toilet", "name": "돈의문박물관마을안내소", "lat": 37.56881, "lng": 126.96854}, {"id": "toilet:0d9fd16a36761cb7", "type": "toilet", "name": "인왕산수목원약수터 공중화장실", "lat": 37.58301, "lng": 126.96376}, {"id": "toilet:d7d9921d4b7b9358", "type": "toilet", "name": "경동빌딩(스타이발관)", "lat": 37.57224, "lng": 126.98814}, {"id": "toilet:1ab48b68ecabfc77", "type": "toilet", "name": "이화동주민센터", "lat": 37.57698, "lng": 127.00435}, {"id": "toilet:6d961945770cf1fd", "type": "toilet", "name": "한국공예문화진흥원", "lat": 37.57402, "lng": 126.98412}, {"id": "toilet:d83424b99b9bea7c", "type": "toilet", "name": "무악동주민센터", "lat": 37.57593, "lng": 126.95814}, {"id": "toilet:97ac5c92a47e69c5", "type": "toilet", "name": "맥도날드(종로3가)", "lat": 37.57008, "lng": 126.99046}, {"id": "toilet:dc4b9a5df0b964af", "type": "toilet", "name": "경희궁의아침 2단지", "lat": 37.57397, "lng": 126.97129}, {"id": "toilet:89056a8927c10734", "type": "toilet", "name": "변호사회관", "lat": 37.57166, "lng": 126.97534}, {"id": "toilet:e2612b5dffa30979", "type": "toilet", "name": "세운스퀘어(테크노관1층)", "lat": 37.57229, "lng": 126.99707}, {"id": "toilet:a25f2064f2cda262", "type": "toilet", "name": "CGV 대학로점 2F", "lat": 37.58347, "lng": 126.99985}, {"id": "toilet:49adf46c8d83b13e", "type": "toilet", "name": "동익상가(상명대후문쪽)", "lat": 37.60439, "lng": 126.95799}, {"id": "toilet:cce5526ab37f8cdd", "type": "toilet", "name": "서울글로벌센터", "lat": 37.56986, "lng": 126.98147}, {"id": "toilet:0b40f8a3749b52e5", "type": "toilet", "name": "동부여성문화센터", "lat": 37.57697, "lng": 127.0099}, {"id": "toilet:d9f6d6952421eff1", "type": "toilet", "name": "종합시장D동상가 본관지상3층", "lat": 37.57061, "lng": 127.00735}, {"id": "toilet:dfb33e49e9776585", "type": "toilet", "name": "종로1234가동 주민센터", "lat": 37.57449, "lng": 126.99024}, {"id": "toilet:233e2af22452ce41", "type": "toilet", "name": "안풍주유소", "lat": 37.59921, "lng": 126.95915}, {"id": "toilet:b7858b223f4d5b28", "type": "toilet", "name": "㈜인사아트프라자", "lat": 37.57385, "lng": 126.98561}, {"id": "toilet:3f1773795cd654d3", "type": "toilet", "name": "세종문화회관 화장실", "lat": 37.57224, "lng": 126.97594}, {"id": "toilet:b4d67e62bc9747b4", "type": "toilet", "name": "북촌문화센터", "lat": 37.57909, "lng": 126.98642}, {"id": "toilet:d9da775e30d7bf95", "type": "toilet", "name": "광장시장 3층 동관부", "lat": 37.57009, "lng": 126.99608}, {"id": "toilet:898f8d54cd2f71b2", "type": "toilet", "name": "경복궁역(3)", "lat": 37.571196, "lng": 126.991959}, {"id": "toilet:e96d48fce4c55d0c", "type": "toilet", "name": "와룡공원 주변 공중화장실", "lat": 37.59118, "lng": 126.99196}, {"id": "toilet:93e7b38e64744778", "type": "toilet", "name": "탑골공원", "lat": 37.5712, "lng": 126.98836}, {"id": "toilet:ceb5b93c7c4a0a35", "type": "toilet", "name": "종묘공영주차장(주차시설운영처)", "lat": 37.5715, "lng": 126.99505}, {"id": "toilet:68258f3269b908b2", "type": "toilet", "name": "동대문지하상가 화장실", "lat": 37.57616, "lng": 126.99479}, {"id": "toilet:4d09e6d419b9a89e", "type": "toilet", "name": "구기동공중화장실", "lat": 37.60962, "lng": 126.95642}, {"id": "toilet:63090461b93d59a4", "type": "toilet", "name": "영풍빌딩", "lat": 37.56958, "lng": 126.98214}, {"id": "toilet:1c62d261677354f4", "type": "toilet", "name": "버거킹(수송동점)", "lat": 37.57258, "lng": 126.98048}, {"id": "toilet:cd51b5f8a10c073d", "type": "toilet", "name": "주식회사 대양씨앤씨 경복궁주유소", "lat": 37.57629, "lng": 126.98928}, {"id": "toilet:07b8313030835e88", "type": "toilet", "name": "월드그랑서울", "lat": 37.57111, "lng": 126.98139}, {"id": "toilet:53718835601c011b", "type": "toilet", "name": "종로5가역(1)", "lat": 37.571743, "lng": 127.011169}, {"id": "toilet:3f067e15f3e16ac6", "type": "toilet", "name": "광장전통시장 기부채납건물 1층", "lat": 37.57046, "lng": 127.00108}, {"id": "toilet:5122f07d0f8ce758", "type": "toilet", "name": "홍염장 공방", "lat": 37.57895, "lng": 126.98423}, {"id": "toilet:a553b25de7d4587d", "type": "toilet", "name": "여전도회관", "lat": 37.57293, "lng": 126.99947}, {"id": "toilet:d938fef64c3eb2f4", "type": "toilet", "name": "와룡공원(배드민턴장)", "lat": 37.59158, "lng": 126.99236}, {"id": "toilet:bb808a4f79f21b74", "type": "toilet", "name": "마로니에공원(지상1층)", "lat": 37.58049, "lng": 127.00272}, {"id": "toilet:af1615ddab3d1d45", "type": "toilet", "name": "㈜중앙에너비스 혜화지점", "lat": 37.58609, "lng": 127.00107}, {"id": "toilet:de02fc23da5edfca", "type": "toilet", "name": "대학로예술극장", "lat": 37.58322, "lng": 127.0044}, {"id": "toilet:1c15e6550e15e6ff", "type": "toilet", "name": "인왕산 무악지구 공중화장실(인왕사 화장실)", "lat": 37.57822, "lng": 126.96044}, {"id": "toilet:d959dce65fcb832b", "type": "toilet", "name": "창의문안내소 공중화장실(창의문 안내소 앞)", "lat": 37.59135, "lng": 126.97183}, {"id": "toilet:1c0cf143b944c27c", "type": "toilet", "name": "종로3가역(5)", "lat": 37.5715, "lng": 126.989059}, {"id": "toilet:0518eab94c543370", "type": "toilet", "name": "혜화동공중화장실(한옥청사)", "lat": 37.58683, "lng": 127.00053}, {"id": "toilet:ad4b0dcf40a613fb", "type": "toilet", "name": "㈜지에스이앤알 평창주유소", "lat": 37.60974, "lng": 126.97452}, {"id": "toilet:c9e8b3dfaf1d74d6", "type": "toilet", "name": "종로3가역(1)", "lat": 37.57042, "lng": 126.992153}, {"id": "toilet:3c99e3e064522266", "type": "toilet", "name": "인창빌딩", "lat": 37.57423, "lng": 126.98601}, {"id": "toilet:9824cb6b07e1493e", "type": "toilet", "name": "SK네트웍스㈜재동주유소", "lat": 37.57643, "lng": 126.98585}, {"id": "toilet:bf64fac32a6293a1", "type": "toilet", "name": "남인사마당 공중화장실", "lat": 37.57172, "lng": 126.98608}, {"id": "toilet:1ea3f3b1e83ad57e", "type": "toilet", "name": "수성동계곡 공중화장실", "lat": 37.58256, "lng": 126.96299}, {"id": "toilet:a6bbda8fc790211f", "type": "toilet", "name": "숭인2지역 공중화장실", "lat": 37.57866, "lng": 127.01739}, {"id": "toilet:df15498e7b7e4747", "type": "toilet", "name": "인왕산 누상지구 공중화장실(인왕 배드민턴장)", "lat": 37.58001, "lng": 126.96323}, {"id": "toilet:0d3e23e3b4fead39", "type": "toilet", "name": "숭인2동 주민센터", "lat": 37.57488, "lng": 127.01998}, {"id": "toilet:6979409eee951fa8", "type": "toilet", "name": "교남동주민센터", "lat": 37.57187, "lng": 126.96198}, {"id": "toilet:daa1ae542d750616", "type": "toilet", "name": "원서공원", "lat": 37.5784, "lng": 126.98862}, {"id": "toilet:7682f3749e671b0c", "type": "toilet", "name": "가회동 주민센터화장실", "lat": 37.58011, "lng": 126.9848}, {"id": "toilet:f079012bfe1460d1", "type": "toilet", "name": "사직경로당 옆 공중화장실", "lat": 37.57698, "lng": 126.96486}, {"id": "toilet:08aad7c0667be0fe", "type": "toilet", "name": "숭인1지역 공중화장실", "lat": 37.57865, "lng": 127.01761}, {"id": "toilet:76556acbd7eb76bb", "type": "toilet", "name": "세운스퀘어(라이프관1층)", "lat": 37.57229, "lng": 126.99707}, {"id": "toilet:8c9d04892248915e", "type": "toilet", "name": "동대문신발상가 B동, 3층", "lat": 37.57013, "lng": 127.01554}, {"id": "toilet:a1bcaf8efbcbc062", "type": "toilet", "name": "삼청근린공원(약수터 위)", "lat": 37.59271, "lng": 126.98179}, {"id": "toilet:8003237c9c12f5ed", "type": "toilet", "name": "서대문역(5)", "lat": 37.56577, "lng": 126.964461}, {"id": "toilet:36e8b718e95f7362", "type": "toilet", "name": "종각", "lat": 37.57264, "lng": 127.00128}, {"id": "toilet:3bd0e9481d23f678", "type": "toilet", "name": "종각역(1)", "lat": 37.570175, "lng": 126.983226}, {"id": "toilet:ed46c7faf162516e", "type": "toilet", "name": "광장시장 3층 별관포목부", "lat": 37.57009, "lng": 126.99608}, {"id": "toilet:b19da4916333502e", "type": "toilet", "name": "동묘공원", "lat": 37.57298, "lng": 127.01833}, {"id": "toilet:776828b642dc86ff", "type": "toilet", "name": "구도일주유소(특종)", "lat": 37.60669, "lng": 126.9711}, {"id": "toilet:e337ca53ea27c4f7", "type": "toilet", "name": "운현궁 화장실", "lat": 37.57613, "lng": 126.98713}, {"id": "toilet:0f906bf29fd28764", "type": "toilet", "name": "광장골목시장 수도직물(3층)", "lat": 37.56958, "lng": 126.99799}, {"id": "toilet:7bdeb9d7f168b556", "type": "toilet", "name": "수운회관", "lat": 37.57522, "lng": 126.98598}, {"id": "toilet:62ac898d0faca736", "type": "toilet", "name": "GS25 상명대점", "lat": 37.60169, "lng": 126.95562}, {"id": "toilet:c2614bb0a9068f34", "type": "toilet", "name": "광장시장 동문 앞 공중화장실", "lat": 37.5702, "lng": 127.00167}, {"id": "toilet:803f525c068a2a2b", "type": "toilet", "name": "창신역(6)", "lat": 37.579361, "lng": 127.013092}, {"id": "toilet:2d75fded459e4e11", "type": "toilet", "name": "청운효자동주민센터", "lat": 37.58414, "lng": 126.9706}, {"id": "toilet:8a33af064276541f", "type": "toilet", "name": "동대문 신발상가 A동  3층, 6층", "lat": 37.57077, "lng": 127.01367}, {"id": "toilet:a98876a4a12b0222", "type": "toilet", "name": "직물놀이공방", "lat": 37.58228, "lng": 126.98405}, {"id": "toilet:e1484b83830a1f0e", "type": "toilet", "name": "이화동한복(김영희 한복대여)", "lat": 37.57726, "lng": 127.00711}, {"id": "toilet:f47b80e46fd5957d", "type": "toilet", "name": "명륜와룡공영주차장", "lat": 37.58869, "lng": 126.99554}, {"id": "toilet:c94fc4d9810bff5f", "type": "toilet", "name": "인왕산 청운지구(1)(서시정 화장실)", "lat": 37.5912, "lng": 126.96619}, {"id": "toilet:be7a2fe38add6e7b", "type": "toilet", "name": "신문로빌딩", "lat": 37.5694, "lng": 126.96998}, {"id": "toilet:83e747986c90b8f7", "type": "toilet", "name": "인사동마루 신관", "lat": 37.57356, "lng": 126.98493}, {"id": "toilet:4d8646c2e65f40b8", "type": "toilet", "name": "종오지하상가 화장실", "lat": 37.57264, "lng": 127.00128}, {"id": "toilet:432cb0d1421cbfe5", "type": "toilet", "name": "계동교회", "lat": 37.58101, "lng": 126.98666}, {"id": "toilet:f870ec4970ef0657", "type": "toilet", "name": "토포하우스", "lat": 37.57405, "lng": 126.98432}, {"id": "toilet:6e2665f43903ca3f", "type": "toilet", "name": "인사동홍보관", "lat": 37.57364, "lng": 126.98358}, {"id": "toilet:fa59e97e8fc96a13", "type": "toilet", "name": "창이놀이터", "lat": 37.57884, "lng": 127.00855}, {"id": "toilet:39c7cdb8c8283113", "type": "toilet", "name": "부암동 주민센터화장실", "lat": 37.59257, "lng": 126.96416}, {"id": "toilet:172146b981b2b617", "type": "toilet", "name": "북촌마을안내소공중화장실", "lat": 37.58078, "lng": 126.98305}, {"id": "toilet:c13a83759c7f7c46", "type": "toilet", "name": "와룡공원(관리실옆)", "lat": 37.58692, "lng": 127.00504}, {"id": "toilet:b0c9c793cdba0740", "type": "toilet", "name": "종로4가", "lat": 37.57952, "lng": 126.99935}, {"id": "toilet:3d90548da0699d6e", "type": "toilet", "name": "북악팔각정 공중화장실", "lat": 37.60154, "lng": 126.98006}, {"id": "toilet:240e4d9a93bfa9e7", "type": "toilet", "name": "KFC대학로점", "lat": 37.58188, "lng": 127.0023}, {"id": "toilet:26332cc4751a040b", "type": "toilet", "name": "숭인빌딩", "lat": 37.57198, "lng": 127.02006}, {"id": "toilet:b026ef1d2b2fd701", "type": "toilet", "name": "종묘광장", "lat": 37.5715, "lng": 126.99505}, {"id": "toilet:546739007ac3b397", "type": "toilet", "name": "동묘시장공중화장실", "lat": 37.57243, "lng": 127.01896}, {"id": "toilet:913610b90fce1d95", "type": "toilet", "name": "서울대학교 외래암센터내", "lat": 37.57884, "lng": 127.00105}, {"id": "toilet:b91c57337c60880e", "type": "toilet", "name": "북촌발효공방(빚담)", "lat": 37.58235, "lng": 126.98551}, {"id": "toilet:308b652b0f35207b", "type": "toilet", "name": "창신동공중화장실", "lat": 37.57843, "lng": 127.01254}, {"id": "toilet:95fa512863dc2a71", "type": "toilet", "name": "지봉골어린이공원", "lat": 37.57888, "lng": 127.01463}, {"id": "toilet:c1a80a588e51994b", "type": "toilet", "name": "종로구청화장실", "lat": 37.57292, "lng": 126.97927}, {"id": "toilet:ec0a01669ff0eb95", "type": "toilet", "name": "SK북악주유소", "lat": 37.60987, "lng": 126.9749}, {"id": "toilet:45444e2c552c5f1f", "type": "toilet", "name": "무악동배드민턴장 공중화장실", "lat": 37.57795, "lng": 126.95691}, {"id": "toilet:67b966f4bc10115b", "type": "toilet", "name": "한일빌딩", "lat": 37.57012, "lng": 127.00305}, {"id": "toilet:c8f14e29d46d11a4", "type": "toilet", "name": "동묘앞역(6)", "lat": 37.572729, "lng": 127.013819}, {"id": "toilet:e67bfdad670cc758", "type": "toilet", "name": "4.19도서관", "lat": 37.5675, "lng": 126.9677}, {"id": "toilet:fe6540ce0fcbf5ce", "type": "toilet", "name": "베드로빌딩", "lat": 37.57674, "lng": 127.0046}, {"id": "toilet:69eb5670d39254d4", "type": "toilet", "name": "쌈지길(지상1,2층)", "lat": 37.57433, "lng": 126.98521}, {"id": "toilet:d56a57c10c83eea4", "type": "toilet", "name": "무궁화동산", "lat": 37.58425, "lng": 126.97235}, {"id": "toilet:53cfde0c50722699", "type": "toilet", "name": "창2공중화장실(창신1지역)", "lat": 37.57498, "lng": 127.00984}, {"id": "toilet:e79398e9bdb75232", "type": "toilet", "name": "종오", "lat": 37.57264, "lng": 127.00128}, {"id": "toilet:5c733869b5449421", "type": "toilet", "name": "서울생활문화센터 체부", "lat": 37.57672, "lng": 126.97154}, {"id": "toilet:eb78c92f3d279702", "type": "toilet", "name": "혜화동공중화장실(자치회관)", "lat": 37.58683, "lng": 127.00053}, {"id": "toilet:a20ea3055041be84", "type": "toilet", "name": "동대문역(1)", "lat": 37.576087, "lng": 127.02456}, {"id": "toilet:caf86299960e88ba", "type": "toilet", "name": "원각사화장실", "lat": 37.57201, "lng": 126.98857}, {"id": "toilet:666bd70e26cd4292", "type": "toilet", "name": "색실문양누비공방", "lat": 37.58241, "lng": 126.98586}, {"id": "toilet:3cb4bc3092186949", "type": "toilet", "name": "유림회관(성균관)", "lat": 37.5858, "lng": 126.99574}, {"id": "toilet:21d02f48b933a091", "type": "toilet", "name": "창덕공원", "lat": 37.57799, "lng": 126.99219}, {"id": "toilet:27a4df3dab3d257e", "type": "toilet", "name": "쌈지길(지하1층)", "lat": 37.57433, "lng": 126.98521}, {"id": "toilet:bc180809d794d3de", "type": "toilet", "name": "올림픽기념국민생활관", "lat": 37.59036, "lng": 126.99885}, {"id": "toilet:6a47568f3071d819", "type": "toilet", "name": "사직단 공중화장실(사직공원)", "lat": 37.57594, "lng": 126.96727}, {"id": "toilet:60cd42a407a856c1", "type": "toilet", "name": "광장시장 3층 광장직물부", "lat": 37.57009, "lng": 126.99608}, {"id": "toilet:2549d51189c87e9e", "type": "toilet", "name": "광장시장 나들이 쉼터", "lat": 37.57016, "lng": 127.00126}, {"id": "toilet:6a1466686256bc08", "type": "toilet", "name": "서울자유시민대학 화장실", "lat": 37.57137, "lng": 126.96591}, {"id": "toilet:84235f9021178c2e", "type": "toilet", "name": "북촌단청공방", "lat": 37.58304, "lng": 126.98933}, {"id": "toilet:881a15b1cb33c34c", "type": "toilet", "name": "이화동 마을박물관", "lat": 37.57786, "lng": 127.00794}, {"id": "toilet:18706b4a1385f538", "type": "toilet", "name": "백남준기념관", "lat": 37.57307, "lng": 127.01378}, {"id": "toilet:1142ce3cd380011d", "type": "toilet", "name": "흥사단", "lat": 37.58391, "lng": 127.00305}, {"id": "toilet:90f04eeb46b4f066", "type": "toilet", "name": "창신1동 주민센터", "lat": 37.57077, "lng": 127.01632}, {"id": "toilet:03cb7aeb6212a7aa", "type": "toilet", "name": "신영동 빗물저류조 내 공중화장실", "lat": 37.60262, "lng": 126.96194}, {"id": "toilet:6b28f6fbd30f5d38", "type": "toilet", "name": "서울무형문화재교육전시장 화장실", "lat": 37.57694, "lng": 126.9911}, {"id": "toilet:0822228ad1a91735", "type": "toilet", "name": "삼청근린공원(관리실 옆)", "lat": 37.59271, "lng": 126.98179}, {"id": "toilet:e8f40cf8f52cd049", "type": "toilet", "name": "목공예공방", "lat": 37.5828, "lng": 126.9873}, {"id": "toilet:10f24dbbcb2ff948", "type": "toilet", "name": "낙산공원 중앙광장", "lat": 37.58066, "lng": 127.00717}, {"id": "toilet:726d7f71bcee0035", "type": "toilet", "name": "관수교북단 공중화장실", "lat": 37.5686, "lng": 126.99225}, {"id": "toilet:dbccc9ddf7874bc6", "type": "toilet", "name": "숭인1동 주민센터", "lat": 37.57784, "lng": 127.01564}, {"id": "toilet:8b687e46d5d6eb3c", "type": "toilet", "name": "신교공영주차장", "lat": 37.58568, "lng": 126.96657}, {"id": "toilet:e1d6426524d3bf94", "type": "toilet", "name": "장애인통합회관 화장실", "lat": 37.57069, "lng": 126.98896}, {"id": "toilet:0732209fd614763a", "type": "toilet", "name": "창신동쪽방상담소 화장실", "lat": 37.57029, "lng": 127.0144}, {"id": "toilet:39c66b47682c2986", "type": "toilet", "name": "돈의동쪽방상담소 화장실", "lat": 37.57216, "lng": 126.99116}, {"id": "toilet:7ab9439bf249a45e", "type": "toilet", "name": "장애인복지관 화장실", "lat": 37.58409, "lng": 126.96982}, {"id": "toilet:1d73c80e44731fa7", "type": "toilet", "name": "종로구립장애인근로사업장(더해봄)", "lat": 37.57416, "lng": 127.00146}, {"id": "toilet:0ccfb0f841127b0d", "type": "toilet", "name": "시청A 지하상가", "lat": 37.566055, "lng": 126.978786}, {"id": "toilet:b2e2b31431f101e8", "type": "toilet", "name": "목멱산방화장실", "lat": 37.55213, "lng": 126.988033}, {"id": "toilet:fc3cad5ddc0810c9", "type": "toilet", "name": "서소문역사공원", "lat": 37.560928, "lng": 126.969684}, {"id": "toilet:ca5da878fe5f1eb4", "type": "toilet", "name": "명동역(4)", "lat": 37.561052, "lng": 126.985366}, {"id": "toilet:b678661c5321ad0b", "type": "toilet", "name": "시청B 지하상가", "lat": 37.566055, "lng": 126.978786}, {"id": "toilet:32b740529d7397dd", "type": "toilet", "name": "신당C 지하상가", "lat": 37.568702, "lng": 127.019355}, {"id": "toilet:2a8e46fa17ebbc89", "type": "toilet", "name": "신당B 지하상가", "lat": 37.568702, "lng": 127.019355}, {"id": "toilet:4358ad2fa189d113", "type": "toilet", "name": "장충체육관A", "lat": 37.558376, "lng": 127.006582}, {"id": "toilet:a15a83de14bb9a59", "type": "toilet", "name": "을지로4가역(5) 화장실", "lat": 37.566371, "lng": 126.998492}, {"id": "toilet:f6fdd196bc922c1b", "type": "toilet", "name": "훈련원공원주차장 지하 2층 중앙", "lat": 37.567519, "lng": 127.003722}, {"id": "toilet:05eb72ea9e3fb2c2", "type": "toilet", "name": "팔각정 입구", "lat": 37.552113, "lng": 126.988108}, {"id": "toilet:f2f6b61ea25a96a5", "type": "toilet", "name": "훈련원공원주차장 지하 1층 중앙", "lat": 37.567388, "lng": 127.002771}, {"id": "toilet:0eab4978a7f75b66", "type": "toilet", "name": "을지3구역 지하상가", "lat": 37.566684, "lng": 126.994217}, {"id": "toilet:581f81c6f2fc7ad6", "type": "toilet", "name": "동대문역사문화공원역(5) 화장실", "lat": 37.565102, "lng": 127.005576}, {"id": "toilet:1565a0f7d3f04a23", "type": "toilet", "name": "훈련원공원주차장 지하 1층 동측", "lat": 37.566749, "lng": 127.00303}, {"id": "toilet:c2bf77742f43190a", "type": "toilet", "name": "응봉근린공원(동산초교위)", "lat": 37.555043, "lng": 127.016869}, {"id": "toilet:c714dc85f1f6eb10", "type": "toilet", "name": "을지로4가역(2) 화장실", "lat": 37.566718, "lng": 126.99655}, {"id": "toilet:b6663ac36d179bb1", "type": "toilet", "name": "잠두체육회화장실", "lat": 37.554978, "lng": 126.98128}, {"id": "toilet:d6576ca40c306d1c", "type": "toilet", "name": "남대문시장 공중화장실", "lat": 37.559406, "lng": 126.976208}, {"id": "toilet:aebda1f5dbec5ce1", "type": "toilet", "name": "을지로3가역(2) 화장실", "lat": 37.566383, "lng": 126.990213}, {"id": "toilet:840866b6212f1a04", "type": "toilet", "name": "시청역(2)(지하2층) 화장실", "lat": 37.563727, "lng": 126.975438}, {"id": "toilet:6b738658bb242578", "type": "toilet", "name": "시청역(2)(지하1층) 화장실", "lat": 37.563727, "lng": 126.975438}, {"id": "toilet:a222b12857311a5d", "type": "toilet", "name": "동대문역사문화공원역(2) 화장실", "lat": 37.565956, "lng": 127.008496}, {"id": "toilet:77d979be373ee79d", "type": "toilet", "name": "약수역(6) 화장실", "lat": 37.553465, "lng": 127.009158}, {"id": "toilet:d25cbab5e4114115", "type": "toilet", "name": "황학동 공중화장실", "lat": 37.567543, "lng": 127.018122}, {"id": "toilet:411b2210391a5037", "type": "toilet", "name": "남산골한옥마을 중앙화장실", "lat": 37.559051, "lng": 126.99404}, {"id": "toilet:ee275a960f0c0f36", "type": "toilet", "name": "시립미술관 서소문본관", "lat": 37.564433, "lng": 126.974669}, {"id": "toilet:c5c36895a13c86d3", "type": "toilet", "name": "서울중앙우체국(포스트타워)", "lat": 37.561365, "lng": 126.982237}, {"id": "toilet:e6c59d082f61d6c9", "type": "toilet", "name": "신당A 지하상가", "lat": 37.568702, "lng": 127.019355}, {"id": "toilet:ff68dca43591d0c3", "type": "toilet", "name": "을지4구역B 지하상가", "lat": 37.566991, "lng": 127.003366}, {"id": "toilet:67aacc299faa52f1", "type": "toilet", "name": "장충동주민센터", "lat": 37.5619, "lng": 127.007869}, {"id": "toilet:530c2078e6a88659", "type": "toilet", "name": "신당2호 공중화장실", "lat": 37.561378, "lng": 127.013799}, {"id": "toilet:ab8f66fc6468e311", "type": "toilet", "name": "동대문역사문화공원역(4)", "lat": 37.565144, "lng": 127.007915}, {"id": "toilet:0b122a57b3ea0e92", "type": "toilet", "name": "장충단공원", "lat": 37.558576, "lng": 127.003846}, {"id": "toilet:e57f6869a9efcc0e", "type": "toilet", "name": "정동근린공원", "lat": 37.568049, "lng": 126.971562}, {"id": "toilet:d9bf14b603d7e4ba", "type": "toilet", "name": "남대문지하상가", "lat": 37.561195, "lng": 126.977935}, {"id": "toilet:57229ae3f3445fe4", "type": "toilet", "name": "필동주민센터", "lat": 37.560128, "lng": 126.995555}, {"id": "toilet:454c2b93255f46ac", "type": "toilet", "name": "서울시청 본관 B1층 시민청 외부", "lat": 37.566609, "lng": 126.977726}, {"id": "toilet:9b399e141f246129", "type": "toilet", "name": "남산골한옥마을 정문화장실", "lat": 37.559051, "lng": 126.99404}, {"id": "toilet:c9be6b3f150b0b3d", "type": "toilet", "name": "호현당화장실", "lat": 37.554663, "lng": 126.98129}, {"id": "toilet:56feb5e2ae670465", "type": "toilet", "name": "청계5가 지하상가", "lat": 37.569172, "lng": 127.002089}, {"id": "toilet:eeb961cbc1fd99f3", "type": "toilet", "name": "훈련원공원주차장 지하 2층 동측", "lat": 37.566829, "lng": 127.002819}, {"id": "toilet:758c7e7058df897b", "type": "toilet", "name": "서울특별시 중부수도사업소", "lat": 37.553538, "lng": 127.002934}, {"id": "toilet:212b3c0ef3ad9689", "type": "toilet", "name": "동대입구역(3) 화장실", "lat": 37.55949, "lng": 127.005297}, {"id": "toilet:0c7b0b2e3dc237ad", "type": "toilet", "name": "충무로역(4) 화장실", "lat": 37.561389, "lng": 126.994398}, {"id": "toilet:6a701bd7581237f6", "type": "toilet", "name": "소공지하상가C", "lat": 37.563949, "lng": 126.98126}, {"id": "toilet:52aee3744e6cb01b", "type": "toilet", "name": "신당역(6) 화장실", "lat": 37.567755, "lng": 127.016101}, {"id": "toilet:c0a73318cdc9152b", "type": "toilet", "name": "새싹마을마당", "lat": 37.559554, "lng": 127.012039}, {"id": "toilet:03a797ee60c83047", "type": "toilet", "name": "신당1호 공중화장실", "lat": 37.563969, "lng": 127.013366}, {"id": "toilet:ad6396e02131ab36", "type": "toilet", "name": "시청역(1) 화장실", "lat": 37.565818, "lng": 126.976817}, {"id": "toilet:fdb848b98cee8282", "type": "toilet", "name": "봉래초등학교", "lat": 37.556178, "lng": 126.963789}, {"id": "toilet:12d993a9d0127764", "type": "toilet", "name": "석호정", "lat": 37.549009, "lng": 126.993313}, {"id": "toilet:9c88ff616559b5d7", "type": "toilet", "name": "서울역(1) 화장실", "lat": 37.556878, "lng": 126.972578}, {"id": "toilet:7d29455005b1aee7", "type": "toilet", "name": "을지4구역A 지하상가", "lat": 37.566991, "lng": 127.003366}, {"id": "toilet:0d4b17ca750e8389", "type": "toilet", "name": "남산예장공영주차장 화장실", "lat": 37.560035, "lng": 126.988705}, {"id": "toilet:8d1b45bb319be33f", "type": "toilet", "name": "회현역(4)", "lat": 37.534394, "lng": 126.973014}, {"id": "toilet:2a7370906385cc35", "type": "toilet", "name": "청구역(6) 화장실", "lat": 37.557424, "lng": 127.009814}, {"id": "toilet:c119aaae84476ad3", "type": "toilet", "name": "1호터널", "lat": 37.552088, "lng": 126.988086}, {"id": "toilet:feb7c3141ec5a045", "type": "toilet", "name": "을지로입구역(2) 화장실", "lat": 37.566279, "lng": 126.982001}, {"id": "toilet:1af15e2a93910361", "type": "toilet", "name": "청구역 공중화장실", "lat": 37.560813, "lng": 127.013293}, {"id": "toilet:32e7118e41a72416", "type": "toilet", "name": "훈련원근린공원", "lat": 37.567397, "lng": 127.00354}, {"id": "toilet:a3ec72aba4136394", "type": "toilet", "name": "약수역(3) 화장실", "lat": 37.569744, "lng": 127.046945}, {"id": "toilet:5ead0f60ab91859f", "type": "toilet", "name": "광희동 공중화장실", "lat": 37.564307, "lng": 127.006391}, {"id": "toilet:c91df153b6c82409", "type": "toilet", "name": "청구어린이공원", "lat": 37.554856, "lng": 127.01435}, {"id": "toilet:9b37377e15e841c5", "type": "toilet", "name": "충정녹지대", "lat": 37.556875, "lng": 126.964401}, {"id": "toilet:ed8b5e79449e0d20", "type": "toilet", "name": "명동역지하상가", "lat": 37.561094, "lng": 126.985291}, {"id": "toilet:c40cbcbcd9016e7e", "type": "toilet", "name": "묵정어린이공원", "lat": 37.563781, "lng": 126.999801}, {"id": "toilet:f5231032bc69f00e", "type": "toilet", "name": "응봉근린공원(관리실 옆)", "lat": 37.550425, "lng": 127.013402}, {"id": "toilet:5535033ea6bd8810", "type": "toilet", "name": "을지입구 지하상가", "lat": 37.566343, "lng": 126.983963}, {"id": "toilet:309f3d90c8a4d068", "type": "toilet", "name": "청계6가 지하상가", "lat": 37.569369, "lng": 127.009612}, {"id": "toilet:e631ef9f6df5eb23", "type": "toilet", "name": "장충체육회", "lat": 37.554646, "lng": 126.99977}, {"id": "toilet:0c48dfddad878289", "type": "toilet", "name": "버티고개역(6) 화장실", "lat": 37.547892, "lng": 127.004934}, {"id": "toilet:6cc7300cb95437ad", "type": "toilet", "name": "을지로3가역(3) 화장실", "lat": 37.56665, "lng": 126.994228}, {"id": "toilet:a16785dd2769d448", "type": "toilet", "name": "다산어린이공원", "lat": 37.563882, "lng": 127.018751}, {"id": "toilet:2bbbd3fd6bf2d772", "type": "toilet", "name": "회현지하상가", "lat": 37.560687, "lng": 126.98264}, {"id": "toilet:0b56c081f0503787", "type": "toilet", "name": "서울시청 서소문청사 1층 로비", "lat": 37.564484, "lng": 126.974719}, {"id": "toilet:7e0c10784a93b503", "type": "toilet", "name": "신당역(2) 화장실", "lat": 37.565553, "lng": 127.016672}, {"id": "toilet:752f7d8c247e51c7", "type": "toilet", "name": "다동소공원", "lat": 37.567792, "lng": 126.98052}, {"id": "toilet:de81ca639b7aec34", "type": "toilet", "name": "서울역(1) 화장실", "lat": 37.557779, "lng": 126.969559}, {"id": "toilet:c947c5cd11dfdd1e", "type": "toilet", "name": "한일유치원", "lat": 37.563281, "lng": 127.019825}, {"id": "toilet:92a25c87b67188c6", "type": "toilet", "name": "덕수중학교", "lat": 37.553116, "lng": 126.833177}, {"id": "toilet:71584fbbb9157582", "type": "toilet", "name": "성동공업고등학교", "lat": 37.568929, "lng": 127.017233}, {"id": "toilet:d4c9e8e0d32dec00", "type": "toilet", "name": "동대문역사문화공원역(5) 화장실", "lat": 37.564778, "lng": 127.006211}, {"id": "toilet:8d31e734fa5e4598", "type": "toilet", "name": "버티고개역(6) 화장실", "lat": 37.548337, "lng": 127.006989}, {"id": "toilet:d80d5d14762dcca2", "type": "toilet", "name": "회현역(4)", "lat": 37.559276, "lng": 126.977241}, {"id": "toilet:b4624865fc723090", "type": "toilet", "name": "청구역(6) 화장실", "lat": 37.560523, "lng": 127.013875}, {"id": "toilet:22a827351178ff8b", "type": "toilet", "name": "약수역(6) 화장실", "lat": 37.55523, "lng": 127.010336}, {"id": "toilet:d2806950a7078efa", "type": "toilet", "name": "흥인초등학교", "lat": 37.560425, "lng": 127.0143}, {"id": "toilet:b4b55227d81ae7ca", "type": "toilet", "name": "서울백병원", "lat": 37.564971, "lng": 126.988849}, {"id": "toilet:f94fde7b367b40c0", "type": "toilet", "name": "약수역(3) 화장실", "lat": 37.554601, "lng": 127.011038}, {"id": "toilet:f545aadefa783e5e", "type": "toilet", "name": "신일유치원", "lat": 37.555396, "lng": 127.011928}, {"id": "toilet:dea9e859697ad886", "type": "toilet", "name": "이태원2 공중화장실", "lat": 37.543128, "lng": 126.990189}, {"id": "toilet:23e51e5ec13e4755", "type": "toilet", "name": "이태원1 공중화장실", "lat": 37.534319, "lng": 126.988845}, {"id": "toilet:0a97031d201a30f3", "type": "toilet", "name": "후암4 공중화장실", "lat": 37.550424, "lng": 126.976134}, {"id": "toilet:bc88b9b75f6f1f2b", "type": "toilet", "name": "이태원3 공중화장실", "lat": 37.534075, "lng": 126.992243}, {"id": "toilet:3d311b0c0f12dab2", "type": "toilet", "name": "삼각지차고 옆 공중화장실", "lat": 37.533931, "lng": 126.97033}, {"id": "toilet:a680b32fb8eb769a", "type": "toilet", "name": "삼영연립 공중화장실", "lat": 37.531029, "lng": 126.967869}, {"id": "toilet:31d2a42885035ee6", "type": "toilet", "name": "이촌로 공중화장실", "lat": 37.523065, "lng": 126.961212}, {"id": "toilet:225dada865cd5528", "type": "toilet", "name": "철길담장 옆 공중화장실", "lat": 37.531676, "lng": 126.968679}, {"id": "toilet:6be5fb55c68d95b8", "type": "toilet", "name": "신계동 공중화장실", "lat": 37.533821, "lng": 126.963396}, {"id": "toilet:1a0cb937f4228d01", "type": "toilet", "name": "모자원 공중화장실", "lat": 37.545431, "lng": 126.9839}, {"id": "toilet:8fdd99d1a028fd2b", "type": "toilet", "name": "살곶이체육공원", "lat": 37.554143, "lng": 127.050056}, {"id": "toilet:67d61f6ae4686737", "type": "toilet", "name": "마장어린이공원", "lat": 37.566304, "lng": 127.045729}, {"id": "toilet:454a6108d74f26e7", "type": "toilet", "name": "송정농구장", "lat": 37.552707, "lng": 127.06647}, {"id": "toilet:60442b837195ef75", "type": "toilet", "name": "살곶이 진입부", "lat": 37.554352, "lng": 127.047948}, {"id": "toilet:d9d821e7d01dee40", "type": "toilet", "name": "대현산관리사무소", "lat": 37.552506, "lng": 127.028568}, {"id": "toilet:610f973c01b8f2f3", "type": "toilet", "name": "성수공업고등학교 화장실", "lat": 37.540416, "lng": 127.051585}, {"id": "toilet:99c79ef40c140c1c", "type": "toilet", "name": "서울옥수초등학교 화장실", "lat": 37.54609, "lng": 127.021846}, {"id": "toilet:0262d41c8973cdc8", "type": "toilet", "name": "금호산(부대입구)", "lat": 37.553099, "lng": 127.017867}, {"id": "toilet:ad6d98d9b159f81d", "type": "toilet", "name": "대현산자율방범초소뒤(간)", "lat": 37.553217, "lng": 127.029627}, {"id": "toilet:7cacc614b4c14351", "type": "toilet", "name": "매봉산 지하수 옆", "lat": 37.545779, "lng": 127.00877}, {"id": "toilet:d4fd739d5125c931", "type": "toilet", "name": "금호정(군부대앞)(간)", "lat": 37.553099, "lng": 127.017867}, {"id": "toilet:856b3797d8cbce80", "type": "toilet", "name": "독서당공원", "lat": 37.550851, "lng": 127.029211}, {"id": "toilet:8a373b18afb27582", "type": "toilet", "name": "새말빗물펌프장", "lat": 37.553132, "lng": 127.028349}, {"id": "toilet:6b4c072538f76a41", "type": "toilet", "name": "대림공원(논골새싹)", "lat": 37.557712, "lng": 127.02479}, {"id": "toilet:0a3c1f566f6ad696", "type": "toilet", "name": "금남시장뒤", "lat": 37.548964, "lng": 127.022424}, {"id": "toilet:633874857d5590af", "type": "toilet", "name": "서울금옥초등학교 화장실", "lat": 37.546404, "lng": 127.017636}, {"id": "toilet:a13853853daede4e", "type": "toilet", "name": "응봉교아래", "lat": 37.550067, "lng": 127.03477}, {"id": "toilet:ec112e5664773382", "type": "toilet", "name": "살곶이 궁터장", "lat": 37.55363, "lng": 127.042105}, {"id": "toilet:53a34a0898dc226d", "type": "toilet", "name": "자전거체험학습장", "lat": 37.553969, "lng": 127.046822}, {"id": "toilet:b130eba044ee4ca1", "type": "toilet", "name": "응봉 자전거대여소", "lat": 37.548604, "lng": 127.030995}, {"id": "toilet:ebe9461338ba7f3d", "type": "toilet", "name": "용답휴식공원(신답역)", "lat": 37.569744, "lng": 127.046945}, {"id": "toilet:977992be05987554", "type": "toilet", "name": "성수중학교 본관 1층  화장실", "lat": 37.54729, "lng": 127.0386}, {"id": "toilet:64610f341d97edc7", "type": "toilet", "name": "송정제방", "lat": 37.569826, "lng": 127.044108}, {"id": "toilet:90a1caffc11724fa", "type": "toilet", "name": "마장체육공원", "lat": 37.569702, "lng": 127.045151}, {"id": "toilet:6896e996f8107712", "type": "toilet", "name": "서울경동초등학교 화장실", "lat": 37.54306, "lng": 127.05044}, {"id": "toilet:5fed6f333bd4242e", "type": "toilet", "name": "성수근린공원", "lat": 37.5449, "lng": 127.052516}, {"id": "toilet:416c2fae8f30c5d4", "type": "toilet", "name": "서울응봉초등학교 화장실", "lat": 37.550149, "lng": 127.033742}, {"id": "toilet:b5605a42a71621bd", "type": "toilet", "name": "무학여자고등학교", "lat": 37.55736, "lng": 127.03323}, {"id": "toilet:1cdb643c5274afcc", "type": "toilet", "name": "한양대학교사범대학부속고등학교 다목적강당 화장실", "lat": 37.562063, "lng": 127.043227}, {"id": "toilet:a35545fd2ae39da3", "type": "toilet", "name": "경일고등학교화장실 화장실", "lat": 37.544083, "lng": 127.048053}, {"id": "toilet:1083d9cf7ee73c67", "type": "toilet", "name": "광희중학교 본관 1층 화장실", "lat": 37.551077, "lng": 127.033885}, {"id": "toilet:c8a0ca4068f1a536", "type": "toilet", "name": "마장기사식당앞", "lat": 37.565659, "lng": 127.046798}, {"id": "toilet:071ee7a0fd581dcf", "type": "toilet", "name": "한양대학교사범대학부속고등학교 정보관 화장실", "lat": 37.561233, "lng": 127.042799}, {"id": "toilet:97af59a1dc5daf1b", "type": "toilet", "name": "뚝섬유수지 체육공원", "lat": 37.548409, "lng": 127.04063}, {"id": "toilet:a785e35f6199fcfa", "type": "toilet", "name": "용답꽃공원", "lat": 37.563054, "lng": 127.056119}, {"id": "toilet:3b56e6214c11c720", "type": "toilet", "name": "금호고등학교 화장실", "lat": 37.553083, "lng": 127.023645}, {"id": "toilet:6f3fbeb26413bcf3", "type": "toilet", "name": "응봉테니스장", "lat": 37.551341, "lng": 127.037243}, {"id": "toilet:f39a5a4599b6f280", "type": "toilet", "name": "대현산공원(간)", "lat": 37.552506, "lng": 127.028568}, {"id": "toilet:cefa49ed4c790e09", "type": "toilet", "name": "응봉산팔각정", "lat": 37.548457, "lng": 127.03193}, {"id": "toilet:7f39a2a26af64dc6", "type": "toilet", "name": "마장초등학교 화장실", "lat": 37.568021, "lng": 127.042684}, {"id": "toilet:ec129fd6653e2cb5", "type": "toilet", "name": "마장축산물 한전뒤", "lat": 37.567789, "lng": 127.039427}, {"id": "toilet:5e56020656b2e2b3", "type": "toilet", "name": "응봉체육공원", "lat": 37.551557, "lng": 127.037294}, {"id": "toilet:4d949793edaf95c6", "type": "toilet", "name": "성삼공원", "lat": 37.542099, "lng": 127.060192}, {"id": "toilet:4f99c8e52df84a12", "type": "toilet", "name": "마장축산물시장", "lat": 37.570982, "lng": 127.041164}, {"id": "toilet:9a7d5dc0f469cc15", "type": "toilet", "name": "살곶이 인라인스케이트장", "lat": 37.553973, "lng": 127.046327}, {"id": "toilet:ca4d7dda17bee4da", "type": "toilet", "name": "달맞이봉", "lat": 37.545436, "lng": 127.020383}, {"id": "toilet:89f7f378c12ac352", "type": "toilet", "name": "한양대학교사범대학부속중학교(3관) 화장실", "lat": 37.561556, "lng": 127.043597}, {"id": "toilet:dc5cb664d5734e16", "type": "toilet", "name": "덕수고등학교 본관 화장실", "lat": 37.555343, "lng": 127.042158}, {"id": "toilet:694a7ce4323db4c9", "type": "toilet", "name": "금호3가경로당", "lat": 37.548157, "lng": 127.021337}, {"id": "toilet:9840d4ea2b83e072", "type": "toilet", "name": "왕십리문화공원", "lat": 37.553588, "lng": 127.041916}, {"id": "toilet:7372d0a0ddd981d1", "type": "toilet", "name": "응봉암벽공원", "lat": 37.548622, "lng": 127.030848}, {"id": "toilet:fc577a4a91eecc9b", "type": "toilet", "name": "한양대학교사범대학부속고등학교 본관 화장실", "lat": 37.56177, "lng": 127.042687}, {"id": "toilet:4b96b69cb40d8079", "type": "toilet", "name": "서울성수초등학교 화장실", "lat": 37.544482, "lng": 127.063211}, {"id": "toilet:68f8d40faaa97ef3", "type": "toilet", "name": "한양대학교사범대학부속고등학교 애지관 화장실", "lat": 37.562011, "lng": 127.042884}, {"id": "toilet:eba0344d763bad1e", "type": "toilet", "name": "금호4가(얼음가게)", "lat": 37.548154, "lng": 127.020507}, {"id": "toilet:9d6fea9d0708c639", "type": "toilet", "name": "살곶이 진출부", "lat": 37.555715, "lng": 127.050325}, {"id": "toilet:48ab2dc6dd813338", "type": "toilet", "name": "옥정중학교  화장실", "lat": 37.541634, "lng": 127.011938}, {"id": "toilet:19435d826a154804", "type": "toilet", "name": "서울숲 커뮤니티센터(1층) 화장실", "lat": 37.5447, "lng": 127.0349}, {"id": "toilet:0c8c76ea5917cc53", "type": "toilet", "name": "소월아트홀광장", "lat": 37.559276, "lng": 127.035994}, {"id": "toilet:877bd740eae3d184", "type": "toilet", "name": "한양대 앞", "lat": 37.566104, "lng": 127.045757}, {"id": "toilet:ac37679a95b8299c", "type": "toilet", "name": "무학봉공원", "lat": 37.561949, "lng": 127.027079}, {"id": "toilet:f977ae0823902189", "type": "toilet", "name": "소월아트홀광장", "lat": 37.5591, "lng": 127.0358}, {"id": "toilet:f7b3721704c06c59", "type": "toilet", "name": "송정동주민센터", "lat": 37.554834, "lng": 127.069575}, {"id": "toilet:da90f6b9f5ce8a7d", "type": "toilet", "name": "대현산체육관", "lat": 37.55416, "lng": 127.029917}, {"id": "toilet:351cfb1a691f4ee9", "type": "toilet", "name": "청계천 1호 화장실", "lat": 37.569153, "lng": 127.045475}, {"id": "toilet:2742a05dbf516a1a", "type": "toilet", "name": "옥수종합사회복지관", "lat": 37.537121, "lng": 127.007822}, {"id": "toilet:466428be3d1880f7", "type": "toilet", "name": "응봉개나리어린이공원", "lat": 37.5482, "lng": 127.0318}, {"id": "toilet:bbc897ecc73bc1d0", "type": "toilet", "name": "왕십리제2동주민센터", "lat": 37.561732, "lng": 127.031183}, {"id": "toilet:4425533cb9a99886", "type": "toilet", "name": "서울숲 수변휴게실 화장실", "lat": 37.5445, "lng": 127.0377}, {"id": "toilet:f8699c8097f949c4", "type": "toilet", "name": "금호공원체육관", "lat": 37.54951, "lng": 127.018994}, {"id": "toilet:84219eaf37abd5e4", "type": "toilet", "name": "송정농구장", "lat": 37.5527, "lng": 127.0665}, {"id": "toilet:4000f891f9dd6484", "type": "toilet", "name": "금호정", "lat": 37.5517, "lng": 127.0172}, {"id": "toilet:7949e315e8b218b1", "type": "toilet", "name": "성수1가제2동공공복합청사(동주민센터)", "lat": 37.54648, "lng": 127.044215}, {"id": "toilet:33f8dc6cc3f8add3", "type": "toilet", "name": "송정제방길", "lat": 37.5518, "lng": 127.0491}, {"id": "toilet:e9e86e8c2bfcee61", "type": "toilet", "name": "응봉동주민센터 화장실", "lat": 37.553194, "lng": 127.03346}, {"id": "toilet:7fbb235818c1dfaf", "type": "toilet", "name": "서울숲 습지생태원 화장실", "lat": 37.5484, "lng": 127.0391}, {"id": "toilet:8dacde4ff30e9b4a", "type": "toilet", "name": "성동구립용답체육센터", "lat": 37.561862, "lng": 127.056777}, {"id": "toilet:a9d5de19987b7586", "type": "toilet", "name": "서울숲 곤충식물원(내부) 화장실", "lat": 37.5414, "lng": 127.0392}, {"id": "toilet:1352b0588e580ae7", "type": "toilet", "name": "성동종합사회복지관", "lat": 37.553116, "lng": 126.833177}, {"id": "toilet:e415cb4bd90a13a0", "type": "toilet", "name": "새말빗물펌프장", "lat": 37.5559, "lng": 127.0697}, {"id": "toilet:61976f88029226a9", "type": "toilet", "name": "대현산관리사무소", "lat": 37.5539, "lng": 127.0273}, {"id": "toilet:ab9e770a2b61e91d", "type": "toilet", "name": "용비쉼터", "lat": 37.5463, "lng": 127.0305}, {"id": "toilet:5a7f3c15500c3848", "type": "toilet", "name": "청계천 3호 화장실", "lat": 37.562277, "lng": 127.049344}, {"id": "toilet:7a339f65a50ec770", "type": "toilet", "name": "금남시장뒤", "lat": 37.5489, "lng": 127.0224}, {"id": "toilet:e35cdf6b8582d8ed", "type": "toilet", "name": "마장축산물시장", "lat": 37.5711, "lng": 127.0411}, {"id": "toilet:6286e9bed42387ed", "type": "toilet", "name": "옥수동주민센터", "lat": 37.543565, "lng": 127.013418}, {"id": "toilet:f4baa3e7f861e128", "type": "toilet", "name": "열린금호교육문화관", "lat": 37.552537, "lng": 127.01966}, {"id": "toilet:5c63cb615154dc49", "type": "toilet", "name": "서울숲 커뮤니티센터(2층) 화장실", "lat": 37.5447, "lng": 127.0349}, {"id": "toilet:000f3b4fa5ca1a15", "type": "toilet", "name": "성동구립청계도서관(왕십리도선동복합청사)", "lat": 37.56788, "lng": 127.025453}, {"id": "toilet:f41b3ecf325ddc38", "type": "toilet", "name": "독서당인문아카데미센터", "lat": 37.546121, "lng": 127.025294}, {"id": "toilet:d940f57d41ec60eb", "type": "toilet", "name": "살곶이 진출부", "lat": 37.5557, "lng": 127.0502}, {"id": "toilet:57df1762184c1cc1", "type": "toilet", "name": "성수문화복지회관", "lat": 37.545574, "lng": 127.046936}, {"id": "toilet:a082246bec812bee", "type": "toilet", "name": "성수1가제1동주민센터", "lat": 37.542149, "lng": 127.049621}, {"id": "toilet:fa625b29eae7618f", "type": "toilet", "name": "성수2가3동주민센터 화장실", "lat": 37.54823, "lng": 127.05515}, {"id": "toilet:38e1d4d10dbe616d", "type": "toilet", "name": "응봉산팔각정", "lat": 37.5481, "lng": 127.0296}, {"id": "toilet:da4a4136d4572696", "type": "toilet", "name": "서울숲 숲속놀이터 화장실", "lat": 37.5432, "lng": 127.0399}, {"id": "toilet:5ad5b15a5c5b6a6e", "type": "toilet", "name": "마장동주민센터", "lat": 37.578719, "lng": 126.813658}, {"id": "toilet:27e79ea796780bde", "type": "toilet", "name": "마장기사식당앞", "lat": 37.5656, "lng": 127.0468}, {"id": "toilet:a59c644f257b7533", "type": "toilet", "name": "금호4가(얼음가게)", "lat": 37.5482, "lng": 127.0205}, {"id": "toilet:6feb8cfd3834e206", "type": "toilet", "name": "왕십리119안전센터", "lat": 37.562032, "lng": 127.035469}, {"id": "toilet:72b23d18fd0f66f9", "type": "toilet", "name": "성동구립도서관", "lat": 37.559235, "lng": 127.03495}, {"id": "toilet:7a0e864ad8a72df4", "type": "toilet", "name": "자전거체험학습장", "lat": 37.5659, "lng": 127.0472}, {"id": "toilet:8546f99b60f93113", "type": "toilet", "name": "독서당공원", "lat": 37.5509, "lng": 127.0292}, {"id": "toilet:9109dd823d6b2212", "type": "toilet", "name": "용답어린이공원(매매센터)", "lat": 37.5606, "lng": 127.0644}, {"id": "toilet:073b0465d85ce023", "type": "toilet", "name": "서울특별시 성동구청사", "lat": 37.563319, "lng": 127.03686}, {"id": "toilet:ace290349365aa34", "type": "toilet", "name": "서울숲 체육공원(시계탑) 화장실", "lat": 37.5461, "lng": 127.0414}, {"id": "toilet:9ad0de034b50d899", "type": "toilet", "name": "살곶이 진입부", "lat": 37.5544, "lng": 127.0479}, {"id": "toilet:a1053109652687b8", "type": "toilet", "name": "성동구보건소", "lat": 37.567053, "lng": 127.033199}, {"id": "toilet:d3d2de1ce9e5d6cb", "type": "toilet", "name": "서울숲복합문화체육센터", "lat": 37.549582, "lng": 127.041097}, {"id": "toilet:4aa226fcc11b8cc9", "type": "toilet", "name": "왕십리문화공원", "lat": 37.5618, "lng": 127.0352}, {"id": "toilet:3ae8359379802467", "type": "toilet", "name": "한양대 앞", "lat": 37.5582, "lng": 127.0395}, {"id": "toilet:72c1956d4cf6439b", "type": "toilet", "name": "동마장어린이공원", "lat": 37.5663, "lng": 127.0457}, {"id": "toilet:29f795ee029aac08", "type": "toilet", "name": "응봉암벽공원", "lat": 37.5486, "lng": 127.0309}, {"id": "toilet:4fefd6af5e531b8c", "type": "toilet", "name": "행당제1동주민센터", "lat": 37.55857, "lng": 127.03607}, {"id": "toilet:f1a697bbab439b5e", "type": "toilet", "name": "용답꽃공원", "lat": 37.5605, "lng": 127.0549}, {"id": "toilet:6dce3240252cdb84", "type": "toilet", "name": "송정제방", "lat": 37.5491, "lng": 127.0595}, {"id": "toilet:8a310b8832521308", "type": "toilet", "name": "서울숲 생태숲 화장실", "lat": 37.5427, "lng": 127.0349}, {"id": "toilet:23964cbdc1d681e0", "type": "toilet", "name": "금호산(부대입구)", "lat": 37.5532, "lng": 127.0172}, {"id": "toilet:bfc5dce5fc0f7f3f", "type": "toilet", "name": "성동문화회관", "lat": 37.55931, "lng": 127.0361}, {"id": "toilet:4172178cddfee925", "type": "toilet", "name": "응봉테니스장", "lat": 37.5512, "lng": 127.0369}, {"id": "toilet:96e480a48bb52478", "type": "toilet", "name": "성동구립금호도서관", "lat": 37.554065, "lng": 127.024901}, {"id": "toilet:12ed6df728ce6d86", "type": "toilet", "name": "4차산업혁명체험센터", "lat": 37.554676, "lng": 127.04045}, {"id": "toilet:de687d08118f2072", "type": "toilet", "name": "응봉체육공원", "lat": 37.5521, "lng": 127.0386}, {"id": "toilet:1390d1058d86640e", "type": "toilet", "name": "서울숲 곤충식물원 화장실", "lat": 37.5414, "lng": 127.0399}, {"id": "toilet:7e71decaf34b3482", "type": "toilet", "name": "매봉산 숲속도서관", "lat": 37.5457, "lng": 127.0109}, {"id": "toilet:0d06cd57f6045a30", "type": "toilet", "name": "성동안심상가 화장실", "lat": 37.54811, "lng": 127.0533}, {"id": "toilet:12fe08450693c9ca", "type": "toilet", "name": "중량물재생센터 앞", "lat": 37.5508, "lng": 127.0611}, {"id": "toilet:f8a9ae378e4feb22", "type": "toilet", "name": "서울숲 주차장 화장실", "lat": 37.5415, "lng": 127.0435}, {"id": "toilet:8445174a616fa4f2", "type": "toilet", "name": "성수119안전센터", "lat": 37.537151, "lng": 127.060657}, {"id": "toilet:32689798c055f6d3", "type": "toilet", "name": "매봉산 지하수 옆", "lat": 37.5458, "lng": 127.0087}, {"id": "toilet:d6e0342febde2387", "type": "toilet", "name": "왕십리도선동주민센터", "lat": 37.567881, "lng": 127.025529}, {"id": "toilet:737458a38d201f7e", "type": "toilet", "name": "금호3가복지관(경로당)", "lat": 37.5488, "lng": 127.0214}, {"id": "toilet:594ee469607255e1", "type": "toilet", "name": "성수종합사회복지관", "lat": 37.545387, "lng": 127.046953}, {"id": "toilet:47fcd11104382274", "type": "toilet", "name": "동부수도사업소 화장실", "lat": 37.559231, "lng": 127.035436}, {"id": "toilet:3aeab8688b787352", "type": "toilet", "name": "성동소방서", "lat": 37.553836, "lng": 127.039505}, {"id": "toilet:fcb701deed382c9a", "type": "toilet", "name": "성동구립용답도서관", "lat": 37.566684, "lng": 127.051332}, {"id": "toilet:ebee1125658bee66", "type": "toilet", "name": "대현산공원(간)", "lat": 37.5541, "lng": 127.0284}, {"id": "toilet:a4f8396c94689348", "type": "toilet", "name": "달맞이봉(공원)", "lat": 37.5452, "lng": 127.0204}, {"id": "toilet:2c4f5ac3fe23fbfe", "type": "toilet", "name": "서울숲 방문자센터(2층) 화장실", "lat": 37.5431, "lng": 127.0419}, {"id": "toilet:0cad5fe86835a17b", "type": "toilet", "name": "금호스포츠센터", "lat": 37.545596, "lng": 127.025066}, {"id": "toilet:d62aede76e9152e5", "type": "toilet", "name": "성수근린공원", "lat": 37.5445, "lng": 127.0523}, {"id": "toilet:0a48615e3eb2d63e", "type": "toilet", "name": "청계천 4호 화장실", "lat": 37.571899, "lng": 127.038726}, {"id": "toilet:27538a954c1d47d0", "type": "toilet", "name": "서울시설공단 청사 1층화장실", "lat": 37.571614, "lng": 127.03604}, {"id": "toilet:ba2b5832189e6de2", "type": "toilet", "name": "도선공영주차장", "lat": 37.5656, "lng": 127.0318}, {"id": "toilet:bb14366b0241582d", "type": "toilet", "name": "성동구민종합체육센터 화장실", "lat": 37.54565, "lng": 127.04442}, {"id": "toilet:eca0c0bfa2ad669a", "type": "toilet", "name": "마장국민체육센터", "lat": 37.562118, "lng": 127.040765}, {"id": "toilet:cb766740a6db30f9", "type": "toilet", "name": "금호119안전센터", "lat": 37.554002, "lng": 127.024361}, {"id": "toilet:e20d0bff5c7a5bfe", "type": "toilet", "name": "용답휴식공원(신답역)", "lat": 37.5702, "lng": 127.0472}, {"id": "toilet:69ff7106b162b19a", "type": "toilet", "name": "마장축산물 한전뒤", "lat": 37.5686, "lng": 127.0391}, {"id": "toilet:e341937bea4eb300", "type": "toilet", "name": "성동구립성수도서관(성수문화복지회관)", "lat": 37.545368, "lng": 127.047063}, {"id": "toilet:0d185b77ea953a8c", "type": "toilet", "name": "서울숲 방문자센터(지하) 화장실", "lat": 37.5431, "lng": 127.0419}, {"id": "toilet:06f620e61dda3c3b", "type": "toilet", "name": "중랑천 제3체육공원", "lat": 37.584382, "lng": 127.073839}, {"id": "toilet:db289b81e4d1698d", "type": "toilet", "name": "장안종합사회복지관", "lat": 37.58411, "lng": 127.034212}, {"id": "toilet:7e13a00c0c80be7d", "type": "toilet", "name": "중랑천 제1체육공원", "lat": 37.569172, "lng": 127.076404}, {"id": "toilet:8103d4859e2e9db0", "type": "toilet", "name": "중랑천 제2체육공원", "lat": 37.575393, "lng": 127.077446}, {"id": "toilet:2cf825dcb89e1c60", "type": "toilet", "name": "중랑천 파크골프장", "lat": 37.563521, "lng": 127.073471}, {"id": "toilet:7848c50a9b1a7f09", "type": "toilet", "name": "중랑천 제5체육공원", "lat": 37.602301, "lng": 127.071756}, {"id": "toilet:bf0ae4a9161bb8ba", "type": "toilet", "name": "동대문종합사회복지관", "lat": 37.58416, "lng": 127.03423}, {"id": "toilet:2f539d100c3d2d40", "type": "toilet", "name": "중랑천 제4체육공원", "lat": 37.592793, "lng": 127.06964}, {"id": "toilet:c074461b49d544b2", "type": "toilet", "name": "동대문구 보훈회관", "lat": 37.582908, "lng": 127.054821}, {"id": "toilet:12f776a341052855", "type": "toilet", "name": "사색의길 화장실", "lat": 37.58583, "lng": 127.1076}, {"id": "toilet:8170082a5198ba13", "type": "toilet", "name": "망우카페 화장실", "lat": 37.5988, "lng": 127.1145}, {"id": "toilet:06fb9a79295eb47e", "type": "toilet", "name": "제1주차장 화장실", "lat": 37.59856, "lng": 127.1146}, {"id": "toilet:3aaffc3bc43bba9c", "type": "toilet", "name": "월곡청소년센터", "lat": 37.61069, "lng": 127.040338}, {"id": "toilet:aff791ceb69e461c", "type": "toilet", "name": "성북종합레포츠타운", "lat": 37.610171, "lng": 127.06778}, {"id": "toilet:de14852ce0517575", "type": "toilet", "name": "알뜰원천주유소 개방화장실", "lat": 37.614839, "lng": 127.050719}, {"id": "toilet:b99403d78934f0a4", "type": "toilet", "name": "정평빌딩 개방화장실", "lat": 37.603668, "lng": 127.040847}, {"id": "toilet:f9dae617a986b170", "type": "toilet", "name": "광덕주유소 개방화장실", "lat": 37.583113, "lng": 127.01957}, {"id": "toilet:ce7adc56371952a3", "type": "toilet", "name": "중랑천 이동식 공중화장실", "lat": 37.612821, "lng": 127.070769}, {"id": "toilet:49e955dd04f4a003", "type": "toilet", "name": "육아종합지원센터(보문)", "lat": 37.583928, "lng": 127.01899}, {"id": "toilet:df43f3421e779830", "type": "toilet", "name": "길음종합사회복지관", "lat": 37.606715, "lng": 127.026344}, {"id": "toilet:51f3d5ce0cd584ed", "type": "toilet", "name": "성북청소년문화의집", "lat": 37.615538, "lng": 127.008281}, {"id": "toilet:c9a26b2345cab4b2", "type": "toilet", "name": "정릉파출소", "lat": 37.616033, "lng": 127.0064}, {"id": "toilet:3dc704b199c1618c", "type": "toilet", "name": "오동근린 공원화장실", "lat": 37.619901, "lng": 127.03464}, {"id": "toilet:64622e10d9a44418", "type": "toilet", "name": "신방주유소 개방화장실", "lat": 37.585582, "lng": 127.031517}, {"id": "toilet:9d8c7451136ea568", "type": "toilet", "name": "성북동 주민센터", "lat": 37.59101, "lng": 127.00134}, {"id": "toilet:c2fe58176a2599fc", "type": "toilet", "name": "정릉1호 공중화장실", "lat": 37.618859, "lng": 127.005531}, {"id": "toilet:b1dbb4996eb551f8", "type": "toilet", "name": "북악주유소 개방화장실", "lat": 37.605431, "lng": 127.007893}, {"id": "toilet:36a7781cc2d1eec5", "type": "toilet", "name": "안암교회 개방화장실", "lat": 37.589549, "lng": 127.022279}, {"id": "toilet:383c528a88a2a4aa", "type": "toilet", "name": "서울국유림관리소", "lat": 37.604396, "lng": 127.048893}, {"id": "toilet:878f9fe531b677fa", "type": "toilet", "name": "보문역 공중화장실", "lat": 37.585331, "lng": 127.017197}, {"id": "toilet:d2b4297701a8f012", "type": "toilet", "name": "해오름휘트니스센터", "lat": 37.594056, "lng": 127.010497}, {"id": "toilet:7902830d009267fb", "type": "toilet", "name": "안암동 주민센터", "lat": 37.585846, "lng": 127.021343}, {"id": "toilet:61ce4925230b5953", "type": "toilet", "name": "성심빌딩 개방화장실", "lat": 37.600218, "lng": 127.019389}, {"id": "toilet:8c1e790f3ff890af", "type": "toilet", "name": "아리랑주유소 개방화장실", "lat": 37.600417, "lng": 127.014177}, {"id": "toilet:040fb0139bdf963c", "type": "toilet", "name": "서경로꿈마루도서관", "lat": 37.61136, "lng": 127.013584}, {"id": "toilet:afc5a3d80f15e962", "type": "toilet", "name": "성북구보건소", "lat": 37.602699, "lng": 127.037347}, {"id": "toilet:83afa12e870b2b47", "type": "toilet", "name": "성북정보도서관", "lat": 37.604788, "lng": 127.050374}, {"id": "toilet:1cba8f9eb91509f8", "type": "toilet", "name": "맥도날드 삼선점 개방화장실", "lat": 37.589394, "lng": 127.007043}, {"id": "toilet:cfe03efdf8af77d5", "type": "toilet", "name": "석관파출소", "lat": 37.608853, "lng": 127.055082}, {"id": "toilet:5a15c5b38ad86172", "type": "toilet", "name": "장위1동 주민센터", "lat": 37.614072, "lng": 127.043547}, {"id": "toilet:6dbda9be0a3cc032", "type": "toilet", "name": "성북구마을사회적경제센터", "lat": 37.600064, "lng": 127.029244}, {"id": "toilet:a84cc9fe382d7a83", "type": "toilet", "name": "월곡광장 공중화장실", "lat": 37.61189, "lng": 127.03974}, {"id": "toilet:eee808597633f4fe", "type": "toilet", "name": "북악골프연습장", "lat": 37.602464, "lng": 126.997708}, {"id": "toilet:2209eee825133d8e", "type": "toilet", "name": "성북우체국", "lat": 37.607276, "lng": 127.027157}, {"id": "toilet:9d0a43f22ed30bc0", "type": "toilet", "name": "성북장애인복지관", "lat": 37.60453, "lng": 127.045539}, {"id": "toilet:a901928b749028a0", "type": "toilet", "name": "장위119 안전센터", "lat": 37.615582, "lng": 127.055958}, {"id": "toilet:6c88ac4bee68616e", "type": "toilet", "name": "정릉2차e아파트 상가개방화장실", "lat": 37.599066, "lng": 127.018805}, {"id": "toilet:65ca2ac86a7536b1", "type": "toilet", "name": "길음역 공중화장실", "lat": 37.603245, "lng": 127.022765}, {"id": "toilet:facae6fe19c8a1a8", "type": "toilet", "name": "우리주유소 개방화장실", "lat": 37.612807, "lng": 127.060659}, {"id": "toilet:59dc530a71e81b79", "type": "toilet", "name": "에너비스 종암주유소 개방화장실", "lat": 37.595524, "lng": 127.035602}, {"id": "toilet:860f975d59657801", "type": "toilet", "name": "상월곡동 공중화장실", "lat": 37.609429, "lng": 127.045406}, {"id": "toilet:321f9b5631c28339", "type": "toilet", "name": "성북선잠박물관", "lat": 37.593193, "lng": 126.998205}, {"id": "toilet:fd74b8b54ebbd989", "type": "toilet", "name": "장위2동 주민센터", "lat": 37.612364, "lng": 127.0523}, {"id": "toilet:98bc1617fd423604", "type": "toilet", "name": "성북구립미술관", "lat": 37.594812, "lng": 126.992675}, {"id": "toilet:5641a77ae7ce3c6a", "type": "toilet", "name": "정릉4동 주민센터", "lat": 37.613335, "lng": 127.006446}, {"id": "toilet:82e7789f9f940655", "type": "toilet", "name": "삼선동 주민센터", "lat": 37.590829, "lng": 127.014687}, {"id": "toilet:ed6e70182b9b19b7", "type": "toilet", "name": "월곡꿈그림도서관", "lat": 37.604102, "lng": 127.04174}, {"id": "toilet:2215cdf6b0c985da", "type": "toilet", "name": "달빛마루도서관", "lat": 37.604997, "lng": 127.030681}, {"id": "toilet:3d19dea6713183fd", "type": "toilet", "name": "북한산보국문역 여객화장실", "lat": 37.612216, "lng": 127.00596}, {"id": "toilet:3a5a06b593394c5e", "type": "toilet", "name": "성신여대입구역 공중화장실", "lat": 37.592847, "lng": 127.014271}, {"id": "toilet:a55952143e176b09", "type": "toilet", "name": "안암역 공중화장실 지하2층", "lat": 37.586212, "lng": 127.027606}, {"id": "toilet:306940cd1ee2aef2", "type": "toilet", "name": "석관동미리내도서관", "lat": 37.613369, "lng": 127.065357}, {"id": "toilet:172b90706f2cf406", "type": "toilet", "name": "정릉2동 주민센터", "lat": 37.60442, "lng": 127.008943}, {"id": "toilet:b0ceb71a93267569", "type": "toilet", "name": "성북2동 공중화장실", "lat": 37.59614, "lng": 126.99372}, {"id": "toilet:d22457766639dbae", "type": "toilet", "name": "정릉도서관", "lat": 37.612196, "lng": 127.005494}, {"id": "toilet:136d6d1ebbb79684", "type": "toilet", "name": "의릉", "lat": 37.605134, "lng": 127.059424}, {"id": "toilet:c3efe64e07d933a0", "type": "toilet", "name": "돈암지구대", "lat": 37.597234, "lng": 127.012175}, {"id": "toilet:ec7a2f3063ff9722", "type": "toilet", "name": "정릉어울림마당 공중화장실", "lat": 37.61273, "lng": 127.00663}, {"id": "toilet:807f46c69a6a8d65", "type": "toilet", "name": "보문동 주민센터", "lat": 37.580358, "lng": 127.022479}, {"id": "toilet:06871920fd808568", "type": "toilet", "name": "재정제2주유소 개방화장실", "lat": 37.610264, "lng": 127.020544}, {"id": "toilet:c5714d9b420b2f58", "type": "toilet", "name": "육아종합지원센터(월곡)", "lat": 37.605627, "lng": 127.037831}, {"id": "toilet:968baa4dffa03a6c", "type": "toilet", "name": "정릉교회 개방화장실", "lat": 37.603037, "lng": 127.012184}, {"id": "toilet:105f76f3f232c045", "type": "toilet", "name": "성북청소년미래지원센터", "lat": 37.607018, "lng": 127.033743}, {"id": "toilet:ccf8f02ce760267d", "type": "toilet", "name": "국민건강보험공단 성북지사", "lat": 37.607707, "lng": 127.027996}, {"id": "toilet:d7be273035be2c83", "type": "toilet", "name": "성북노인종합복지관", "lat": 37.597713, "lng": 127.034224}, {"id": "toilet:53a46bec0faa85dd", "type": "toilet", "name": "정릉1동 주민센터", "lat": 37.6014, "lng": 127.01442}, {"id": "toilet:0eaa6982a8882102", "type": "toilet", "name": "청수도서관", "lat": 37.611746, "lng": 127.010789}, {"id": "toilet:834999935057befd", "type": "toilet", "name": "월곡구민운동장", "lat": 37.608854, "lng": 127.041465}, {"id": "toilet:6cccd85776be803b", "type": "toilet", "name": "월곡1동 주민센터", "lat": 37.610498, "lng": 127.033559}, {"id": "toilet:41806ec2784aa967", "type": "toilet", "name": "월곡인조잔디구장", "lat": 37.608919, "lng": 127.043698}, {"id": "toilet:6a61d6b73b2027c4", "type": "toilet", "name": "해오름도서관", "lat": 37.594056, "lng": 127.010497}, {"id": "toilet:b739e29e8833d847", "type": "toilet", "name": "월곡역 공중화장실", "lat": 37.601317, "lng": 127.039131}, {"id": "toilet:9c1cc2ec4c8a3cb7", "type": "toilet", "name": "일신건영상가 개방화장실", "lat": 37.600824, "lng": 127.010396}, {"id": "toilet:44c9f8baee6a2f1a", "type": "toilet", "name": "장삼주유소 개방화장실", "lat": 37.613587, "lng": 127.058013}, {"id": "toilet:b413ca79e6984659", "type": "toilet", "name": "강산제2주유소 개방화장실", "lat": 37.609167, "lng": 127.007885}, {"id": "toilet:2170d8229d999009", "type": "toilet", "name": "돈암119안전센터", "lat": 37.59088, "lng": 127.012333}, {"id": "toilet:68371fc71f451c6b", "type": "toilet", "name": "종암박스파크", "lat": 37.603191, "lng": 127.033005}, {"id": "toilet:b8d696cd6fdfc78f", "type": "toilet", "name": "장위3동 주민센터", "lat": 37.616385, "lng": 127.05468}, {"id": "toilet:24aa102379703a76", "type": "toilet", "name": "정릉아동보건지소", "lat": 37.605207, "lng": 127.011821}, {"id": "toilet:78a2bb80078b77ee", "type": "toilet", "name": "돈암마을마당 공중화장실", "lat": 37.597895, "lng": 127.021166}, {"id": "toilet:84525ebeccba7985", "type": "toilet", "name": "성북펜싱체육관", "lat": 37.601718, "lng": 127.038264}, {"id": "toilet:8569c7c074be7887", "type": "toilet", "name": "청수프라자 1층 개방화장실", "lat": 37.608818, "lng": 127.007903}, {"id": "toilet:b74af8a03d350304", "type": "toilet", "name": "장위뉴타워 개방화장실", "lat": 37.61027, "lng": 127.05684}, {"id": "toilet:6fee91d00af11df0", "type": "toilet", "name": "돈암1동 주민센터", "lat": 37.603371, "lng": 127.024168}, {"id": "toilet:f81470328256b265", "type": "toilet", "name": "롯데리아 성신여대점 개방화장실", "lat": 37.593676, "lng": 127.017644}, {"id": "toilet:aacc6f79127236de", "type": "toilet", "name": "성북구공정무역센터", "lat": 37.591555, "lng": 127.018249}, {"id": "toilet:1c1dbe706fda32e5", "type": "toilet", "name": "강산주유소 개방화장실", "lat": 37.577977, "lng": 127.022713}, {"id": "toilet:3da6687ea20a3caa", "type": "toilet", "name": "금영빌딩 개방화장실", "lat": 37.60538, "lng": 127.011583}, {"id": "toilet:f32244667206e1af", "type": "toilet", "name": "GS세창주유소 개방화장실", "lat": 37.608744, "lng": 127.029209}, {"id": "toilet:6d6503ed7736e0c7", "type": "toilet", "name": "성북소방서", "lat": 37.602368, "lng": 127.031602}, {"id": "toilet:f5c7bfc3763a5a76", "type": "toilet", "name": "개운산스포츠센터", "lat": 37.596552, "lng": 127.025958}, {"id": "toilet:8018a1b585886c5f", "type": "toilet", "name": "길음지구대", "lat": 37.61056, "lng": 127.017074}, {"id": "toilet:04a646540026ae0c", "type": "toilet", "name": "종암파출소", "lat": 37.600561, "lng": 127.011036}, {"id": "toilet:df9473a415a77f24", "type": "toilet", "name": "기린빌딩 개방화장실", "lat": 37.605217, "lng": 127.024491}, {"id": "toilet:b82a703512a8280c", "type": "toilet", "name": "동일주유소 개방화장실", "lat": 37.582772, "lng": 127.020187}, {"id": "toilet:6612cb427bab9b76", "type": "toilet", "name": "성북세무서", "lat": 37.588012, "lng": 127.010581}, {"id": "toilet:01795c807a9d2e3e", "type": "toilet", "name": "종암마을마당 공중화장실", "lat": 37.60153, "lng": 127.03899}, {"id": "toilet:5037e803c209d787", "type": "toilet", "name": "성북아동청소년센터", "lat": 37.604761, "lng": 127.010364}, {"id": "toilet:c179d25ad55d2745", "type": "toilet", "name": "한성대입구역 공중화장실", "lat": 37.588374, "lng": 127.003713}, {"id": "toilet:0d632bacec3f2800", "type": "toilet", "name": "상월곡역 공중화장실", "lat": 37.606231, "lng": 127.046124}, {"id": "toilet:fe5dc59507ad0c61", "type": "toilet", "name": "안암동 공중화장실", "lat": 37.585442, "lng": 127.021389}, {"id": "toilet:3b8c3ecbba431ddd", "type": "toilet", "name": "성북구민체육관", "lat": 37.608526, "lng": 127.042325}, {"id": "toilet:1c454d62700ccf09", "type": "toilet", "name": "길음환승주차장", "lat": 37.604044, "lng": 127.023641}, {"id": "toilet:3e6696b2decd06df", "type": "toilet", "name": "롯데리아 종암점 개방화장실", "lat": 37.598366, "lng": 127.034377}, {"id": "toilet:91bf7b26a8377055", "type": "toilet", "name": "장위기사식당 개방화장실", "lat": 37.618577, "lng": 127.045778}, {"id": "toilet:dbb2158279f94635", "type": "toilet", "name": "우이천 공중화장실", "lat": 37.61989, "lng": 127.05395}, {"id": "toilet:5c0840d2e05ba6d3", "type": "toilet", "name": "안암지구대", "lat": 37.586866, "lng": 127.016525}, {"id": "toilet:c6be474c43fa5b0b", "type": "toilet", "name": "북악숲속 공중화장실", "lat": 37.610746, "lng": 126.993554}, {"id": "toilet:3e1d3cea963e0b66", "type": "toilet", "name": "성북구민회관", "lat": 37.595398, "lng": 127.007908}, {"id": "toilet:a13f0e5dfd21b458", "type": "toilet", "name": "행복플러스 발달장애인센터", "lat": 37.604926, "lng": 127.046291}, {"id": "toilet:0a22aca24f7f49c7", "type": "toilet", "name": "동선동 주민센터", "lat": 37.593941, "lng": 127.018206}, {"id": "toilet:c043ab4beef15d54", "type": "toilet", "name": "월곡1동 공중화장실", "lat": 37.606638, "lng": 127.034391}, {"id": "toilet:ddc1e788fd02be73", "type": "toilet", "name": "성북구청", "lat": 37.589412, "lng": 127.014644}, {"id": "toilet:1e743243a3551d2c", "type": "toilet", "name": "성북정보화센터", "lat": 37.585703, "lng": 127.006963}, {"id": "toilet:c994e4a1b91b7551", "type": "toilet", "name": "정릉1동커뮤니티센터", "lat": 37.60206, "lng": 127.018229}, {"id": "toilet:40047391197a3b77", "type": "toilet", "name": "월곡종합사회복지관", "lat": 37.608879, "lng": 127.037308}, {"id": "toilet:e3d681d6072c63c0", "type": "toilet", "name": "삼선주유소 개방화장실", "lat": 37.587912, "lng": 127.003386}, {"id": "toilet:c2965ab949b1587c", "type": "toilet", "name": "성북성터 공중화장실", "lat": 37.592651, "lng": 126.991235}, {"id": "toilet:e82ebf0216104617", "type": "toilet", "name": "월곡2동 주민센터", "lat": 37.605778, "lng": 127.045873}, {"id": "toilet:5ec2b274ccef6e8e", "type": "toilet", "name": "월곡배드민턴체육관", "lat": 37.608341, "lng": 127.041939}, {"id": "toilet:fb272fdfe10913af", "type": "toilet", "name": "성가복지병원 개방화장실-코로나", "lat": 37.606861, "lng": 127.030269}, {"id": "toilet:8e25654223a49468", "type": "toilet", "name": "고려대학교병원-코로나", "lat": 37.586913, "lng": 127.026869}, {"id": "toilet:a0c474d8a122dcec", "type": "toilet", "name": "성북청소년수련관", "lat": 37.617552, "lng": 127.055637}, {"id": "toilet:48076425eae0f58a", "type": "toilet", "name": "정릉2파출소", "lat": 37.604523, "lng": 127.008516}, {"id": "toilet:3b45718a9fefa88a", "type": "toilet", "name": "종암동새날도서관", "lat": 37.598792, "lng": 127.034826}, {"id": "toilet:bac533f5a12a93db", "type": "toilet", "name": "안암역 공중화장실 지하1층", "lat": 37.586212, "lng": 127.027606}, {"id": "toilet:86bd0acd39e77cf3", "type": "toilet", "name": "정릉빌딩 개방화장실", "lat": 37.60423, "lng": 127.009168}, {"id": "toilet:89b74817ee18c4c5", "type": "toilet", "name": "성북구의회", "lat": 37.596834, "lng": 127.024052}, {"id": "toilet:7008498ce75553dc", "type": "toilet", "name": "정릉천 공중화장실", "lat": 37.59264, "lng": 127.039659}, {"id": "toilet:82df548d1a447af1", "type": "toilet", "name": "성북예술창작터", "lat": 37.589999, "lng": 127.003923}, {"id": "toilet:3d2376fb986dfc0a", "type": "toilet", "name": "고려대역 공중화장실", "lat": 37.590486, "lng": 127.034046}, {"id": "toilet:fcedb3849a51d1c4", "type": "toilet", "name": "종암동 주민센터", "lat": 37.599005, "lng": 127.033013}, {"id": "toilet:294d4813e5b634ae", "type": "toilet", "name": "석관실버복지센터", "lat": 37.606691, "lng": 127.056069}, {"id": "toilet:bd768067fa399bf0", "type": "toilet", "name": "석관동 주민센터", "lat": 37.612834, "lng": 127.061087}, {"id": "toilet:28651358f35f7141", "type": "toilet", "name": "돈암2동 주민센터", "lat": 37.598003, "lng": 127.010386}, {"id": "toilet:1c21873252c169cc", "type": "toilet", "name": "성북학교밖청소년지원센터", "lat": 37.594093, "lng": 127.020149}, {"id": "toilet:727e8b4da7ea472b", "type": "toilet", "name": "성북파출소", "lat": 37.593838, "lng": 126.996176}, {"id": "toilet:83597773fb5db64b", "type": "toilet", "name": "북선 공중화장실", "lat": 37.595842, "lng": 127.02688}, {"id": "toilet:a2e24feb301eff5b", "type": "toilet", "name": "월곡지구대", "lat": 37.604401, "lng": 127.030213}, {"id": "toilet:8a324b333ba92fe1", "type": "toilet", "name": "제일빌딩 개방화장실", "lat": 37.606357, "lng": 127.034233}, {"id": "toilet:3546496599229617", "type": "toilet", "name": "장위2 치안센터", "lat": 37.60999, "lng": 127.051305}, {"id": "toilet:3e905977b22ea465", "type": "toilet", "name": "성북주유소 개방화장실", "lat": 37.58763, "lng": 127.018207}, {"id": "toilet:e411efc0fa0d4669", "type": "toilet", "name": "길음1동 주민센터", "lat": 37.610446, "lng": 127.017253}, {"id": "toilet:ceb3088de9c39ac9", "type": "toilet", "name": "정릉종합사회복지관", "lat": 37.611123, "lng": 127.000876}, {"id": "toilet:14745740ed632b74", "type": "toilet", "name": "정릉실버복지센터", "lat": 37.608196, "lng": 127.004626}, {"id": "toilet:7bf1243f07be4f1e", "type": "toilet", "name": "길음2동 주민센터", "lat": 37.606844, "lng": 127.026636}, {"id": "toilet:ec3c8825e94245a5", "type": "toilet", "name": "상월곡실버복지센터", "lat": 37.605782, "lng": 127.045867}, {"id": "toilet:3a901c975931bd5a", "type": "toilet", "name": "돌곶이역 공중화장실", "lat": 37.610497, "lng": 127.054214}, {"id": "toilet:73bb4fd75f427131", "type": "toilet", "name": "동선보건지소", "lat": 37.593573, "lng": 127.013545}, {"id": "toilet:c6160a491a7c0721", "type": "toilet", "name": "정릉역 여객화장실", "lat": 37.602667, "lng": 127.0113}, {"id": "toilet:4d9fc3b9e959da02", "type": "toilet", "name": "정릉3동 주민센터", "lat": 37.608907, "lng": 127.004065}, {"id": "toilet:f1f285fecc329ecf", "type": "toilet", "name": "서울예술치유허브", "lat": 37.59214, "lng": 127.03686}, {"id": "toilet:393e5fa01e849a0b", "type": "toilet", "name": "성북경찰서", "lat": 37.589778, "lng": 127.0144}, {"id": "toilet:3040313f4d883269", "type": "toilet", "name": "노동사목빌딩 개방화장실", "lat": 37.583875, "lng": 127.019866}, {"id": "toilet:93cf3fa735ad2835", "type": "toilet", "name": "장위종합사회복지관", "lat": 37.610665, "lng": 127.058288}, {"id": "toilet:fa0f45af034b477d", "type": "toilet", "name": "우신향병원 개방화장실-코로나", "lat": 37.584848, "lng": 127.030788}, {"id": "toilet:079c55dc17fc8029", "type": "toilet", "name": "서울정릉우체국-업무공간보안상", "lat": 37.605644, "lng": 127.011408}, {"id": "toilet:503ce95fd073a426", "type": "toilet", "name": "온누리병원 개방화장실-코로나", "lat": 37.612039, "lng": 127.058789}, {"id": "toilet:16fc79bd3488d71c", "type": "toilet", "name": "신동방주유소 개방화장실", "lat": 37.613433, "lng": 127.037613}, {"id": "toilet:710188de535dadec", "type": "toilet", "name": "성북구벤처창업지원센터", "lat": 37.609371, "lng": 127.052556}, {"id": "toilet:37a65615f135cd61", "type": "toilet", "name": "성북중앙병원 개방화장실-코로나", "lat": 37.596814, "lng": 127.035554}, {"id": "toilet:f13280cd2b11b658", "type": "toilet", "name": "화랑로 공중화장실", "lat": 37.60278, "lng": 127.03789}, {"id": "toilet:d2f03c337a589693", "type": "toilet", "name": "서울종암동우체국-업무공간보안", "lat": 37.595963, "lng": 127.035786}, {"id": "toilet:001e656001e1ff64", "type": "toilet", "name": "생명의전화종합사회복지관", "lat": 37.604154, "lng": 127.036404}, {"id": "toilet:eb9e801b40a308be", "type": "toilet", "name": "종암경찰서", "lat": 37.601963, "lng": 127.031487}, {"id": "toilet:e07bb9db08f74149", "type": "toilet", "name": "성북시각장애인복지관", "lat": 37.595255, "lng": 127.019162}, {"id": "toilet:45bf1f164f1f07c2", "type": "toilet", "name": "벌말어린이공원 화장실", "lat": 37.629711, "lng": 127.039826}, {"id": "toilet:8fdff5dd182871fd", "type": "toilet", "name": "장애인회관", "lat": 37.644789, "lng": 127.010503}, {"id": "toilet:bf233c9446b54f02", "type": "toilet", "name": "인수파출소 화장실", "lat": 37.639401, "lng": 127.012572}, {"id": "toilet:bdd748da2357b9b5", "type": "toilet", "name": "게이트볼장 앞 화장실", "lat": 37.617837, "lng": 127.032678}, {"id": "toilet:81ff8cd22c5d2661", "type": "toilet", "name": "강북문화정보도서관", "lat": 37.625218, "lng": 127.036299}, {"id": "toilet:e606b30f116dc01e", "type": "toilet", "name": "풍양빌딩 화장실", "lat": 37.621119, "lng": 127.028695}, {"id": "toilet:4867bd0cb4643b19", "type": "toilet", "name": "인수동주민센터", "lat": 37.641473, "lng": 127.01064}, {"id": "toilet:1bc8dc59f7502ac2", "type": "toilet", "name": "효성요양병원 화장실", "lat": 37.622046, "lng": 127.020511}, {"id": "toilet:622d121405bfc1e0", "type": "toilet", "name": "미아역 화장실", "lat": 37.629454, "lng": 127.024747}, {"id": "toilet:a2d17b04035b948a", "type": "toilet", "name": "강북구가족센터", "lat": 37.637714, "lng": 127.0296}, {"id": "toilet:a06033eaffe95462", "type": "toilet", "name": "가든타워 개방화장실", "lat": 37.637027, "lng": 127.025185}, {"id": "toilet:f0780f475c03a565", "type": "toilet", "name": "번동3단지 종합사회복지관 화장실", "lat": 37.629041, "lng": 127.041879}, {"id": "toilet:4fcd3266319e90e1", "type": "toilet", "name": "대성석유㈜ 신광주유소", "lat": 37.646415, "lng": 127.015269}, {"id": "toilet:015417460829e557", "type": "toilet", "name": "번동U-도서관", "lat": 37.62509, "lng": 127.033404}, {"id": "toilet:abf69540b713a1fa", "type": "toilet", "name": "삼각산동주민센터 화장실", "lat": 37.615188, "lng": 127.020759}, {"id": "toilet:c620028f86288277", "type": "toilet", "name": "영락기도원 입구 화장실", "lat": 37.637269, "lng": 126.996989}, {"id": "toilet:7707a55067c1771f", "type": "toilet", "name": "북서울꿈의숲(주차장)", "lat": 37.621771, "lng": 127.041174}, {"id": "toilet:b1a939df5d03e9ad", "type": "toilet", "name": "솔샘역 화장실", "lat": 37.620262, "lng": 127.013042}, {"id": "toilet:1734d59ad7ead633", "type": "toilet", "name": "번동파출소 화장실", "lat": 37.63599, "lng": 127.032601}, {"id": "toilet:ff3ce1377d140585", "type": "toilet", "name": "북서울꿈의숲 전망대(2.3층)", "lat": 37.621771, "lng": 127.041174}, {"id": "toilet:d3c68a98187107f9", "type": "toilet", "name": "북서울꿈의숲(아트센터지상1층)", "lat": 37.621771, "lng": 127.041174}, {"id": "toilet:34b221ecd9cb5d15", "type": "toilet", "name": "율곡화장실", "lat": 37.627001, "lng": 127.031157}, {"id": "toilet:3df573e413e79e8e", "type": "toilet", "name": "서울강북경찰서 본관 화장실", "lat": 37.637197, "lng": 127.027305}, {"id": "toilet:2cfae962d5b48697", "type": "toilet", "name": "포근한요양병원 화장실", "lat": 37.632292, "lng": 127.024139}, {"id": "toilet:bae1051e7736431f", "type": "toilet", "name": "수유1동주민센터", "lat": 37.630052, "lng": 127.017559}, {"id": "toilet:8cb43b37a8cf9d2c", "type": "toilet", "name": "색동어린이공원 화장실", "lat": 37.633159, "lng": 127.020649}, {"id": "toilet:62e14f06ea41cb7f", "type": "toilet", "name": "송중문화정보도서관", "lat": 37.61832, "lng": 127.029976}, {"id": "toilet:ad0a0282bc435593", "type": "toilet", "name": "수유프라자 개방화장실", "lat": 37.631667, "lng": 127.023463}, {"id": "toilet:ae8ff22b5c00f7ce", "type": "toilet", "name": "화계역 화장실", "lat": 37.633551, "lng": 127.01755}, {"id": "toilet:139f1c50fd5bca18", "type": "toilet", "name": "강북청소년문화정보도서관", "lat": 37.623027, "lng": 127.021659}, {"id": "toilet:046906dc5d1c647f", "type": "toilet", "name": "롯데마트", "lat": 37.625574, "lng": 127.017718}, {"id": "toilet:85262de5089d7a1d", "type": "toilet", "name": "강북우리들병원 화장실", "lat": 37.642495, "lng": 127.022657}, {"id": "toilet:0be5b08d64145823", "type": "toilet", "name": "대한병원 화장실", "lat": 37.640252, "lng": 127.028505}, {"id": "toilet:2dfb225d7adc2715", "type": "toilet", "name": "성신병원 화장실", "lat": 37.624946, "lng": 127.026316}, {"id": "toilet:8edbf8a49ed79b88", "type": "toilet", "name": "롯데백화점", "lat": 37.614216, "lng": 127.030526}, {"id": "toilet:e021e62efd81bce3", "type": "toilet", "name": "씨지비수유점 민간 개방화장실", "lat": 37.632609, "lng": 127.017957}, {"id": "toilet:6a85464285246bf5", "type": "toilet", "name": "장수 배드민턴장 화장실", "lat": 37.633035, "lng": 127.02861}, {"id": "toilet:5b11dd9e7dd5d06c", "type": "toilet", "name": "수유1파출소 화장실", "lat": 37.63065, "lng": 127.017589}, {"id": "toilet:7fd195a03239cd9e", "type": "toilet", "name": "SK세원주유소 화장실", "lat": 37.63426, "lng": 127.037732}, {"id": "toilet:99a236a5db04a14d", "type": "toilet", "name": "솔샘지구대 화장실", "lat": 37.616313, "lng": 127.03039}, {"id": "toilet:843893ff64f61398", "type": "toilet", "name": "미아지구대 화장실", "lat": 37.620112, "lng": 127.028269}, {"id": "toilet:d78bf0c959905bac", "type": "toilet", "name": "삼양체육과학공원 화장실", "lat": 37.624555, "lng": 127.011155}, {"id": "toilet:55b7b4093cef6455", "type": "toilet", "name": "번3동주민센터", "lat": 37.625858, "lng": 127.0465}, {"id": "toilet:3a59477876db2a01", "type": "toilet", "name": "번1동주민센터 화장실", "lat": 37.637772, "lng": 127.030597}, {"id": "toilet:8d4c730da319751d", "type": "toilet", "name": "강북중학교 옆 공중화장실", "lat": 37.644794, "lng": 127.027508}, {"id": "toilet:a34f54ddb4c59707", "type": "toilet", "name": "GS칼텍스 수유동주유소 화장실", "lat": 37.642156, "lng": 127.029586}, {"id": "toilet:b6a0d0270384ee28", "type": "toilet", "name": "우이동 가족캠핑장", "lat": 37.665442, "lng": 127.011541}, {"id": "toilet:c7c26b597fa78914", "type": "toilet", "name": "정보도서관 뒤 화장실", "lat": 37.624825, "lng": 127.035541}, {"id": "toilet:cd9b955eedf08c33", "type": "toilet", "name": "솔밭근린공원 공원화장실", "lat": 37.652962, "lng": 127.012239}, {"id": "toilet:1fe21f78bd4693ba", "type": "toilet", "name": "강북구청 내부 화장실", "lat": 37.639777, "lng": 127.025518}, {"id": "toilet:023260dbe39bd655", "type": "toilet", "name": "번2동주민센터", "lat": 37.63221, "lng": 127.038823}, {"id": "toilet:7e3d0b2ed0578b8c", "type": "toilet", "name": "트레지오", "lat": 37.612056, "lng": 127.030715}, {"id": "toilet:8761d2db666c131d", "type": "toilet", "name": "우이동 교통광장 앞 화장실", "lat": 37.664495, "lng": 127.011909}, {"id": "toilet:7203f04c4ebd5086", "type": "toilet", "name": "강북구민운동장", "lat": 37.629522, "lng": 127.037523}, {"id": "toilet:dfe304a7b796a064", "type": "toilet", "name": "시립강북노인종합복지관", "lat": 37.63575, "lng": 127.01873}, {"id": "toilet:25958da8a2e9931f", "type": "toilet", "name": "수유1동 공동육아나눔터", "lat": 37.632128, "lng": 127.022034}, {"id": "toilet:8fc2fc44d9369a6f", "type": "toilet", "name": "구민건강관리센터", "lat": 37.617008, "lng": 127.015623}, {"id": "toilet:744d055acd70c064", "type": "toilet", "name": "북서울꿈의숲(야외)", "lat": 37.621771, "lng": 127.041174}, {"id": "toilet:76cc6085a6a217bf", "type": "toilet", "name": "북서울꿈의숲(라포레스타)", "lat": 37.621771, "lng": 127.041174}, {"id": "toilet:34cb6dfa323c902f", "type": "toilet", "name": "우정 배드민턴장 화장실", "lat": 37.629856, "lng": 127.034077}, {"id": "toilet:c242f43d21ea2f7a", "type": "toilet", "name": "강북구의회 공중화장실", "lat": 37.640631, "lng": 127.014124}, {"id": "toilet:84f5b31e6d5564fa", "type": "toilet", "name": "북서울꿈의숲(관리소1층)", "lat": 37.62177, "lng": 127.041174}, {"id": "toilet:ec0ccdd7b4887f00", "type": "toilet", "name": "삼양파출소 화장실", "lat": 37.624803, "lng": 127.018184}, {"id": "toilet:9741ed418cafb8ad", "type": "toilet", "name": "서울강북경찰서 별관 화장실", "lat": 37.637197, "lng": 127.027305}, {"id": "toilet:a84065ac65094fdd", "type": "toilet", "name": "스마일 배드민턴장 화장실", "lat": 37.619866, "lng": 127.035851}, {"id": "toilet:53b44554aa11d72d", "type": "toilet", "name": "강북메디컬센터 개방화장실", "lat": 37.625847, "lng": 127.026845}, {"id": "toilet:3419a25797d6c4cf", "type": "toilet", "name": "오동근린공원 실내배드민턴장", "lat": 37.633013, "lng": 127.032217}, {"id": "toilet:a5389acefa3ebaa3", "type": "toilet", "name": "번동성당 민간 개방화장실", "lat": 37.634565, "lng": 127.034617}, {"id": "toilet:3ac57c3c423d9ff6", "type": "toilet", "name": "강북장애인복지관 행복관(별관)", "lat": 37.629043, "lng": 127.038723}, {"id": "toilet:a887f2f651a9bb60", "type": "toilet", "name": "수유일공원 화장실", "lat": 37.631943, "lng": 127.01128}, {"id": "toilet:34fc4a8b8d7c88f2", "type": "toilet", "name": "번남어린이공원 화장실", "lat": 37.63578, "lng": 127.024947}, {"id": "toilet:fc880ba4105aa780", "type": "toilet", "name": "씨엔에스유통㈜ 직영 미아셀프주유소", "lat": 37.626529, "lng": 127.0265}, {"id": "toilet:e1fb52023f67d238", "type": "toilet", "name": "㈜서울에너지 시민주유소", "lat": 37.636202, "lng": 127.012822}, {"id": "toilet:550f8d73d92aae8e", "type": "toilet", "name": "교보생명 개방화장실", "lat": 37.638471, "lng": 127.026546}, {"id": "toilet:8fe33d9a95f652f8", "type": "toilet", "name": "삼양교회 개방화장실", "lat": 37.621015, "lng": 127.018063}, {"id": "toilet:951f6912325dba37", "type": "toilet", "name": "오현어린이공원 화장실", "lat": 37.624709, "lng": 127.047114}, {"id": "toilet:0952246e02074c2a", "type": "toilet", "name": "벌리교 공중화장실", "lat": 37.628353, "lng": 127.044848}, {"id": "toilet:469deada25bf6a49", "type": "toilet", "name": "송천동주민센터 화장실", "lat": 37.618279, "lng": 127.023853}, {"id": "toilet:97d2e56c046e490a", "type": "toilet", "name": "강북구 사회적경제지원센터\n1층 개방화장실", "lat": 37.62314, "lng": 127.018714}, {"id": "toilet:e590d9adbb82aaf5", "type": "toilet", "name": "SK네트웍스(주) 매일주유소", "lat": 37.622798, "lng": 127.019136}, {"id": "toilet:4f7a8839c28133db", "type": "toilet", "name": "강북웰빙스포츠센터", "lat": 37.630586, "lng": 127.037806}, {"id": "toilet:dd2aabc6c01877cb", "type": "toilet", "name": "강북구육아종합지원센터", "lat": 37.64076, "lng": 127.0123}, {"id": "toilet:8234887836c95c1e", "type": "toilet", "name": "미아사거리 화장실", "lat": 37.614993, "lng": 127.030033}, {"id": "toilet:067efd63a93e995a", "type": "toilet", "name": "응달마을어린이공원 화장실", "lat": 37.618328, "lng": 127.024605}, {"id": "toilet:dc4d3e820fcb7771", "type": "toilet", "name": "오동공원 유아숲체험장화장실", "lat": 37.632696, "lng": 127.03245}, {"id": "toilet:9028a6414c800ced", "type": "toilet", "name": "㈜지에스이엔알 미아주유소", "lat": 37.619996, "lng": 127.02903}, {"id": "toilet:516559e218233285", "type": "toilet", "name": "강북소방서 앞 공중화장실", "lat": 37.634532, "lng": 127.036147}, {"id": "toilet:56644e80fb5ee4e6", "type": "toilet", "name": "삼각산어린이도서관", "lat": 37.615188, "lng": 127.020759}, {"id": "toilet:afde3b0d6c9fd73e", "type": "toilet", "name": "화계사 민간 개방화장실", "lat": 37.632609, "lng": 127.007314}, {"id": "toilet:d8ce254d24760ff9", "type": "toilet", "name": "㈜석산에너지", "lat": 37.631633, "lng": 127.017939}, {"id": "toilet:024aa94806a8d6f6", "type": "toilet", "name": "솔샘문화정보도서관", "lat": 37.620458, "lng": 127.012438}, {"id": "toilet:bbe7e09d28b64851", "type": "toilet", "name": "백련사입구 공중화장실", "lat": 37.645048, "lng": 127.004135}, {"id": "toilet:4985604a94bfd1e7", "type": "toilet", "name": "골프장 옆 화장실(오현적)", "lat": 37.629856, "lng": 127.034077}, {"id": "toilet:6abeb1ff8e14d50d", "type": "toilet", "name": "청산 배드민턴장 화장실", "lat": 37.629856, "lng": 127.034077}, {"id": "toilet:726c6308b3ab4268", "type": "toilet", "name": "오얏골어린이공원 화장실", "lat": 37.634048, "lng": 127.034285}, {"id": "toilet:6c677a8439c38b7c", "type": "toilet", "name": "수유문화정보도서관", "lat": 37.630077, "lng": 127.017609}, {"id": "toilet:9926a935aaa81f7f", "type": "toilet", "name": "한빛어린이공원 화장실", "lat": 37.627697, "lng": 127.022797}, {"id": "toilet:48cc3dcab810ff19", "type": "toilet", "name": "수유3동주민센터 화장실", "lat": 37.638707, "lng": 127.023092}, {"id": "toilet:f4e3f73330e4dd33", "type": "toilet", "name": "강북구청 외부 화장실", "lat": 37.639777, "lng": 127.025518}, {"id": "toilet:54f3a954c101a181", "type": "toilet", "name": "우이동 만남의광장 화장실", "lat": 37.661854, "lng": 127.007706}, {"id": "toilet:85630719b78cd94c", "type": "toilet", "name": "광명빌딩 민간 개방화장실", "lat": 37.632609, "lng": 127.01794}, {"id": "toilet:9b6ad1f4bf26e613", "type": "toilet", "name": "수유3파출소 화장실", "lat": 37.644346, "lng": 127.026571}, {"id": "toilet:936f61d5776ebf57", "type": "toilet", "name": "수유역 화장실", "lat": 37.640288, "lng": 127.024205}, {"id": "toilet:f4af2a757ffd7d0d", "type": "toilet", "name": "번3파출소 화장실", "lat": 37.623585, "lng": 127.048155}, {"id": "toilet:69b3ae2d939583e4", "type": "toilet", "name": "인수동 공영주차장", "lat": 37.636066, "lng": 127.01841}, {"id": "toilet:44a0030be07a3ce6", "type": "toilet", "name": "수유중앙시장 개방화장실", "lat": 37.640346, "lng": 127.021328}, {"id": "toilet:fd394776bd2c4dca", "type": "toilet", "name": "흰구름어린이공원 화장실", "lat": 37.645726, "lng": 127.020412}, {"id": "toilet:9c42b6bbbe187e67", "type": "toilet", "name": "오동골프클럽", "lat": 37.62279, "lng": 127.036603}, {"id": "toilet:bf1bbb6dfb01617c", "type": "toilet", "name": "삼양역 화장실", "lat": 37.625976, "lng": 127.019405}, {"id": "toilet:67ab41e0c995c13d", "type": "toilet", "name": "수유2동주민센터 화장실", "lat": 37.644637, "lng": 127.01988}, {"id": "toilet:ad115d34a61da565", "type": "toilet", "name": "가오리역 화장실", "lat": 37.642046, "lng": 127.016643}, {"id": "toilet:a47c0694567ecc4f", "type": "toilet", "name": "송중동주민센터 화장실", "lat": 37.616087, "lng": 127.03377}, {"id": "toilet:5b2ae00ca0edba48", "type": "toilet", "name": "삼양동주민센터", "lat": 37.624994, "lng": 127.019855}, {"id": "toilet:29ecee789aa1c1b8", "type": "toilet", "name": "미아공동육아방", "lat": 37.63261, "lng": 127.0257}, {"id": "toilet:bfa7bbbbe479f208", "type": "toilet", "name": "수유시장", "lat": 37.630781, "lng": 127.022948}, {"id": "toilet:cb1eabfdb1a694ad", "type": "toilet", "name": "삼양동종합복지센터", "lat": 37.622921, "lng": 127.018531}, {"id": "toilet:0288886629bacc1b", "type": "toilet", "name": "샛강어린이공원 화장실", "lat": 37.63934, "lng": 127.032989}, {"id": "toilet:4020a8be88f00b79", "type": "toilet", "name": "현대오일뱅크(주)직영 번동셀프주유소 화장실", "lat": 37.635587, "lng": 127.033049}, {"id": "toilet:ac8c960151cee789", "type": "toilet", "name": "강북청년창업마루 건물 화장실", "lat": 37.647424, "lng": 127.017326}, {"id": "toilet:8c64011dbe9c07b5", "type": "toilet", "name": "북서울고속주유소", "lat": 37.640145, "lng": 127.017205}, {"id": "toilet:df4116313068e1a2", "type": "toilet", "name": "숭인시장", "lat": 37.61316, "lng": 127.029516}, {"id": "toilet:c4aade0584e498cb", "type": "toilet", "name": "미아동복합청사 화장실", "lat": 37.627062, "lng": 127.026967}, {"id": "toilet:05d70bbbd4be41e3", "type": "toilet", "name": "우이동 주민센터", "lat": 37.647925, "lng": 127.011912}, {"id": "toilet:14c4f4e2ae8d0e62", "type": "toilet", "name": "신일교회", "lat": 37.623269, "lng": 127.027689}, {"id": "toilet:0bd8b9fe0da09d87", "type": "toilet", "name": "삼양사거리역 화장실", "lat": 37.621951, "lng": 127.020261}, {"id": "toilet:6a8f4d1c96322cfb", "type": "toilet", "name": "미아문화정보도서관", "lat": 37.627062, "lng": 127.026967}, {"id": "toilet:77c0d5a109106081", "type": "toilet", "name": "우이동 교통광장 공중화장실", "lat": 37.662849, "lng": 127.013178}, {"id": "toilet:f5e4e583aa22f834", "type": "toilet", "name": "서울현대병원 화장실", "lat": 37.640252, "lng": 127.028505}, {"id": "toilet:8ee1472fe753ae1c", "type": "toilet", "name": "강명빌딩 민간 개방화장실", "lat": 37.621793, "lng": 127.027586}, {"id": "toilet:868f2380db197040", "type": "toilet", "name": "수유동성당 개방화장실", "lat": 37.642644, "lng": 127.021738}, {"id": "toilet:aa5ae8013269139e", "type": "toilet", "name": "북서울꿈의숲(상상톡톡미술관)", "lat": 37.621771, "lng": 127.041174}, {"id": "toilet:88f32d659c433f9f", "type": "toilet", "name": "강북장애인복지관", "lat": 37.628768, "lng": 127.039043}, {"id": "toilet:7e2773d1ce3b6a0c", "type": "toilet", "name": "강북소방서", "lat": 37.633415, "lng": 127.037518}, {"id": "toilet:f7350f6935e17100", "type": "toilet", "name": "꽃샘길 화장실", "lat": 37.629176, "lng": 127.035502}, {"id": "toilet:8a8e5cf0a33da6db", "type": "toilet", "name": "신일병원 화장실", "lat": 37.634621, "lng": 127.021821}, {"id": "toilet:12f1fddb99a5b55d", "type": "toilet", "name": "윤극영가옥 1층 화장실", "lat": 37.646423, "lng": 127.010898}, {"id": "toilet:be29d28fc203aa2a", "type": "toilet", "name": "빨래골 어울쉼터 앞 화장실", "lat": 37.627603, "lng": 127.009477}, {"id": "toilet:07ccf53794b5ae78", "type": "toilet", "name": "벌리어린이공원 화장실", "lat": 37.627576, "lng": 127.044429}, {"id": "toilet:454f37d06659955a", "type": "toilet", "name": "솔샘어린이공원화장실", "lat": 37.61815, "lng": 127.027039}, {"id": "toilet:9bf4e6fcbb4df56e", "type": "toilet", "name": "Y-스퀘어", "lat": 37.613701, "lng": 127.030514}, {"id": "toilet:ffe733bed74c4e35", "type": "toilet", "name": "번동 가로공원 공중화장실", "lat": 37.62995, "lng": 127.042874}, {"id": "toilet:169f23042f5b7fb5", "type": "toilet", "name": "번동5단지 종합사회복지관 화장실", "lat": 37.633111, "lng": 127.035906}, {"id": "toilet:6eb176ff6001f638", "type": "toilet", "name": "강북문화예술회관", "lat": 37.640791, "lng": 127.013428}, {"id": "toilet:26a0055707045478", "type": "toilet", "name": "은모루어린이공원 화장실", "lat": 37.642232, "lng": 127.027012}, {"id": "toilet:3ed4b5dfe436e0de", "type": "toilet", "name": "강북구보건소", "lat": 37.63221, "lng": 127.038823}, {"id": "toilet:e39b404f4ad622aa", "type": "toilet", "name": "운산어린이공원 화장실", "lat": 37.632055, "lng": 127.025546}, {"id": "toilet:4ffeb6e76634012c", "type": "toilet", "name": "신성교회 민간 개방화장실", "lat": 37.616957, "lng": 127.028272}, {"id": "toilet:edfc95b63e56ff72", "type": "toilet", "name": "자전거 주차장", "lat": 37.638017, "lng": 127.024719}, {"id": "toilet:7d495e5597799d3a", "type": "toilet", "name": "S-OIL 에덴주유소", "lat": 37.621613, "lng": 127.045619}, {"id": "toilet:703cf519060c6110", "type": "toilet", "name": "4.19민주묘지역 화장실", "lat": 37.642046, "lng": 127.013416}, {"id": "toilet:70508fea15d9b640", "type": "toilet", "name": "북한산우이역 화장실", "lat": 37.614993, "lng": 127.030033}, {"id": "toilet:ceaf813c4a8d5cc1", "type": "toilet", "name": "수유2파출소 화장실", "lat": 37.640911, "lng": 127.017102}, {"id": "toilet:d0b7e89c65c0d500", "type": "toilet", "name": "북한산유아숲체험장 화장실", "lat": 37.639996, "lng": 127.022314}, {"id": "toilet:f6412e2d575201eb", "type": "toilet", "name": "북서울요양병원 화장실", "lat": 37.638132, "lng": 127.030046}, {"id": "toilet:7ded9af6fb1b1734", "type": "toilet", "name": "수유마을시장 공영주차장", "lat": 37.630571, "lng": 127.021874}, {"id": "toilet:966b805dd6ea6fac", "type": "toilet", "name": "이준열사 묘역 앞 화장실", "lat": 37.643221, "lng": 127.001996}, {"id": "toilet:a2c85db97574a1ec", "type": "toilet", "name": "북서울꿈의숲(메이린 식당)", "lat": 37.621771, "lng": 127.041174}, {"id": "toilet:2cfd5f9277d84e41", "type": "toilet", "name": "햇빛병원 화장실", "lat": 37.61573, "lng": 127.030222}, {"id": "toilet:06a9fbcf54213726", "type": "toilet", "name": "함석헌기념관", "lat": 37.65291, "lng": 127.0348}, {"id": "toilet:9ab8879cfa737441", "type": "toilet", "name": "우림빌딩", "lat": 37.65303, "lng": 127.0463}, {"id": "toilet:668850f9e18f500a", "type": "toilet", "name": "노원교주유소", "lat": 37.67899, "lng": 127.0496}, {"id": "toilet:d301fa177d20811b", "type": "toilet", "name": "도봉서원종합사회복지관", "lat": 37.66966, "lng": 127.0464}, {"id": "toilet:40fa6fa68763d741", "type": "toilet", "name": "도봉구민회관", "lat": 37.65417, "lng": 127.0383}, {"id": "toilet:b2131d125ff749ed", "type": "toilet", "name": "동일석유(주) 창동주유소", "lat": 37.64466, "lng": 127.0326}, {"id": "toilet:3c94d0fdc02c7bbb", "type": "toilet", "name": "쌍문4동 주민센터", "lat": 37.65643, "lng": 127.0283}, {"id": "toilet:6f1a62ffd3b610ae", "type": "toilet", "name": "도봉청소년누리터위드", "lat": 37.64067, "lng": 127.0386}, {"id": "toilet:e2a2a6d010a278ec", "type": "toilet", "name": "도봉한양프라자", "lat": 37.65648, "lng": 127.0329}, {"id": "toilet:f59271a703ad0deb", "type": "toilet", "name": "친환경나눔텃밭", "lat": 37.64997, "lng": 127.0212}, {"id": "toilet:aedbf6bf17e4437a", "type": "toilet", "name": "도봉문화정보도서관", "lat": 37.6443, "lng": 127.0441}, {"id": "toilet:7d6c895832088b4d", "type": "toilet", "name": "도봉청소년독서실", "lat": 37.66412, "lng": 127.0462}, {"id": "toilet:baed3030a82b57ca", "type": "toilet", "name": "에이치디현대오일뱅크(주)영신주유소", "lat": 37.66246, "lng": 127.0354}, {"id": "toilet:778e53aa6ad859c3", "type": "toilet", "name": "도봉역 화장실", "lat": 37.68038, "lng": 127.0457}, {"id": "toilet:e0ea7cc303038489", "type": "toilet", "name": "국제배드민턴장", "lat": 37.67631, "lng": 127.0429}, {"id": "toilet:dc90abb274747473", "type": "toilet", "name": "원당마을한옥도서관", "lat": 37.66029, "lng": 127.0217}, {"id": "toilet:033ccabfeabbb3e4", "type": "toilet", "name": "무수골마을입구", "lat": 37.67713, "lng": 127.0304}, {"id": "toilet:19c454a8a3c6fde8", "type": "toilet", "name": "발바닥공원", "lat": 37.65954, "lng": 127.0295}, {"id": "toilet:1f6b91458a9694c3", "type": "toilet", "name": "쌍문동어르신복지관", "lat": 37.64828, "lng": 127.0238}, {"id": "toilet:3f10c596b74631fb", "type": "toilet", "name": "(사)도봉한신쇼핑상가", "lat": 37.68569, "lng": 127.0493}, {"id": "toilet:47a5808ffc0a6c02", "type": "toilet", "name": "밤골어린이공원", "lat": 37.64881, "lng": 127.0455}, {"id": "toilet:303e7a4d51fad277", "type": "toilet", "name": "한일빌딩", "lat": 37.67408, "lng": 127.0448}, {"id": "toilet:aa21274fcbe26a82", "type": "toilet", "name": "도봉산역(1호선) 화장실", "lat": 37.68902, "lng": 127.0458}, {"id": "toilet:3ec7482014a5153b", "type": "toilet", "name": "신동아프라자", "lat": 37.66161, "lng": 127.0272}, {"id": "toilet:7666e007278111f7", "type": "toilet", "name": "극동유화㈜대안주유소", "lat": 37.66155, "lng": 127.0473}, {"id": "toilet:ac826a2f8c687cfb", "type": "toilet", "name": "세정빌딩", "lat": 37.65305, "lng": 127.0507}, {"id": "toilet:6074b44ff2ec780a", "type": "toilet", "name": "쌍문동청소년문화의집", "lat": 37.65428, "lng": 127.0289}, {"id": "toilet:9765b9b28c2a25f5", "type": "toilet", "name": "햇빛요양보호사교육원", "lat": 37.64728, "lng": 127.0335}, {"id": "toilet:2912658ba18851ca", "type": "toilet", "name": "창동19단지종합상가", "lat": 37.65025, "lng": 127.0516}, {"id": "toilet:4b273a516b39f0a0", "type": "toilet", "name": "창3동 주민센터", "lat": 37.63811, "lng": 127.0427}, {"id": "toilet:1eb60087cd05edfa", "type": "toilet", "name": "우이천변3(한일병원)", "lat": 37.6439, "lng": 127.0298}, {"id": "toilet:50a5d08797e92ea7", "type": "toilet", "name": "창동종합사회복지관", "lat": 37.64472, "lng": 127.0456}, {"id": "toilet:fc9ab13bfdf41475", "type": "toilet", "name": "중랑천변2(상계교)", "lat": 37.6613, "lng": 127.0508}, {"id": "toilet:8ecfe33d7eb3e5a3", "type": "toilet", "name": "청심천배드민턴장", "lat": 37.65516, "lng": 127.0346}, {"id": "toilet:8a4b890f92523b9a", "type": "toilet", "name": "한영가스충전소", "lat": 37.66056, "lng": 127.0415}, {"id": "toilet:1530b546b18e2e5a", "type": "toilet", "name": "대성산업(주) 신창주유소", "lat": 37.64121, "lng": 127.0402}, {"id": "toilet:a3846ec1fe754180", "type": "toilet", "name": "둘리뮤지엄(둘리도서관)", "lat": 37.65212, "lng": 127.0278}, {"id": "toilet:7e43c38c52f6f663", "type": "toilet", "name": "중랑천변4(녹천교)", "lat": 37.6429, "lng": 127.0545}, {"id": "toilet:0de9d47a6f970e0e", "type": "toilet", "name": "김수영문학관", "lat": 37.65993, "lng": 127.0237}, {"id": "toilet:2d347ba8b05ded47", "type": "toilet", "name": "초안산 붕붕도서관", "lat": 37.64477, "lng": 127.0491}, {"id": "toilet:6b2d348345aac39e", "type": "toilet", "name": "무수골도서관", "lat": 37.68283, "lng": 127.0428}, {"id": "toilet:801fa00724bcfa20", "type": "toilet", "name": "방학역 화장실", "lat": 37.66634, "lng": 127.0444}, {"id": "toilet:913b8ad03828d4d1", "type": "toilet", "name": "다모아빌딩", "lat": 37.6528, "lng": 127.0489}, {"id": "toilet:5d814e24229f3d1e", "type": "toilet", "name": "창동청소년문화의집", "lat": 37.63811, "lng": 127.0427}, {"id": "toilet:c93bdd979cd460ad", "type": "toilet", "name": "도봉산입구상가연합회", "lat": 37.6863, "lng": 127.0375}, {"id": "toilet:7ac61be62bb3e540", "type": "toilet", "name": "중랑천변5(창동교)", "lat": 37.6534, "lng": 127.0536}, {"id": "toilet:581485d7a146b43e", "type": "toilet", "name": "도봉동어르신복지관", "lat": 37.682081, "lng": 127.0434}, {"id": "toilet:012e041df345bc09", "type": "toilet", "name": "간송옛집", "lat": 37.66487, "lng": 127.0281}, {"id": "toilet:d2cb63570624bab5", "type": "toilet", "name": "도봉동청소년문화의집", "lat": 37.6843, "lng": 127.0468}, {"id": "toilet:62a0f2c2ab9b1fcf", "type": "toilet", "name": "지에스칼텍스(주)도봉주유소", "lat": 37.68443, "lng": 127.0457}, {"id": "toilet:a1b659806d28e855", "type": "toilet", "name": "우이천변4(신화초교)", "lat": 37.6317, "lng": 127.0413}, {"id": "toilet:7b692c974ff1c524", "type": "toilet", "name": "도봉산역(7호선) 화장실", "lat": 37.6891, "lng": 127.0464}, {"id": "toilet:ca729bfdd82c73f5", "type": "toilet", "name": "힐사이드배드민턴장", "lat": 37.67653, "lng": 127.0431}, {"id": "toilet:ad63c0c91ec498c9", "type": "toilet", "name": "새동네어울누리", "lat": 37.68881, "lng": 127.0427}, {"id": "toilet:a457054b43c96ab7", "type": "toilet", "name": "녹천역 화장실", "lat": 37.64585, "lng": 127.0507}, {"id": "toilet:088583a975897d37", "type": "toilet", "name": "신방학초교 뒤", "lat": 37.66064, "lng": 127.0187}, {"id": "toilet:4eb1e53920940d01", "type": "toilet", "name": "쌍문역(4호선) 화장실", "lat": 37.64885, "lng": 127.0349}, {"id": "toilet:e968010cd6182143", "type": "toilet", "name": "도봉아이나라도서관", "lat": 37.65914, "lng": 127.0496}, {"id": "toilet:2f06546fe34a77a4", "type": "toilet", "name": "삼미상사(주) 북부주유소", "lat": 37.64514, "lng": 127.0323}, {"id": "toilet:d0ce344df61f13e0", "type": "toilet", "name": "초안산근린공원", "lat": 37.64747, "lng": 127.0413}, {"id": "toilet:71e63260f8db7422", "type": "toilet", "name": "도봉구보건소", "lat": 37.65812, "lng": 127.0385}, {"id": "toilet:c200885456a83cea", "type": "toilet", "name": "럭키프라자상가", "lat": 37.67991, "lng": 127.0439}, {"id": "toilet:ca1e457c116ed1b7", "type": "toilet", "name": "둘리쌍문공원 세심천", "lat": 37.65653, "lng": 127.0245}, {"id": "toilet:6d9348fdd7b541bd", "type": "toilet", "name": "대우상가", "lat": 37.64263, "lng": 127.0372}, {"id": "toilet:b587d95adbe22b4a", "type": "toilet", "name": "동산빌딩", "lat": 37.65397, "lng": 127.0517}, {"id": "toilet:8de16789bd8d079f", "type": "toilet", "name": "구도일주유소 파크빌", "lat": 37.64682, "lng": 127.0394}, {"id": "toilet:2969539e9a37ac58", "type": "toilet", "name": "창동역동측", "lat": 37.65338, "lng": 127.0489}, {"id": "toilet:3c6ff376300c5918", "type": "toilet", "name": "창동문화체육센터", "lat": 37.65806, "lng": 127.0501}, {"id": "toilet:f103be60caec8bf0", "type": "toilet", "name": "쌍문셀프주유소", "lat": 37.64905, "lng": 127.0268}, {"id": "toilet:e4acc7d52bb05159", "type": "toilet", "name": "학마을도서관", "lat": 37.66221, "lng": 127.0276}, {"id": "toilet:cf3892f22f874ada", "type": "toilet", "name": "미륭프라자", "lat": 37.66225, "lng": 127.0304}, {"id": "toilet:183ec1a932b32c62", "type": "toilet", "name": "창4동 주민센터", "lat": 37.65229, "lng": 127.0515}, {"id": "toilet:87e432c9fda0ee47", "type": "toilet", "name": "방학1동 주민센터", "lat": 37.6642, "lng": 127.0408}, {"id": "toilet:917544bdcc943408", "type": "toilet", "name": "성민교회", "lat": 37.65993, "lng": 127.0337}, {"id": "toilet:e51fcb00a579b50e", "type": "toilet", "name": "창동역(4호선)", "lat": 37.6559, "lng": 127.0134}, {"id": "toilet:7d70fada47fcd290", "type": "toilet", "name": "한이에너지(주)쌍문주유소", "lat": 37.65403, "lng": 127.0376}, {"id": "toilet:d13c8e5457c342b4", "type": "toilet", "name": "구도일주유소 도봉", "lat": 37.66745, "lng": 127.0434}, {"id": "toilet:a7fb230347562189", "type": "toilet", "name": "대성빌딩", "lat": 37.6524, "lng": 127.0503}, {"id": "toilet:c48363db04caa602", "type": "toilet", "name": "도봉여성센터", "lat": 37.66317, "lng": 127.0301}, {"id": "toilet:2fedeef24cda9f24", "type": "toilet", "name": "방학동어르신복지관", "lat": 37.67058, "lng": 127.0322}, {"id": "toilet:b674616b204c6860", "type": "toilet", "name": "창2동 주민센터", "lat": 37.64149, "lng": 127.0355}, {"id": "toilet:9d956e787c2bb56f", "type": "toilet", "name": "㈜이마트 창동점", "lat": 37.65161, "lng": 127.0466}, {"id": "toilet:fb60d47bf938e9e0", "type": "toilet", "name": "이케이에너지 주식회사", "lat": 37.6884, "lng": 127.0453}, {"id": "toilet:595c607b8860d466", "type": "toilet", "name": "도봉2동 주민센터", "lat": 37.66966, "lng": 127.0464}, {"id": "toilet:369ff7c92ed7e739", "type": "toilet", "name": "다락원체육공원", "lat": 37.6907, "lng": 127.0464}, {"id": "toilet:7cd7db2832a154c1", "type": "toilet", "name": "월천근린공원", "lat": 37.64736, "lng": 127.0512}, {"id": "toilet:fe787d6fc3b87072", "type": "toilet", "name": "대한반호프빌딩", "lat": 37.65223, "lng": 127.0496}, {"id": "toilet:81140c3b8dfd67a9", "type": "toilet", "name": "시립도봉노인복지관", "lat": 37.65883, "lng": 127.0359}, {"id": "toilet:38ba9f797d0ecc47", "type": "toilet", "name": "오복주유소", "lat": 37.66231, "lng": 127.0473}, {"id": "toilet:446d836ffa4dc4a7", "type": "toilet", "name": "쌍문2동 주민센터", "lat": 37.65995, "lng": 127.0398}, {"id": "toilet:0076fd0ceeaabaf2", "type": "toilet", "name": "쌍문3동 주민센터", "lat": 37.64894, "lng": 127.0278}, {"id": "toilet:a48ec8bf5ec3e805", "type": "toilet", "name": "도봉산역(7호선) 화장실", "lat": 37.68913, "lng": 127.0464}, {"id": "toilet:c367810cf031b17f", "type": "toilet", "name": "방아골종합사회복지관", "lat": 37.66924, "lng": 127.0326}, {"id": "toilet:e6f834674e6203a4", "type": "toilet", "name": "창1동 주민센터", "lat": 37.64837, "lng": 127.0438}, {"id": "toilet:4780f3cbea6e6765", "type": "toilet", "name": "장수배드민턴장", "lat": 37.66924, "lng": 127.0285}, {"id": "toilet:6bb22f9aa96869f6", "type": "toilet", "name": "방학3동 주민센터", "lat": 37.65915, "lng": 127.0279}, {"id": "toilet:0e272ad151995cf4", "type": "toilet", "name": "창5동 주민센터", "lat": 37.65637, "lng": 127.0435}, {"id": "toilet:72eab46065657b53", "type": "toilet", "name": "하나빌딩", "lat": 37.65223, "lng": 127.0496}, {"id": "toilet:775e94ae72293adb", "type": "toilet", "name": "도봉 기적의 도서관", "lat": 37.6808, "lng": 127.0502}, {"id": "toilet:a47c4a74eb093064", "type": "toilet", "name": "도봉월드", "lat": 37.66808, "lng": 127.0464}, {"id": "toilet:01ce35ecb4c51c9d", "type": "toilet", "name": "쌍문채움도서관", "lat": 37.64697, "lng": 127.0261}, {"id": "toilet:885c64b5c89b0e4c", "type": "toilet", "name": "월계3동주민센터", "lat": 37.620979, "lng": 127.069258}, {"id": "toilet:446de6f53d9e31f6", "type": "toilet", "name": "초안산 캠핑장", "lat": 37.642788, "lng": 127.049877}, {"id": "toilet:dc552f311eb82dda", "type": "toilet", "name": "서울과학기술대학교 100주년기념관", "lat": 37.631668, "lng": 127.077481}, {"id": "toilet:8fec0a1fb88a4c49", "type": "toilet", "name": "서울과학기술대학교 프론티어관", "lat": 37.631668, "lng": 127.077481}, {"id": "toilet:d41aebd0fea170ee", "type": "toilet", "name": "당현천 화장실", "lat": 37.649501, "lng": 127.065529}, {"id": "toilet:4d4009ab7910f3b2", "type": "toilet", "name": "서울과학기술대학교 학군단", "lat": 37.631668, "lng": 127.077481}, {"id": "toilet:d5b4e453d14e0681", "type": "toilet", "name": "서울과학기술대학교 제2학생회관", "lat": 37.631668, "lng": 127.077481}, {"id": "toilet:7bf38b0f458b85eb", "type": "toilet", "name": "서울과학기술대학교 하이테크관", "lat": 37.631668, "lng": 127.077481}, {"id": "toilet:534dc95738f64595", "type": "toilet", "name": "월계종합사회복지관", "lat": 37.654395, "lng": 127.056519}, {"id": "toilet:b8876edf23e50176", "type": "toilet", "name": "중계2·3동주민센터", "lat": 37.654395, "lng": 127.056519}, {"id": "toilet:00c3a7d0fb3968a7", "type": "toilet", "name": "불암산배드민턴장", "lat": 37.638707, "lng": 127.082944}, {"id": "toilet:42c8665d2825924b", "type": "toilet", "name": "서울과학기술대학교 중앙도서관 별관", "lat": 37.631668, "lng": 127.077481}, {"id": "toilet:0a9a3e37ccdd1187", "type": "toilet", "name": "중랑천 화장실(장애인용)", "lat": 37.634607, "lng": 127.060308}, {"id": "toilet:cad1d4f26623e069", "type": "toilet", "name": "중계종합사회복지관", "lat": 37.656584, "lng": 127.075943}, {"id": "toilet:992e7e82c05d6005", "type": "toilet", "name": "상계교 화장실", "lat": 37.664712, "lng": 127.051708}, {"id": "toilet:3b6c549560e37ee0", "type": "toilet", "name": "서울과학기술대학교 미래관", "lat": 37.631668, "lng": 127.077481}, {"id": "toilet:f46dcd2809a7ba12", "type": "toilet", "name": "하계종합사회복지관", "lat": 37.641653, "lng": 127.075383}, {"id": "toilet:0b837dfa6a547413", "type": "toilet", "name": "서울과학기술대학교 아름관", "lat": 37.631668, "lng": 127.077481}, {"id": "toilet:8580c86fde8254c8", "type": "toilet", "name": "서울과학기술대학교 상상관", "lat": 37.631668, "lng": 127.077481}, {"id": "toilet:ec772e873d241cd8", "type": "toilet", "name": "상계종합사회복지관", "lat": 37.667789, "lng": 127.078237}, {"id": "toilet:cc62cf77187f1216", "type": "toilet", "name": "상계2동주민센터", "lat": 37.657412, "lng": 127.067927},